[{"category":"anti-social-behaviour","location_type":"Force","location":{"latitude":"51.513389","street":{"id":587242,"name":"On or near Leadenhall Street"},"longitude":"-0.080034"},"context":"","outcome_status":null,"persistent_id":"1d0d8de1382f1421c748c2ff82f62780212b698a85b6ecece1464ec772d9fab8","id":65928150,"location_subtype":"","month":"2018-06"},{"category":"anti-social-behaviour","location_type":"Force","location":{"latitude":"51.513389","street":{"id":587242,"name":"On or near Leadenhall Street"},"longitude":"-0.080034"},"context":"","outcome_status":null,"persistent_id":"947b645dbae560eab45d010ff30eb7aa8578cee701ce805581d6c947cc4c9c9c","id":65928204,"location_subtype":"","month":"2018-06"},{"category":"anti-social-behaviour","location_type":"Force","location":{"latitude":"51.515523","street":{"id":587213,"name":"On or near White Kennett Street"},"longitude":"-0.077451"},"context":"","outcome_status":null,"persistent_id":"b677bf75614e485b9aedb04435d793d14cae1f4c3a2aa11046f3d6cb504bfa8c","id":65927970,"location_subtype":"","month":"2018-06"},{"category":"anti-social-behaviour","location_type":"Force","location":{"latitude":"51.513389","street":{"id":587242,"name":"On or near Leadenhall Street"},"longitude":"-0.080034"},"context":"","outcome_status":null,"persistent_id":"9089fc91535623ae5722763184fcbb4f7e509d72215779d7f854878e98b3abf7","id":65927878,"location_subtype":"","month":"2018-06"},{"category":"bicycle-theft","location_type":"Force","location":{"latitude":"51.515523","street":{"id":587213,"name":"On or near White Kennett Street"},"longitude":"-0.077451"},"context":"","outcome_status":{"category":"Under investigation","date":"2018-06"},"persistent_id":"0f9e7479d3f4cfdcc9700ba56ac06064c64b5d372dc3298260a6e326ef0c5d2f","id":65927969,"location_subtype":"","month":"2018-06"},{"category":"bicycle-theft","location_type":"Force","location":{"latitude":"51.514137","street":{"id":587249,"name":"On or near Heneage Place"},"longitude":"-0.078994"},"context":"","outcome_status":{"category":"Investigation complete; no suspect identified","date":"2018-06"},"persistent_id":"7c6135f7f358683dbcea83e277e055fedc45bfeef5d3134f34e4ed8eb955367d","id":65927950,"location_subtype":"","month":"2018-06"},{"category":"burglary","location_type":"Force","location":{"latitude":"51.514137","street":{"id":587249,"name":"On or near Heneage Place"},"longitude":"-0.078994"},"context":"","outcome_status":{"category":"Under investigation","date":"2018-06"},"persistent_id":"74d2fa8a0035d5e04fa68f228c0c214b08b92a4b7dfd2205c217307164cd578b","id":65927945,"location_subtype":"","month":"2018-06"},{"category":"burglary","location_type":"Force","location":{"latitude":"51.513676","street":{"id":587232,"name":"On or near Mitre Street"},"longitude":"-0.078307"},"context":"","outcome_status":{"category":"Under investigation","date":"2018-06"},"persistent_id":"e0a461bdd806add37182f8406ec83ed8777a77d2eb4b5985381e5f17bbff734d","id":65927955,"location_subtype":"","month":"2018-06"},{"category":"burglary","location_type":"Force","location":{"latitude":"51.514137","street":{"id":587249,"name":"On or near Heneage Place"},"longitude":"-0.078994"},"context":"","outcome_status":{"category":"Under investigation","date":"2018-06"},"persistent_id":"f4993c4ed10c40a14e574e726288ecaae1ae6413ae0ee7d960dd95246a2b0bbd","id":65927947,"location_subtype":"","month":"2018-06"},{"category":"burglary","location_type":"Force","location":{"latitude":"51.514137","street":{"id":587249,"name":"On or near Heneage Place"},"longitude":"-0.078994"},"context":"","outcome_status":{"category":"Under investigation","date":"2018-06"},"persistent_id":"f63cddc71d7b35790309d108cdf2fa8c5aca67a9cc35c02f808dde2fa1d740c8","id":65927946,"location_subtype":"","month":"2018-06"},{"category":"burglary","location_type":"Force","location":{"latitude":"51.514137","street":{"id":587249,"name":"On or near Heneage Place"},"longitude":"-0.078994"},"context":"","outcome_status":{"category":"Under investigation","date":"2018-06"},"persistent_id":"fe9717aac5becb37314e1426ab88fb5d7e6b02ba74ee645032f34ad9b294ff54","id":65927944,"location_subtype":"","month":"2018-06"},{"category":"burglary","location_type":"Force","location":{"latitude":"51.512678","street":{"id":587259,"name":"On or near Fenchurch Buildings"},"longitude":"-0.079444"},"context":"","outcome_status":{"category":"Under investigation","date":"2018-06"},"persistent_id":"2247bc5fea3079cfc98a9719040c8c8ff3b79d4bac08df9fc3f1cd1381e41848","id":65927930,"location_subtype":"","month":"2018-06"},{"category":"drugs","location_type":"Force","location":{"latitude":"51.513389","street":{"id":587242,"name":"On or near Leadenhall Street"},"longitude":"-0.080034"},"context":"","outcome_status":{"category":"Offender given a drugs possession warning","date":"2018-06"},"persistent_id":"abf0b17a05415a4685af7018ccb3ae7b22fa24e0703c3496c569c7e0d8889f78","id":65927890,"location_subtype":"","month":"2018-06"},{"category":"drugs","location_type":"Force","location":{"latitude":"51.515033","street":{"id":587247,"name":"On or near Houndsditch"},"longitude":"-0.078250"},"context":"","outcome_status":{"category":"Under investigation","date":"2018-06"},"persistent_id":"77aa032642e803927db1161670f0bffa3d9e4be13252e5d878efc8c9f2b6c9e7","id":65927948,"location_subtype":"","month":"2018-06"},{"category":"other-theft","location_type":"Force","location":{"latitude":"51.515523","street":{"id":587213,"name":"On or near White Kennett Street"},"longitude":"-0.077451"},"context":"","outcome_status":{"category":"Investigation complete; no suspect identified","date":"2018-06"},"persistent_id":"655bff48371388d092981b68c622431dbcd798694183eeb589c73e746f58c6db","id":65927967,"location_subtype":"","month":"2018-06"},{"category":"other-theft","location_type":"Force","location":{"latitude":"51.515523","street":{"id":587213,"name":"On or near White Kennett Street"},"longitude":"-0.077451"},"context":"","outcome_status":{"category":"Investigation complete; no suspect identified","date":"2018-06"},"persistent_id":"72905cc2f74e287ae8ce772f95977e9709fcd1f9b03699f897723753c38eb25a","id":65927968,"location_subtype":"","month":"2018-06"},{"category":"other-theft","location_type":"Force","location":{"latitude":"51.514940","street":{"id":587274,"name":"On or near Bevis Marks"},"longitude":"-0.079162"},"context":"","outcome_status":{"category":"Investigation complete; no suspect identified","date":"2018-06"},"persistent_id":"3cb51181085e0bc65acec8d37440b256ccf4ea6513704c69e09d6a28301bcc41","id":65927940,"location_subtype":"","month":"2018-06"},{"category":"other-theft","location_type":"Force","location":{"latitude":"51.515033","street":{"id":587247,"name":"On or near Houndsditch"},"longitude":"-0.078250"},"context":"","outcome_status":{"category":"Under investigation","date":"2018-06"},"persistent_id":"78eeab9681289fafdacc59d60a2a41215c2a9ba875ec78a72bc01bbc48281363","id":65927949,"location_subtype":"","month":"2018-06"},{"category":"robbery","location_type":"Force","location":{"latitude":"51.512135","street":{"id":587238,"name":"On or near Lloyd's Avenue"},"longitude":"-0.078127"},"context":"","outcome_status":{"category":"Under investigation","date":"2018-06"},"persistent_id":"4ce1eba272e5b205df3ab4570c02b0260dc9fb9f860245a774f3e45a5a822d38","id":65927960,"location_subtype":"","month":"2018-06"},{"category":"theft-from-the-person","location_type":"Force","location":{"latitude":"51.513389","street":{"id":587242,"name":"On or near Leadenhall Street"},"longitude":"-0.080034"},"context":"","outcome_status":{"category":"Under investigation","date":"2018-06"},"persistent_id":"aab6d997120b690ab6f048ef0b4d421f8904b8f3298b0e5d145ae975fc1f5faa","id":65927891,"location_subtype":"","month":"2018-06"},{"category":"vehicle-crime","location_type":"Force","location":{"latitude":"51.514137","street":{"id":587249,"name":"On or near Heneage Place"},"longitude":"-0.078994"},"context":"","outcome_status":{"category":"Under investigation","date":"2018-06"},"persistent_id":"0fccd57a6cb44ef9fb384d60291e8075e061fbdac22fe17f419d4c947a70fb90","id":65927941,"location_subtype":"","month":"2018-06"},{"category":"vehicle-crime","location_type":"Force","location":{"latitude":"51.512181","street":{"id":587230,"name":"On or near Northumberland Alley"},"longitude":"-0.077649"},"context":"","outcome_status":{"category":"Under investigation","date":"2018-06"},"persistent_id":"01c523456805e829ce39664484a77f3f4dd0b289fe4099aaae617301d5235d1a","id":65927965,"location_subtype":"","month":"2018-06"}]