[{"category":"anti-social-behaviour","location_type":"Force","location":{"latitude":"51.301278","street":{"id":1151524,"name":"On or near Bramble Bank"},"longitude":"-0.722133"},"context":"","outcome_status":null,"persistent_id":"554fd7ba6fc67d388c02a1be61837a2c819843957f1ed0852a705647e0b2e14e","id":65898159,"location_subtype":"","month":"2018-06"},{"category":"anti-social-behaviour","location_type":"Force","location":{"latitude":"51.305602","street":{"id":1153186,"name":"On or near Sports\/recreation Area"},"longitude":"-0.724495"},"context":"","outcome_status":null,"persistent_id":"554fd7ba6fc67d388c02a1be61837a2c819843957f1ed0852a705647e0b2e14e","id":65905166,"location_subtype":"","month":"2018-06"},{"category":"anti-social-behaviour","location_type":"Force","location":{"latitude":"51.306689","street":{"id":1153174,"name":"On or near Radcliffe Close"},"longitude":"-0.724465"},"context":"","outcome_status":null,"persistent_id":"554fd7ba6fc67d388c02a1be61837a2c819843957f1ed0852a705647e0b2e14e","id":65905057,"location_subtype":"","month":"2018-06"},{"category":"anti-social-behaviour","location_type":"Force","location":{"latitude":"51.305763","street":{"id":1153277,"name":"On or near Elmcroft Close"},"longitude":"-0.730243"},"context":"","outcome_status":null,"persistent_id":"554fd7ba6fc67d388c02a1be61837a2c819843957f1ed0852a705647e0b2e14e","id":65904474,"location_subtype":"","month":"2018-06"},{"category":"anti-social-behaviour","location_type":"Force","location":{"latitude":"51.305136","street":{"id":1153254,"name":"On or near Sports\/recreation Area"},"longitude":"-0.727119"},"context":"","outcome_status":null,"persistent_id":"554fd7ba6fc67d388c02a1be61837a2c819843957f1ed0852a705647e0b2e14e","id":65904461,"location_subtype":"","month":"2018-06"},{"category":"anti-social-behaviour","location_type":"Force","location":{"latitude":"51.305602","street":{"id":1153186,"name":"On or near Sports\/recreation Area"},"longitude":"-0.724495"},"context":"","outcome_status":null,"persistent_id":"554fd7ba6fc67d388c02a1be61837a2c819843957f1ed0852a705647e0b2e14e","id":65904449,"location_subtype":"","month":"2018-06"},{"category":"anti-social-behaviour","location_type":"Force","location":{"latitude":"51.309966","street":{"id":1153204,"name":"On or near Moor Road"},"longitude":"-0.730587"},"context":"","outcome_status":null,"persistent_id":"554fd7ba6fc67d388c02a1be61837a2c819843957f1ed0852a705647e0b2e14e","id":65897208,"location_subtype":"","month":"2018-06"},{"category":"anti-social-behaviour","location_type":"Force","location":{"latitude":"51.312403","street":{"id":1153161,"name":"On or near Berkeley Crescent"},"longitude":"-0.723130"},"context":"","outcome_status":null,"persistent_id":"554fd7ba6fc67d388c02a1be61837a2c819843957f1ed0852a705647e0b2e14e","id":65897218,"location_subtype":"","month":"2018-06"},{"category":"anti-social-behaviour","location_type":"Force","location":{"latitude":"51.305763","street":{"id":1153277,"name":"On or near Elmcroft Close"},"longitude":"-0.730243"},"context":"","outcome_status":null,"persistent_id":"554fd7ba6fc67d388c02a1be61837a2c819843957f1ed0852a705647e0b2e14e","id":65903978,"location_subtype":"","month":"2018-06"},{"category":"anti-social-behaviour","location_type":"Force","location":{"latitude":"51.305605","street":{"id":1153269,"name":"On or near Nursery Close"},"longitude":"-0.728957"},"context":"","outcome_status":null,"persistent_id":"554fd7ba6fc67d388c02a1be61837a2c819843957f1ed0852a705647e0b2e14e","id":65903923,"location_subtype":"","month":"2018-06"},{"category":"anti-social-behaviour","location_type":"Force","location":{"latitude":"51.305136","street":{"id":1153254,"name":"On or near Sports\/recreation Area"},"longitude":"-0.727119"},"context":"","outcome_status":null,"persistent_id":"554fd7ba6fc67d388c02a1be61837a2c819843957f1ed0852a705647e0b2e14e","id":65903255,"location_subtype":"","month":"2018-06"},{"category":"anti-social-behaviour","location_type":"Force","location":{"latitude":"51.311320","street":{"id":1153201,"name":"On or near Osborne Close"},"longitude":"-0.727708"},"context":"","outcome_status":null,"persistent_id":"554fd7ba6fc67d388c02a1be61837a2c819843957f1ed0852a705647e0b2e14e","id":65897554,"location_subtype":"","month":"2018-06"},{"category":"anti-social-behaviour","location_type":"Force","location":{"latitude":"51.312403","street":{"id":1153161,"name":"On or near Berkeley Crescent"},"longitude":"-0.723130"},"context":"","outcome_status":null,"persistent_id":"554fd7ba6fc67d388c02a1be61837a2c819843957f1ed0852a705647e0b2e14e","id":65898931,"location_subtype":"","month":"2018-06"},{"category":"anti-social-behaviour","location_type":"Force","location":{"latitude":"51.299247","street":{"id":1151525,"name":"On or near Sports\/recreation Area"},"longitude":"-0.723940"},"context":"","outcome_status":null,"persistent_id":"554fd7ba6fc67d388c02a1be61837a2c819843957f1ed0852a705647e0b2e14e","id":65901412,"location_subtype":"","month":"2018-06"},{"category":"anti-social-behaviour","location_type":"Force","location":{"latitude":"51.310511","street":{"id":1153158,"name":"On or near Lansdowne Road"},"longitude":"-0.720299"},"context":"","outcome_status":null,"persistent_id":"554fd7ba6fc67d388c02a1be61837a2c819843957f1ed0852a705647e0b2e14e","id":65897555,"location_subtype":"","month":"2018-06"},{"category":"anti-social-behaviour","location_type":"Force","location":{"latitude":"51.305136","street":{"id":1153254,"name":"On or near Sports\/recreation Area"},"longitude":"-0.727119"},"context":"","outcome_status":null,"persistent_id":"554fd7ba6fc67d388c02a1be61837a2c819843957f1ed0852a705647e0b2e14e","id":65900099,"location_subtype":"","month":"2018-06"},{"category":"anti-social-behaviour","location_type":"Force","location":{"latitude":"51.299247","street":{"id":1151525,"name":"On or near Sports\/recreation Area"},"longitude":"-0.723940"},"context":"","outcome_status":null,"persistent_id":"554fd7ba6fc67d388c02a1be61837a2c819843957f1ed0852a705647e0b2e14e","id":65905462,"location_subtype":"","month":"2018-06"},{"category":"anti-social-behaviour","location_type":"Force","location":{"latitude":"51.309547","street":{"id":1153195,"name":"On or near St Peter's Way"},"longitude":"-0.730928"},"context":"","outcome_status":null,"persistent_id":"554fd7ba6fc67d388c02a1be61837a2c819843957f1ed0852a705647e0b2e14e","id":65899791,"location_subtype":"","month":"2018-06"},{"category":"anti-social-behaviour","location_type":"Force","location":{"latitude":"51.311547","street":{"id":1153160,"name":"On or near Clevedon Court"},"longitude":"-0.722982"},"context":"","outcome_status":null,"persistent_id":"554fd7ba6fc67d388c02a1be61837a2c819843957f1ed0852a705647e0b2e14e","id":65899750,"location_subtype":"","month":"2018-06"},{"category":"anti-social-behaviour","location_type":"Force","location":{"latitude":"51.301278","street":{"id":1151524,"name":"On or near Bramble Bank"},"longitude":"-0.722133"},"context":"","outcome_status":null,"persistent_id":"554fd7ba6fc67d388c02a1be61837a2c819843957f1ed0852a705647e0b2e14e","id":65899728,"location_subtype":"","month":"2018-06"},{"category":"anti-social-behaviour","location_type":"Force","location":{"latitude":"51.305605","street":{"id":1153269,"name":"On or near Nursery Close"},"longitude":"-0.728957"},"context":"","outcome_status":null,"persistent_id":"554fd7ba6fc67d388c02a1be61837a2c819843957f1ed0852a705647e0b2e14e","id":65898105,"location_subtype":"","month":"2018-06"},{"category":"anti-social-behaviour","location_type":"Force","location":{"latitude":"51.305696","street":{"id":1153175,"name":"On or near Queensway"},"longitude":"-0.721609"},"context":"","outcome_status":null,"persistent_id":"554fd7ba6fc67d388c02a1be61837a2c819843957f1ed0852a705647e0b2e14e","id":65898158,"location_subtype":"","month":"2018-06"},{"category":"anti-social-behaviour","location_type":"Force","location":{"latitude":"51.301278","street":{"id":1151524,"name":"On or near Bramble Bank"},"longitude":"-0.722133"},"context":"","outcome_status":null,"persistent_id":"554fd7ba6fc67d388c02a1be61837a2c819843957f1ed0852a705647e0b2e14e","id":65898948,"location_subtype":"","month":"2018-06"},{"category":"burglary","location_type":"Force","location":{"latitude":"51.307510","street":{"id":1153276,"name":"On or near Frimley Green Road"},"longitude":"-0.731300"},"context":"","outcome_status":{"category":"Under investigation","date":"2018-06"},"persistent_id":"9c5d03d55ed7c8dc9552ebe2d5bf0fcf66912c9cb65197e15c530c98cf03f896","id":65901550,"location_subtype":"","month":"2018-06"},{"category":"drugs","location_type":"Force","location":{"latitude":"51.304409","street":{"id":1153176,"name":"On or near Milden Close"},"longitude":"-0.723137"},"context":"","outcome_status":{"category":"Under investigation","date":"2018-06"},"persistent_id":"f99c5ab40c22d99124facd2d1233f1eb4e57b0ff5c63ec15f8ef51ef37b5a7b0","id":65900564,"location_subtype":"","month":"2018-06"},{"category":"other-theft","location_type":"Force","location":{"latitude":"51.302730","street":{"id":1153252,"name":"On or near Petrol Station"},"longitude":"-0.727544"},"context":"","outcome_status":{"category":"Investigation complete; no suspect identified","date":"2018-06"},"persistent_id":"23b59df1117fd535367bb16ec382f256078330b7735d6118cd1ed29a07ecbf54","id":65898306,"location_subtype":"","month":"2018-06"},{"category":"other-theft","location_type":"Force","location":{"latitude":"51.302730","street":{"id":1153252,"name":"On or near Petrol Station"},"longitude":"-0.727544"},"context":"","outcome_status":{"category":"Investigation complete; no suspect identified","date":"2018-06"},"persistent_id":"44942269136ca3c2352e4979798788cac4b16c830baa7db93183774ef33051f4","id":65904911,"location_subtype":"","month":"2018-06"},{"category":"other-theft","location_type":"Force","location":{"latitude":"51.302730","street":{"id":1153252,"name":"On or near Petrol Station"},"longitude":"-0.727544"},"context":"","outcome_status":{"category":"Investigation complete; no suspect identified","date":"2018-06"},"persistent_id":"75f2b16648cb66f43e872fbf2a8cda2121142b7f0bd5247bc4b88209bb744842","id":65904910,"location_subtype":"","month":"2018-06"},{"category":"public-order","location_type":"Force","location":{"latitude":"51.301278","street":{"id":1151524,"name":"On or near Bramble Bank"},"longitude":"-0.722133"},"context":"","outcome_status":{"category":"Under investigation","date":"2018-06"},"persistent_id":"b06c2e87aa07f4a7b1ca7f75866d73fd4d833c47d065694e67ed11784819f3bd","id":65898580,"location_subtype":"","month":"2018-06"},{"category":"public-order","location_type":"Force","location":{"latitude":"51.302102","street":{"id":1153257,"name":"On or near The Green"},"longitude":"-0.728494"},"context":"","outcome_status":{"category":"Under investigation","date":"2018-06"},"persistent_id":"11bf5816cc1426e76327ad030720b8d4a851eec8736c8a9603776bdab5888725","id":65902088,"location_subtype":"","month":"2018-06"},{"category":"public-order","location_type":"Force","location":{"latitude":"51.305136","street":{"id":1153254,"name":"On or near Sports\/recreation Area"},"longitude":"-0.727119"},"context":"","outcome_status":{"category":"Under investigation","date":"2018-06"},"persistent_id":"e5e937f4c5082ae34671c5a3b31374d87396ff9feb7de827ae8b834455bad74b","id":65904387,"location_subtype":"","month":"2018-06"},{"category":"public-order","location_type":"Force","location":{"latitude":"51.305136","street":{"id":1153254,"name":"On or near Sports\/recreation Area"},"longitude":"-0.727119"},"context":"","outcome_status":{"category":"Investigation complete; no suspect identified","date":"2018-06"},"persistent_id":"d33f34e05ab9429c089d6fbeac1d3ac8c7d4891567e5043264b24e42ae6a63c8","id":65899686,"location_subtype":"","month":"2018-06"},{"category":"public-order","location_type":"Force","location":{"latitude":"51.307008","street":{"id":1153183,"name":"On or near Ely Close"},"longitude":"-0.721486"},"context":"","outcome_status":{"category":"Investigation complete; no suspect identified","date":"2018-06"},"persistent_id":"6929cb926dbcf37aed81e3a4cdb447ce9601ef6fb6f4b9a9ead760bbadf94498","id":65899688,"location_subtype":"","month":"2018-06"},{"category":"public-order","location_type":"Force","location":{"latitude":"51.305136","street":{"id":1153254,"name":"On or near Sports\/recreation Area"},"longitude":"-0.727119"},"context":"","outcome_status":{"category":"Investigation complete; no suspect identified","date":"2018-06"},"persistent_id":"cdd1642e3b83046c073afa59a2e162369bc6f0695dd9d07bec7f9dcfea7dfd14","id":65900563,"location_subtype":"","month":"2018-06"},{"category":"public-order","location_type":"Force","location":{"latitude":"51.300708","street":{"id":1151489,"name":"On or near Acorn Avenue"},"longitude":"-0.726768"},"context":"","outcome_status":{"category":"Investigation complete; no suspect identified","date":"2018-06"},"persistent_id":"b58f3f9f0f019619712cb8319b0a5be416a05b2aea53ede85315e2d96bd5dbb1","id":65901138,"location_subtype":"","month":"2018-06"},{"category":"shoplifting","location_type":"Force","location":{"latitude":"51.312564","street":{"id":1153245,"name":"On or near Supermarket"},"longitude":"-0.725536"},"context":"","outcome_status":{"category":"Under investigation","date":"2018-06"},"persistent_id":"e01c21490464ff885019f13570125a85822fe016c6ff62a3e6d3b7c2eb1077ed","id":65899987,"location_subtype":"","month":"2018-06"},{"category":"violent-crime","location_type":"Force","location":{"latitude":"51.304409","street":{"id":1153176,"name":"On or near Milden Close"},"longitude":"-0.723137"},"context":"","outcome_status":{"category":"Under investigation","date":"2018-06"},"persistent_id":"003aa30f20b85a14fbed4cfd51198e5e7ab489d4ebf6684c4e56f022f5976170","id":65900406,"location_subtype":"","month":"2018-06"},{"category":"violent-crime","location_type":"Force","location":{"latitude":"51.306723","street":{"id":1153272,"name":"On or near Heenan Close"},"longitude":"-0.735037"},"context":"","outcome_status":{"category":"Unable to prosecute suspect","date":"2018-06"},"persistent_id":"b041791fc5ff65675369c5bfcea28fbcede0254dc58ac52701261d213bd9aa25","id":65898750,"location_subtype":"","month":"2018-06"},{"category":"violent-crime","location_type":"Force","location":{"latitude":"51.305136","street":{"id":1153254,"name":"On or near Sports\/recreation Area"},"longitude":"-0.727119"},"context":"","outcome_status":{"category":"Under investigation","date":"2018-06"},"persistent_id":"a6a5c496f24c6b74a60f0007d578e8b89d3bdd7a0c83eee8374d1f4b5fc3c6c9","id":65904388,"location_subtype":"","month":"2018-06"},{"category":"violent-crime","location_type":"Force","location":{"latitude":"51.305228","street":{"id":1153274,"name":"On or near Gloucester Close"},"longitude":"-0.734834"},"context":"","outcome_status":{"category":"Under investigation","date":"2018-06"},"persistent_id":"9bda70a737e9a383ea9a12f2dcd61be0ab2c722fd37f2094f140fd9d2b4dddb6","id":65897307,"location_subtype":"","month":"2018-06"},{"category":"violent-crime","location_type":"Force","location":{"latitude":"51.309286","street":{"id":1153203,"name":"On or near Morton Close"},"longitude":"-0.727564"},"context":"","outcome_status":{"category":"Under investigation","date":"2018-06"},"persistent_id":"14868290d5759956be67d0f297e8e39978c02c336a5f97a18cab385459521ede","id":65898751,"location_subtype":"","month":"2018-06"},{"category":"other-crime","location_type":"Force","location":{"latitude":"51.310615","street":{"id":1153239,"name":"On or near Caernarvon"},"longitude":"-0.725748"},"context":"","outcome_status":{"category":"Under investigation","date":"2018-06"},"persistent_id":"81869c772934ce7ef27ee8a99d4a70350664a6d977de649c4daa84b5ecfb52c6","id":65899400,"location_subtype":"","month":"2018-06"}]