[{"category":"anti-social-behaviour","location_type":"Force","location":{"latitude":"51.520850","street":{"id":962295,"name":"On or near Elkington Road"},"longitude":"0.026545"},"context":"","outcome_status":null,"persistent_id":"","id":54679666,"location_subtype":"","month":"2017-02"},{"category":"anti-social-behaviour","location_type":"Force","location":{"latitude":"51.526086","street":{"id":962307,"name":"On or near Barking Road"},"longitude":"0.030035"},"context":"","outcome_status":null,"persistent_id":"","id":54679630,"location_subtype":"","month":"2017-02"},{"category":"anti-social-behaviour","location_type":"Force","location":{"latitude":"51.529515","street":{"id":963564,"name":"On or near Nile Road"},"longitude":"0.033489"},"context":"","outcome_status":null,"persistent_id":"","id":54678937,"location_subtype":"","month":"2017-02"},{"category":"anti-social-behaviour","location_type":"Force","location":{"latitude":"51.529471","street":{"id":963571,"name":"On or near Claughton Road"},"longitude":"0.036587"},"context":"","outcome_status":null,"persistent_id":"","id":54678900,"location_subtype":"","month":"2017-02"},{"category":"anti-social-behaviour","location_type":"Force","location":{"latitude":"51.526430","street":{"id":962224,"name":"On or near Kingsland Road"},"longitude":"0.036106"},"context":"","outcome_status":null,"persistent_id":"","id":54678898,"location_subtype":"","month":"2017-02"},{"category":"anti-social-behaviour","location_type":"Force","location":{"latitude":"51.529471","street":{"id":963571,"name":"On or near Claughton Road"},"longitude":"0.036587"},"context":"","outcome_status":null,"persistent_id":"","id":54678895,"location_subtype":"","month":"2017-02"},{"category":"anti-social-behaviour","location_type":"Force","location":{"latitude":"51.526748","street":{"id":962211,"name":"On or near Sutton Court Road"},"longitude":"0.035442"},"context":"","outcome_status":null,"persistent_id":"","id":54678914,"location_subtype":"","month":"2017-02"},{"category":"anti-social-behaviour","location_type":"Force","location":{"latitude":"51.526620","street":{"id":962255,"name":"On or near Augurs Lane"},"longitude":"0.030881"},"context":"","outcome_status":null,"persistent_id":"","id":54679628,"location_subtype":"","month":"2017-02"},{"category":"anti-social-behaviour","location_type":"Force","location":{"latitude":"51.523214","street":{"id":962266,"name":"On or near Wigston Road"},"longitude":"0.028653"},"context":"","outcome_status":null,"persistent_id":"","id":54679657,"location_subtype":"","month":"2017-02"},{"category":"anti-social-behaviour","location_type":"Force","location":{"latitude":"51.526748","street":{"id":962211,"name":"On or near Sutton Court Road"},"longitude":"0.035442"},"context":"","outcome_status":null,"persistent_id":"","id":54678912,"location_subtype":"","month":"2017-02"},{"category":"anti-social-behaviour","location_type":"Force","location":{"latitude":"51.525142","street":{"id":962225,"name":"On or near Kent Street"},"longitude":"0.031031"},"context":"","outcome_status":null,"persistent_id":"","id":54679609,"location_subtype":"","month":"2017-02"},{"category":"anti-social-behaviour","location_type":"Force","location":{"latitude":"51.525498","street":{"id":962299,"name":"On or near Dongola Road West"},"longitude":"0.025035"},"context":"","outcome_status":null,"persistent_id":"","id":54679707,"location_subtype":"","month":"2017-02"},{"category":"anti-social-behaviour","location_type":"Force","location":{"latitude":"51.525333","street":{"id":962284,"name":"On or near Khartoum Road"},"longitude":"0.027320"},"context":"","outcome_status":null,"persistent_id":"","id":54679684,"location_subtype":"","month":"2017-02"},{"category":"anti-social-behaviour","location_type":"Force","location":{"latitude":"51.520850","street":{"id":962295,"name":"On or near Elkington Road"},"longitude":"0.026545"},"context":"","outcome_status":null,"persistent_id":"","id":54679669,"location_subtype":"","month":"2017-02"},{"category":"anti-social-behaviour","location_type":"Force","location":{"latitude":"51.524886","street":{"id":962210,"name":"On or near Tunmarsh Lane"},"longitude":"0.034422"},"context":"","outcome_status":null,"persistent_id":"","id":54678931,"location_subtype":"","month":"2017-02"},{"category":"anti-social-behaviour","location_type":"Force","location":{"latitude":"51.529515","street":{"id":963564,"name":"On or near Nile Road"},"longitude":"0.033489"},"context":"","outcome_status":null,"persistent_id":"","id":54678939,"location_subtype":"","month":"2017-02"},{"category":"anti-social-behaviour","location_type":"Force","location":{"latitude":"51.524886","street":{"id":962210,"name":"On or near Tunmarsh Lane"},"longitude":"0.034422"},"context":"","outcome_status":null,"persistent_id":"","id":54678933,"location_subtype":"","month":"2017-02"},{"category":"anti-social-behaviour","location_type":"Force","location":{"latitude":"51.527753","street":{"id":962226,"name":"On or near Jedburgh Road"},"longitude":"0.033497"},"context":"","outcome_status":null,"persistent_id":"","id":54678925,"location_subtype":"","month":"2017-02"},{"category":"anti-social-behaviour","location_type":"Force","location":{"latitude":"51.524247","street":{"id":962245,"name":"On or near Boundary Road"},"longitude":"0.039612"},"context":"","outcome_status":null,"persistent_id":"","id":54678857,"location_subtype":"","month":"2017-02"},{"category":"anti-social-behaviour","location_type":"Force","location":{"latitude":"51.520850","street":{"id":962295,"name":"On or near Elkington Road"},"longitude":"0.026545"},"context":"","outcome_status":null,"persistent_id":"","id":54679665,"location_subtype":"","month":"2017-02"},{"category":"anti-social-behaviour","location_type":"Force","location":{"latitude":"51.523670","street":{"id":962302,"name":"On or near Crofton Road"},"longitude":"0.028284"},"context":"","outcome_status":null,"persistent_id":"","id":54679663,"location_subtype":"","month":"2017-02"},{"category":"anti-social-behaviour","location_type":"Force","location":{"latitude":"51.518367","street":{"id":962315,"name":"On or near Selby Road"},"longitude":"0.028135"},"context":"","outcome_status":null,"persistent_id":"","id":54679661,"location_subtype":"","month":"2017-02"},{"category":"anti-social-behaviour","location_type":"Force","location":{"latitude":"51.518778","street":{"id":962306,"name":"On or near Brock Road"},"longitude":"0.028283"},"context":"","outcome_status":null,"persistent_id":"","id":54679653,"location_subtype":"","month":"2017-02"},{"category":"anti-social-behaviour","location_type":"Force","location":{"latitude":"51.525034","street":{"id":962270,"name":"On or near Sussex Street"},"longitude":"0.028979"},"context":"","outcome_status":null,"persistent_id":"","id":54679649,"location_subtype":"","month":"2017-02"},{"category":"anti-social-behaviour","location_type":"Force","location":{"latitude":"51.525034","street":{"id":962270,"name":"On or near Sussex Street"},"longitude":"0.028979"},"context":"","outcome_status":null,"persistent_id":"","id":54679647,"location_subtype":"","month":"2017-02"},{"category":"anti-social-behaviour","location_type":"Force","location":{"latitude":"51.519864","street":{"id":962279,"name":"On or near Palmer Road"},"longitude":"0.029470"},"context":"","outcome_status":null,"persistent_id":"","id":54679631,"location_subtype":"","month":"2017-02"},{"category":"anti-social-behaviour","location_type":"Force","location":{"latitude":"51.526620","street":{"id":962255,"name":"On or near Augurs Lane"},"longitude":"0.030881"},"context":"","outcome_status":null,"persistent_id":"","id":54679626,"location_subtype":"","month":"2017-02"},{"category":"anti-social-behaviour","location_type":"Force","location":{"latitude":"51.526620","street":{"id":962255,"name":"On or near Augurs Lane"},"longitude":"0.030881"},"context":"","outcome_status":null,"persistent_id":"","id":54679624,"location_subtype":"","month":"2017-02"},{"category":"anti-social-behaviour","location_type":"Force","location":{"latitude":"51.526620","street":{"id":962255,"name":"On or near Augurs Lane"},"longitude":"0.030881"},"context":"","outcome_status":null,"persistent_id":"","id":54679623,"location_subtype":"","month":"2017-02"},{"category":"anti-social-behaviour","location_type":"Force","location":{"latitude":"51.526620","street":{"id":962255,"name":"On or near Augurs Lane"},"longitude":"0.030881"},"context":"","outcome_status":null,"persistent_id":"","id":54679621,"location_subtype":"","month":"2017-02"},{"category":"anti-social-behaviour","location_type":"Force","location":{"latitude":"51.523903","street":{"id":962227,"name":"On or near Isom Close"},"longitude":"0.030933"},"context":"","outcome_status":null,"persistent_id":"","id":54679608,"location_subtype":"","month":"2017-02"},{"category":"anti-social-behaviour","location_type":"Force","location":{"latitude":"51.529475","street":{"id":963562,"name":"On or near Parsons Road"},"longitude":"0.031657"},"context":"","outcome_status":null,"persistent_id":"","id":54679606,"location_subtype":"","month":"2017-02"},{"category":"anti-social-behaviour","location_type":"Force","location":{"latitude":"51.523281","street":{"id":962251,"name":"On or near Belgrave Road"},"longitude":"0.032073"},"context":"","outcome_status":null,"persistent_id":"","id":54679599,"location_subtype":"","month":"2017-02"},{"category":"bicycle-theft","location_type":"Force","location":{"latitude":"51.522311","street":{"id":962237,"name":"On or near Glen Road"},"longitude":"0.035648"},"context":"","outcome_status":{"category":"Status update unavailable","date":"2017-06"},"persistent_id":"021cc8bf6e205a42d8402c18b0e7fa192ef1b58b620b2a61f8e266ac6dabd581","id":54724472,"location_subtype":"","month":"2017-02"},{"category":"bicycle-theft","location_type":"Force","location":{"latitude":"51.522311","street":{"id":962237,"name":"On or near Glen Road"},"longitude":"0.035648"},"context":"","outcome_status":{"category":"Status update unavailable","date":"2017-06"},"persistent_id":"aac32b2859e59a20d63c200ccda373a45f40cbbf6fd4de0be223c5ead3f0f8b6","id":54743186,"location_subtype":"","month":"2017-02"},{"category":"bicycle-theft","location_type":"Force","location":{"latitude":"51.525889","street":{"id":962300,"name":"On or near Dongola Road"},"longitude":"0.027359"},"context":"","outcome_status":{"category":"Status update unavailable","date":"2017-06"},"persistent_id":"44693479e8249552b53f6c552c2bbbfc59728f79306e0baf6bd0b0c4507c9633","id":54772514,"location_subtype":"","month":"2017-02"},{"category":"burglary","location_type":"Force","location":{"latitude":"51.524886","street":{"id":962210,"name":"On or near Tunmarsh Lane"},"longitude":"0.034422"},"context":"","outcome_status":{"category":"Status update unavailable","date":"2017-06"},"persistent_id":"dc14a395deea85b8d879c898f0d87e2a6b43f2f2320d24d8f2ca45ddbe7597e5","id":54715937,"location_subtype":"","month":"2017-02"},{"category":"burglary","location_type":"Force","location":{"latitude":"51.530172","street":{"id":963572,"name":"On or near Central Park Road"},"longitude":"0.037642"},"context":"","outcome_status":{"category":"Investigation complete; no suspect identified","date":"2017-03"},"persistent_id":"b7c5fa3a0c7b4576c593e8a2b82964aebdccb8d1f41a44413c199a199343a164","id":54756582,"location_subtype":"","month":"2017-02"},{"category":"burglary","location_type":"Force","location":{"latitude":"51.524886","street":{"id":962210,"name":"On or near Tunmarsh Lane"},"longitude":"0.034422"},"context":"","outcome_status":{"category":"Status update unavailable","date":"2017-06"},"persistent_id":"7c6f3d6edce32cb3262db35c529b7c128c36c03d58d901ce8bcbd837ed8caceb","id":54706014,"location_subtype":"","month":"2017-02"},{"category":"burglary","location_type":"Force","location":{"latitude":"51.523903","street":{"id":962227,"name":"On or near Isom Close"},"longitude":"0.030933"},"context":"","outcome_status":{"category":"Status update unavailable","date":"2017-06"},"persistent_id":"8e0dc8b74b5bf4131e2968ecd65d8056483b42304cb35a4c07e669d25a1ec349","id":54764625,"location_subtype":"","month":"2017-02"},{"category":"burglary","location_type":"Force","location":{"latitude":"51.525034","street":{"id":962270,"name":"On or near Sussex Street"},"longitude":"0.028979"},"context":"","outcome_status":{"category":"Investigation complete; no suspect identified","date":"2017-02"},"persistent_id":"96b7d718072617f706bab0cb5ef0e713849885a4eebe8d7761af877419178855","id":54764792,"location_subtype":"","month":"2017-02"},{"category":"burglary","location_type":"Force","location":{"latitude":"51.530843","street":{"id":963578,"name":"On or near Southern Road"},"longitude":"0.033174"},"context":"","outcome_status":{"category":"Status update unavailable","date":"2017-06"},"persistent_id":"b864dc72103b09426c268bcc33bb897a7d9f3663dd7484f2e43ecf3f316f5c74","id":54716990,"location_subtype":"","month":"2017-02"},{"category":"burglary","location_type":"Force","location":{"latitude":"51.527122","street":{"id":962258,"name":"On or near Petrol Station"},"longitude":"0.031509"},"context":"","outcome_status":{"category":"Status update unavailable","date":"2017-06"},"persistent_id":"6f3a399c48127f7765c32cdbac43f67e417fdb9939c45cf054c653adae2973bc","id":54764788,"location_subtype":"","month":"2017-02"},{"category":"criminal-damage-arson","location_type":"Force","location":{"latitude":"51.523067","street":{"id":962247,"name":"On or near Boundary Lane"},"longitude":"0.039718"},"context":"","outcome_status":{"category":"Status update unavailable","date":"2017-06"},"persistent_id":"1ff2d840ceee54959ede2595e64bce0061c2fc2e21da887321e1a9cd26acacd8","id":54771082,"location_subtype":"","month":"2017-02"},{"category":"criminal-damage-arson","location_type":"Force","location":{"latitude":"51.529475","street":{"id":963562,"name":"On or near Parsons Road"},"longitude":"0.031657"},"context":"","outcome_status":{"category":"Investigation complete; no suspect identified","date":"2017-05"},"persistent_id":"1d3f10ad54d513b7ed0c12cc86452f716e5672baa0f106701e1018741794e12b","id":54752826,"location_subtype":"","month":"2017-02"},{"category":"criminal-damage-arson","location_type":"Force","location":{"latitude":"51.522311","street":{"id":962237,"name":"On or near Glen Road"},"longitude":"0.035648"},"context":"","outcome_status":{"category":"Offender given a caution","date":"2017-02"},"persistent_id":"d8b532414f5d585e4c4a1386bb9dbeaf000b80391a875256b3f7d074df7d3e2a","id":54771882,"location_subtype":"","month":"2017-02"},{"category":"criminal-damage-arson","location_type":"Force","location":{"latitude":"51.524264","street":{"id":962273,"name":"On or near St Andrew's Road"},"longitude":"0.028253"},"context":"","outcome_status":{"category":"Investigation complete; no suspect identified","date":"2017-03"},"persistent_id":"0732a7b91c673834154348bea49c45295cf76acf429512b58dd358b0359f2684","id":54770836,"location_subtype":"","month":"2017-02"},{"category":"criminal-damage-arson","location_type":"Force","location":{"latitude":"51.522311","street":{"id":962237,"name":"On or near Glen Road"},"longitude":"0.035648"},"context":"","outcome_status":{"category":"Court result unavailable","date":"2017-08"},"persistent_id":"9e4114f98828083f249b648b6bb6678002bb1d96565ac542b861cbb0b29c8a08","id":54766284,"location_subtype":"","month":"2017-02"},{"category":"criminal-damage-arson","location_type":"Force","location":{"latitude":"51.525498","street":{"id":962299,"name":"On or near Dongola Road West"},"longitude":"0.025035"},"context":"","outcome_status":{"category":"Status update unavailable","date":"2017-06"},"persistent_id":"b3e183061ec6040753478f658a5092ce4663d541d0bbdd8e64d1ea2f60faff7f","id":54771819,"location_subtype":"","month":"2017-02"},{"category":"criminal-damage-arson","location_type":"Force","location":{"latitude":"51.518367","street":{"id":962315,"name":"On or near Selby Road"},"longitude":"0.028135"},"context":"","outcome_status":{"category":"Investigation complete; no suspect identified","date":"2017-03"},"persistent_id":"5fdb77b3cd0b9c3ae9626cc5b00602dbf3f296ef4940c2bcb9e889f1e64df89c","id":54771915,"location_subtype":"","month":"2017-02"},{"category":"criminal-damage-arson","location_type":"Force","location":{"latitude":"51.525333","street":{"id":962284,"name":"On or near Khartoum Road"},"longitude":"0.027320"},"context":"","outcome_status":{"category":"Investigation complete; no suspect identified","date":"2017-03"},"persistent_id":"5b0bbf15ba15b558d43f1ba2e1399100bd353febb5a9eb6be46adba8ff2f2720","id":54764081,"location_subtype":"","month":"2017-02"},{"category":"drugs","location_type":"Force","location":{"latitude":"51.526391","street":{"id":962208,"name":"On or near Upperton Road West"},"longitude":"0.033696"},"context":"","outcome_status":{"category":"Offender given a caution","date":"2017-03"},"persistent_id":"2f47530d89cb228bf171e846b3e32ec9425c3322b9b74ee8b0eb834698424ea3","id":54699249,"location_subtype":"","month":"2017-02"},{"category":"drugs","location_type":"Force","location":{"latitude":"51.525142","street":{"id":962225,"name":"On or near Kent Street"},"longitude":"0.031031"},"context":"","outcome_status":{"category":"Local resolution","date":"2017-04"},"persistent_id":"ebeb50b31c5a69b1d14ecfa870ab6ea96df6bc1b1e42cc07782b385b8be9832b","id":54761916,"location_subtype":"","month":"2017-02"},{"category":"drugs","location_type":"Force","location":{"latitude":"51.529322","street":{"id":963598,"name":"On or near Dundee Road"},"longitude":"0.027022"},"context":"","outcome_status":{"category":"Offender given community sentence","date":"2017-02"},"persistent_id":"8d424ba8478f1cc931a5a94883c860e01b8cc4053612b9499d4c2feb5efa794b","id":54741020,"location_subtype":"","month":"2017-02"},{"category":"drugs","location_type":"Force","location":{"latitude":"51.526620","street":{"id":962255,"name":"On or near Augurs Lane"},"longitude":"0.030881"},"context":"","outcome_status":{"category":"Investigation complete; no suspect identified","date":"2017-08"},"persistent_id":"2dd5be6a51c8402ac0421364e41035b5955f89751ad02632a047cbf2db42d6e5","id":54706515,"location_subtype":"","month":"2017-02"},{"category":"drugs","location_type":"Force","location":{"latitude":"51.527122","street":{"id":962258,"name":"On or near Petrol Station"},"longitude":"0.031509"},"context":"","outcome_status":{"category":"Offender given a drugs possession warning","date":"2017-02"},"persistent_id":"6c0cab23a8d773c03075e09966b5793165ff4aedee48c802e2bcc5e85ef98c66","id":54702705,"location_subtype":"","month":"2017-02"},{"category":"drugs","location_type":"Force","location":{"latitude":"51.529259","street":{"id":963591,"name":"On or near The Broadway"},"longitude":"0.025433"},"context":"","outcome_status":{"category":"Offender given a drugs possession warning","date":"2017-03"},"persistent_id":"ce42894ed894d92e984d538f10a2acc94e71039d451aca01513137310ef10a63","id":54765428,"location_subtype":"","month":"2017-02"},{"category":"drugs","location_type":"Force","location":{"latitude":"51.524886","street":{"id":962210,"name":"On or near Tunmarsh Lane"},"longitude":"0.034422"},"context":"","outcome_status":{"category":"Offender given penalty notice","date":"2017-02"},"persistent_id":"f8e03cd47b33e3a70044bff33000fd7e6a6f7f19a0a078b50534dc197092b2c4","id":54751402,"location_subtype":"","month":"2017-02"},{"category":"other-theft","location_type":"Force","location":{"latitude":"51.522311","street":{"id":962237,"name":"On or near Glen Road"},"longitude":"0.035648"},"context":"","outcome_status":{"category":"Status update unavailable","date":"2017-06"},"persistent_id":"a8b97b86fecd378304e7e91e2a423c1bb560a79ed390a29f41c78a2e1fb6c7de","id":54767456,"location_subtype":"","month":"2017-02"},{"category":"other-theft","location_type":"Force","location":{"latitude":"51.525034","street":{"id":962270,"name":"On or near Sussex Street"},"longitude":"0.028979"},"context":"","outcome_status":{"category":"Investigation complete; no suspect identified","date":"2017-03"},"persistent_id":"3aee2a70e511513dfde0363b945def82c89c5f109c81722001b8c62d8edff72e","id":54770841,"location_subtype":"","month":"2017-02"},{"category":"other-theft","location_type":"Force","location":{"latitude":"51.526620","street":{"id":962255,"name":"On or near Augurs Lane"},"longitude":"0.030881"},"context":"","outcome_status":{"category":"Investigation complete; no suspect identified","date":"2017-03"},"persistent_id":"6cdeb84ab449d8824b39f7d9139ace02093d92eda4f35bc40658912d8f8eaafb","id":54770746,"location_subtype":"","month":"2017-02"},{"category":"other-theft","location_type":"Force","location":{"latitude":"51.524886","street":{"id":962210,"name":"On or near Tunmarsh Lane"},"longitude":"0.034422"},"context":"","outcome_status":{"category":"Investigation complete; no suspect identified","date":"2017-02"},"persistent_id":"586cea4b1078791a73e802de2f89ac00f5f697e47d9d1fcf5c2b28e1bc2f3352","id":54706775,"location_subtype":"","month":"2017-02"},{"category":"other-theft","location_type":"Force","location":{"latitude":"51.525034","street":{"id":962270,"name":"On or near Sussex Street"},"longitude":"0.028979"},"context":"","outcome_status":{"category":"Investigation complete; no suspect identified","date":"2017-02"},"persistent_id":"2e2e4e23e7fbf90f4aba0a0131c9ded7396562ec23b4040bffc88a29da7adf84","id":54746346,"location_subtype":"","month":"2017-02"},{"category":"other-theft","location_type":"Force","location":{"latitude":"51.525498","street":{"id":962299,"name":"On or near Dongola Road West"},"longitude":"0.025035"},"context":"","outcome_status":{"category":"Status update unavailable","date":"2017-06"},"persistent_id":"ad7cc33bf7fafef0f84fe8303bafa8098dc0dadabeb5294518899be5ccf09b4c","id":54744182,"location_subtype":"","month":"2017-02"},{"category":"other-theft","location_type":"Force","location":{"latitude":"51.527122","street":{"id":962258,"name":"On or near Petrol Station"},"longitude":"0.031509"},"context":"","outcome_status":{"category":"Investigation complete; no suspect identified","date":"2017-03"},"persistent_id":"9a0bd3b02931d6830cf69cd0422949e7a5124321cf3f139e939e70c9370dea67","id":54726420,"location_subtype":"","month":"2017-02"},{"category":"other-theft","location_type":"Force","location":{"latitude":"51.529013","street":{"id":962214,"name":"On or near Pragel Street"},"longitude":"0.031881"},"context":"","outcome_status":{"category":"Status update unavailable","date":"2017-06"},"persistent_id":"a1d94b9d74f33941c170f7bd885beb93cb7b40882bd485161a7fc6f7599b84cb","id":54736503,"location_subtype":"","month":"2017-02"},{"category":"other-theft","location_type":"Force","location":{"latitude":"51.526086","street":{"id":962307,"name":"On or near Barking Road"},"longitude":"0.030035"},"context":"","outcome_status":{"category":"Status update unavailable","date":"2017-06"},"persistent_id":"3eae02c0285dd5db81b0cbf90aafab550b4459ae552c2162842d77a001d5856f","id":54766452,"location_subtype":"","month":"2017-02"},{"category":"other-theft","location_type":"Force","location":{"latitude":"51.527122","street":{"id":962258,"name":"On or near Petrol Station"},"longitude":"0.031509"},"context":"","outcome_status":{"category":"Investigation complete; no suspect identified","date":"2017-04"},"persistent_id":"6c6e6c52aca6093f9b1f8b4963458c3b1950fc926be9f8bd73771e18e3055f70","id":54766109,"location_subtype":"","month":"2017-02"},{"category":"other-theft","location_type":"Force","location":{"latitude":"51.525589","street":{"id":962298,"name":"On or near Dongola Road West"},"longitude":"0.024434"},"context":"","outcome_status":{"category":"Investigation complete; no suspect identified","date":"2017-03"},"persistent_id":"1c3217bdacfb08fb498ff2fee803888687d00bb52d86e180fb98b06f29cdb899","id":54767364,"location_subtype":"","month":"2017-02"},{"category":"other-theft","location_type":"Force","location":{"latitude":"51.522311","street":{"id":962237,"name":"On or near Glen Road"},"longitude":"0.035648"},"context":"","outcome_status":{"category":"Status update unavailable","date":"2017-06"},"persistent_id":"4b24b02a247faf4606622d79307108ac14e1960b66f982316e8a39fb1b8538c5","id":54756855,"location_subtype":"","month":"2017-02"},{"category":"other-theft","location_type":"Force","location":{"latitude":"51.527122","street":{"id":962258,"name":"On or near Petrol Station"},"longitude":"0.031509"},"context":"","outcome_status":{"category":"Investigation complete; no suspect identified","date":"2017-03"},"persistent_id":"4cdba10acf9d671029980cd16ec9e237aedd403031c4481145e86c022844fca4","id":54756533,"location_subtype":"","month":"2017-02"},{"category":"other-theft","location_type":"Force","location":{"latitude":"51.530172","street":{"id":963572,"name":"On or near Central Park Road"},"longitude":"0.037642"},"context":"","outcome_status":{"category":"Status update unavailable","date":"2017-06"},"persistent_id":"29a342f5ec2e1019d41cceaa60266bb6b01a651ce278a1eaa4fab1b5968b088c","id":54754323,"location_subtype":"","month":"2017-02"},{"category":"other-theft","location_type":"Force","location":{"latitude":"51.527503","street":{"id":962231,"name":"On or near Hollybush Street"},"longitude":"0.030271"},"context":"","outcome_status":{"category":"Investigation complete; no suspect identified","date":"2017-02"},"persistent_id":"4a3d21d7db28508de40694fd3df417f09a5ce714762e500d2bda3c8b8c97fcee","id":54765263,"location_subtype":"","month":"2017-02"},{"category":"other-theft","location_type":"Force","location":{"latitude":"51.526752","street":{"id":962234,"name":"On or near Haig Road West"},"longitude":"0.033092"},"context":"","outcome_status":{"category":"Status update unavailable","date":"2017-06"},"persistent_id":"bf873aed079f40c8f07cf454651df11e34ecd2db5a6afeac196810ae2c3ccd0d","id":54764249,"location_subtype":"","month":"2017-02"},{"category":"other-theft","location_type":"Force","location":{"latitude":"51.522311","street":{"id":962237,"name":"On or near Glen Road"},"longitude":"0.035648"},"context":"","outcome_status":{"category":"Investigation complete; no suspect identified","date":"2017-05"},"persistent_id":"21c6d9c3f1b08415ed618c9a784c91ae726eb567470655b967832502f43e331d","id":54761719,"location_subtype":"","month":"2017-02"},{"category":"other-theft","location_type":"Force","location":{"latitude":"51.527122","street":{"id":962258,"name":"On or near Petrol Station"},"longitude":"0.031509"},"context":"","outcome_status":{"category":"Investigation complete; no suspect identified","date":"2017-03"},"persistent_id":"4341ce50d197fdce425a0cbb20169bddaa93eeb9222a3d9bac74aac51d1d2373","id":54772137,"location_subtype":"","month":"2017-02"},{"category":"other-theft","location_type":"Force","location":{"latitude":"51.526086","street":{"id":962307,"name":"On or near Barking Road"},"longitude":"0.030035"},"context":"","outcome_status":{"category":"Investigation complete; no suspect identified","date":"2017-03"},"persistent_id":"67fc368c3dfeaa0fa75baa8aa9c48daa2d32c6eebd7a14fc807191e7be65a2b6","id":54709541,"location_subtype":"","month":"2017-02"},{"category":"public-order","location_type":"Force","location":{"latitude":"51.517558","street":{"id":962330,"name":"On or near Salomons Road"},"longitude":"0.031227"},"context":"","outcome_status":{"category":"Status update unavailable","date":"2017-06"},"persistent_id":"a3b47b49989f12340f3725876f9b2dacd912a6b77581656dd2b2156cd131e72f","id":54766215,"location_subtype":"","month":"2017-02"},{"category":"public-order","location_type":"Force","location":{"latitude":"51.521671","street":{"id":923576,"name":"On or near Woodside Road"},"longitude":"0.032578"},"context":"","outcome_status":{"category":"Status update unavailable","date":"2017-06"},"persistent_id":"7bf9427d56a355811791a9bcefd0e1454be201f995a56c93ed2eb339bfff77a9","id":54753656,"location_subtype":"","month":"2017-02"},{"category":"public-order","location_type":"Force","location":{"latitude":"51.529475","street":{"id":963562,"name":"On or near Parsons Road"},"longitude":"0.031657"},"context":"","outcome_status":{"category":"Offender given community sentence","date":"2017-08"},"persistent_id":"8e1bda93e5c7ab0b565825e44d00a9e523bf91065fc8aef80a7ccea60452af8c","id":54770531,"location_subtype":"","month":"2017-02"},{"category":"public-order","location_type":"Force","location":{"latitude":"51.518431","street":{"id":962318,"name":"On or near Cranley Road"},"longitude":"0.027043"},"context":"","outcome_status":{"category":"Offender given penalty notice","date":"2017-02"},"persistent_id":"4de9632d71d7a4e997d4268a1ec997248ba5327d6190501ade45e31a915e3efc","id":54707931,"location_subtype":"","month":"2017-02"},{"category":"public-order","location_type":"Force","location":{"latitude":"51.522311","street":{"id":962237,"name":"On or near Glen Road"},"longitude":"0.035648"},"context":"","outcome_status":{"category":"Investigation complete; no suspect identified","date":"2017-04"},"persistent_id":"7a1da4204827db919d35888c8a4bd538aad25abb86ecbf3adf17fdb5976f35fa","id":54702349,"location_subtype":"","month":"2017-02"},{"category":"public-order","location_type":"Force","location":{"latitude":"51.521671","street":{"id":923576,"name":"On or near Woodside Road"},"longitude":"0.032578"},"context":"","outcome_status":{"category":"Status update unavailable","date":"2017-06"},"persistent_id":"7bf9427d56a355811791a9bcefd0e1454be201f995a56c93ed2eb339bfff77a9","id":54753654,"location_subtype":"","month":"2017-02"},{"category":"public-order","location_type":"Force","location":{"latitude":"51.526086","street":{"id":962307,"name":"On or near Barking Road"},"longitude":"0.030035"},"context":"","outcome_status":{"category":"Investigation complete; no suspect identified","date":"2017-03"},"persistent_id":"1728fb4d292494fe1f26ddfb54be1c4c554a7bef4c4fae719335501e201d74de","id":54761346,"location_subtype":"","month":"2017-02"},{"category":"public-order","location_type":"Force","location":{"latitude":"51.522311","street":{"id":962237,"name":"On or near Glen Road"},"longitude":"0.035648"},"context":"","outcome_status":{"category":"Investigation complete; no suspect identified","date":"2017-03"},"persistent_id":"7d804d904a515278dccd1b8ef7c7bc771c237abdf3ac0c8278b77a11290f4939","id":54768873,"location_subtype":"","month":"2017-02"},{"category":"robbery","location_type":"Force","location":{"latitude":"51.528446","street":{"id":962293,"name":"On or near Fenton's Avenue"},"longitude":"0.025152"},"context":"","outcome_status":{"category":"Investigation complete; no suspect identified","date":"2017-05"},"persistent_id":"c2a3ec6d7cac58b71358b46225e25781b1a721129cef39bd3b3071f90ea7fe65","id":54717303,"location_subtype":"","month":"2017-02"},{"category":"robbery","location_type":"Force","location":{"latitude":"51.526086","street":{"id":962307,"name":"On or near Barking Road"},"longitude":"0.030035"},"context":"","outcome_status":{"category":"Offender sent to prison","date":"2017-07"},"persistent_id":"6158f6677a6aa6fee5a0926ff8b1927fdb464d5835f079e1f3f9b3f133a13acf","id":54760812,"location_subtype":"","month":"2017-02"},{"category":"robbery","location_type":"Force","location":{"latitude":"51.525333","street":{"id":962284,"name":"On or near Khartoum Road"},"longitude":"0.027320"},"context":"","outcome_status":{"category":"Investigation complete; no suspect identified","date":"2017-02"},"persistent_id":"f9229ad55aad886bbfc4c1f1b1ecf3bf4d223bcc10bc8bd16cc2314250ae3267","id":54745508,"location_subtype":"","month":"2017-02"},{"category":"shoplifting","location_type":"Force","location":{"latitude":"51.526086","street":{"id":962307,"name":"On or near Barking Road"},"longitude":"0.030035"},"context":"","outcome_status":{"category":"Investigation complete; no suspect identified","date":"2017-03"},"persistent_id":"b8d8a4b08f73d51e56024d8ceff5343ac45aceeae3d2120b5f849f28df8a1a7c","id":54740826,"location_subtype":"","month":"2017-02"},{"category":"shoplifting","location_type":"Force","location":{"latitude":"51.526086","street":{"id":962307,"name":"On or near Barking Road"},"longitude":"0.030035"},"context":"","outcome_status":{"category":"Offender given penalty notice","date":"2017-02"},"persistent_id":"5fb189e58733a4ad13e34f714a036bb034caa5836657923709b91b666d0b6318","id":54704841,"location_subtype":"","month":"2017-02"},{"category":"shoplifting","location_type":"Force","location":{"latitude":"51.525034","street":{"id":962270,"name":"On or near Sussex Street"},"longitude":"0.028979"},"context":"","outcome_status":{"category":"Investigation complete; no suspect identified","date":"2017-03"},"persistent_id":"ee8b3abe19fce2ad29a84703752051d732829abf6c1d5f5df55d138944154433","id":54767460,"location_subtype":"","month":"2017-02"},{"category":"theft-from-the-person","location_type":"Force","location":{"latitude":"51.525373","street":{"id":962242,"name":"On or near Coronation Road"},"longitude":"0.037961"},"context":"","outcome_status":{"category":"Investigation complete; no suspect identified","date":"2017-06"},"persistent_id":"bb99f86cf22a5d250e23015a3b7fdbb74e983bad3151d2254304908225c3a6dd","id":54772762,"location_subtype":"","month":"2017-02"},{"category":"theft-from-the-person","location_type":"Force","location":{"latitude":"51.526086","street":{"id":962307,"name":"On or near Barking Road"},"longitude":"0.030035"},"context":"","outcome_status":{"category":"Investigation complete; no suspect identified","date":"2017-03"},"persistent_id":"90f79026e86deddb7a959dbc15a3c8879ec041db2fdae7d93ef4b3c36325730b","id":54763856,"location_subtype":"","month":"2017-02"},{"category":"theft-from-the-person","location_type":"Force","location":{"latitude":"51.528446","street":{"id":962293,"name":"On or near Fenton's Avenue"},"longitude":"0.025152"},"context":"","outcome_status":{"category":"Status update unavailable","date":"2017-06"},"persistent_id":"9cf3af397bb6e8d7d65a841b566f6d4e08811804edf2e4f1918081d91bf7a0f2","id":54711315,"location_subtype":"","month":"2017-02"},{"category":"theft-from-the-person","location_type":"Force","location":{"latitude":"51.521698","street":{"id":962213,"name":"On or near Prince Regent Lane"},"longitude":"0.031541"},"context":"","outcome_status":{"category":"Status update unavailable","date":"2017-06"},"persistent_id":"90dfc96248a5f4ba4a1b2ac71a7555250d7e93ac888ea6ab4c1108e511887523","id":54772697,"location_subtype":"","month":"2017-02"},{"category":"vehicle-crime","location_type":"Force","location":{"latitude":"51.529807","street":{"id":963596,"name":"On or near Edinburgh Road"},"longitude":"0.028053"},"context":"","outcome_status":{"category":"Status update unavailable","date":"2017-06"},"persistent_id":"56a71ec5bddc64d7ac9783fcfaaa6fd2831082855a5b2b8b228916f5038fbe9e","id":54764429,"location_subtype":"","month":"2017-02"},{"category":"vehicle-crime","location_type":"Force","location":{"latitude":"51.521698","street":{"id":962213,"name":"On or near Prince Regent Lane"},"longitude":"0.031541"},"context":"","outcome_status":{"category":"Status update unavailable","date":"2017-06"},"persistent_id":"e3628df03d19688c53a6f1648799e1b1600c5c9a4b2bc6dc1fd55afd4c9f3dcc","id":54757067,"location_subtype":"","month":"2017-02"},{"category":"vehicle-crime","location_type":"Force","location":{"latitude":"51.524460","street":{"id":962256,"name":"On or near Angus Road"},"longitude":"0.035643"},"context":"","outcome_status":{"category":"Status update unavailable","date":"2017-06"},"persistent_id":"51bc00823d60f12fa1ca3ac46a5b2753dfbdd5064766addf21b808c7130c3150","id":54745882,"location_subtype":"","month":"2017-02"},{"category":"vehicle-crime","location_type":"Force","location":{"latitude":"51.523281","street":{"id":962251,"name":"On or near Belgrave Road"},"longitude":"0.032073"},"context":"","outcome_status":{"category":"Status update unavailable","date":"2017-06"},"persistent_id":"890b78bacfe29448bc51bc4545731454bca7cae2a4042e943bdbd9ad5b5db8d4","id":54772569,"location_subtype":"","month":"2017-02"},{"category":"vehicle-crime","location_type":"Force","location":{"latitude":"51.528749","street":{"id":962228,"name":"On or near Inniskilling Road"},"longitude":"0.036166"},"context":"","outcome_status":{"category":"Status update unavailable","date":"2017-06"},"persistent_id":"6b9c03b41cbe2f2a705c97538d35aad86feaeb2a5b9ee254ee52e102080c10cf","id":54746576,"location_subtype":"","month":"2017-02"},{"category":"vehicle-crime","location_type":"Force","location":{"latitude":"51.525373","street":{"id":962242,"name":"On or near Coronation Road"},"longitude":"0.037961"},"context":"","outcome_status":{"category":"Status update unavailable","date":"2017-06"},"persistent_id":"d42b18eee2d5f082ca662386c5d22f721795a075a43010d17d33783dc7c9259c","id":54763139,"location_subtype":"","month":"2017-02"},{"category":"vehicle-crime","location_type":"Force","location":{"latitude":"51.525498","street":{"id":962299,"name":"On or near Dongola Road West"},"longitude":"0.025035"},"context":"","outcome_status":{"category":"Investigation complete; no suspect identified","date":"2017-07"},"persistent_id":"44b67d770db2e4956315ba0f641cb9878500d8e9414a08abc29ffe9a6fe62f76","id":54762998,"location_subtype":"","month":"2017-02"},{"category":"vehicle-crime","location_type":"Force","location":{"latitude":"51.527122","street":{"id":962258,"name":"On or near Petrol Station"},"longitude":"0.031509"},"context":"","outcome_status":{"category":"Status update unavailable","date":"2017-06"},"persistent_id":"62eabeee85f7fac6a0efe5437cf1ad9013d702d7287069fc15b59c7cce24d45b","id":54762608,"location_subtype":"","month":"2017-02"},{"category":"vehicle-crime","location_type":"Force","location":{"latitude":"51.529832","street":{"id":963563,"name":"On or near Old Street"},"longitude":"0.031312"},"context":"","outcome_status":{"category":"Status update unavailable","date":"2017-06"},"persistent_id":"5a78914823443d09e35d79a3337f842798be4b2c124181f3fd23861a1a2afddd","id":54764418,"location_subtype":"","month":"2017-02"},{"category":"vehicle-crime","location_type":"Force","location":{"latitude":"51.527122","street":{"id":962258,"name":"On or near Petrol Station"},"longitude":"0.031509"},"context":"","outcome_status":{"category":"Investigation complete; no suspect identified","date":"2017-04"},"persistent_id":"acae06c87fe7eff6f2315a1c148f91cad0028c6ee92b41724c14dbaea8dfe255","id":54752279,"location_subtype":"","month":"2017-02"},{"category":"vehicle-crime","location_type":"Force","location":{"latitude":"51.519285","street":{"id":962288,"name":"On or near Holborn Road"},"longitude":"0.029156"},"context":"","outcome_status":{"category":"Status update unavailable","date":"2017-06"},"persistent_id":"7e7a7893aba22c06f8001351194757ccaf7019d5606aee749515b07e9f97a62a","id":54767147,"location_subtype":"","month":"2017-02"},{"category":"vehicle-crime","location_type":"Force","location":{"latitude":"51.526096","street":{"id":962216,"name":"On or near Olive Road"},"longitude":"0.036739"},"context":"","outcome_status":{"category":"Status update unavailable","date":"2017-06"},"persistent_id":"3f9bae278a758de4c4194c679cf7a2175b9a22ef4711638083ecfbd14e6faa05","id":54758858,"location_subtype":"","month":"2017-02"},{"category":"vehicle-crime","location_type":"Force","location":{"latitude":"51.523214","street":{"id":962266,"name":"On or near Wigston Road"},"longitude":"0.028653"},"context":"","outcome_status":{"category":"Status update unavailable","date":"2017-06"},"persistent_id":"926ca61227623346a09fb98d9a39fa32d51015124337edf2b9cd82fb6be41642","id":54705085,"location_subtype":"","month":"2017-02"},{"category":"vehicle-crime","location_type":"Force","location":{"latitude":"51.529013","street":{"id":962214,"name":"On or near Pragel Street"},"longitude":"0.031881"},"context":"","outcome_status":{"category":"Investigation complete; no suspect identified","date":"2017-04"},"persistent_id":"e5cd85490d0de6926f938cf14817252ba5959bb18a7a1ad496500f9047e29d09","id":54721038,"location_subtype":"","month":"2017-02"},{"category":"vehicle-crime","location_type":"Force","location":{"latitude":"51.526752","street":{"id":962234,"name":"On or near Haig Road West"},"longitude":"0.033092"},"context":"","outcome_status":{"category":"Investigation complete; no suspect identified","date":"2017-03"},"persistent_id":"f4f57ceba7773319b738d32a05beff53b4942c18f6c7688b57adc3b664bae2e1","id":54771829,"location_subtype":"","month":"2017-02"},{"category":"vehicle-crime","location_type":"Force","location":{"latitude":"51.527689","street":{"id":962303,"name":"On or near Cave Road"},"longitude":"0.029890"},"context":"","outcome_status":{"category":"Status update unavailable","date":"2017-06"},"persistent_id":"f85d412e092467842ec48ec6dde7d7b95cce0151ae21135b47190268c34155cd","id":54767929,"location_subtype":"","month":"2017-02"},{"category":"vehicle-crime","location_type":"Force","location":{"latitude":"51.524161","street":{"id":962229,"name":"On or near Humberstone Road"},"longitude":"0.035802"},"context":"","outcome_status":{"category":"Status update unavailable","date":"2017-06"},"persistent_id":"c323f28428b758307133200fe58f145e74e043798a9719bbe07a4a41d352f0b7","id":54766546,"location_subtype":"","month":"2017-02"},{"category":"vehicle-crime","location_type":"Force","location":{"latitude":"51.517435","street":{"id":962323,"name":"On or near Conference\/exhibition Centre"},"longitude":"0.027950"},"context":"","outcome_status":{"category":"Status update unavailable","date":"2017-06"},"persistent_id":"129355b56432af764d0c2e334c57f1ef6d504d59f0041cfc10e30bb2ccf69266","id":54742825,"location_subtype":"","month":"2017-02"},{"category":"vehicle-crime","location_type":"Force","location":{"latitude":"51.518615","street":{"id":962350,"name":"On or near Botha Road"},"longitude":"0.030971"},"context":"","outcome_status":{"category":"Status update unavailable","date":"2017-06"},"persistent_id":"eaec6e991f49c6e3e4efd16f2c01100db78db5973b52f8461d21cff2e064b0f5","id":54764798,"location_subtype":"","month":"2017-02"},{"category":"violent-crime","location_type":"Force","location":{"latitude":"51.526620","street":{"id":962255,"name":"On or near Augurs Lane"},"longitude":"0.030881"},"context":"","outcome_status":{"category":"Offender sent to prison","date":"2017-08"},"persistent_id":"0a6e3b4db4f05450d0788a7e29178da188196ab6ecf032fb1731695d84523b42","id":54701224,"location_subtype":"","month":"2017-02"},{"category":"violent-crime","location_type":"Force","location":{"latitude":"51.522983","street":{"id":962223,"name":"On or near Larch Close"},"longitude":"0.031108"},"context":"","outcome_status":{"category":"Investigation complete; no suspect identified","date":"2017-04"},"persistent_id":"cc127c6639a6edb2082aa669ecb91458c9b6d2d7866a3f94906c3e0ed37c6e1a","id":54769036,"location_subtype":"","month":"2017-02"},{"category":"violent-crime","location_type":"Force","location":{"latitude":"51.521671","street":{"id":923576,"name":"On or near Woodside Road"},"longitude":"0.032578"},"context":"","outcome_status":{"category":"Investigation complete; no suspect identified","date":"2017-04"},"persistent_id":"a5335c7df07aaf7cb35f16e78f9b590cac7e095cfb467cc90f70b20a5e30fcc7","id":54751797,"location_subtype":"","month":"2017-02"},{"category":"violent-crime","location_type":"Force","location":{"latitude":"51.522311","street":{"id":962237,"name":"On or near Glen Road"},"longitude":"0.035648"},"context":"","outcome_status":{"category":"Court result unavailable","date":"2017-11"},"persistent_id":"06ec82cd35741750721cbb0163dc0c53b56969fc33304db5e2ebe77c6b32c38a","id":54752016,"location_subtype":"","month":"2017-02"},{"category":"violent-crime","location_type":"Force","location":{"latitude":"51.518864","street":{"id":962305,"name":"On or near Caraway Close"},"longitude":"0.026456"},"context":"","outcome_status":{"category":"Investigation complete; no suspect identified","date":"2017-05"},"persistent_id":"7f7790f5d2dee35e8a6cc6993d6048feb5668e1f428c6b01255eb96435f3d893","id":54762274,"location_subtype":"","month":"2017-02"},{"category":"violent-crime","location_type":"Force","location":{"latitude":"51.530172","street":{"id":963572,"name":"On or near Central Park Road"},"longitude":"0.037642"},"context":"","outcome_status":{"category":"Investigation complete; no suspect identified","date":"2017-05"},"persistent_id":"03c5398a19b13f9851185195ac6e78ca0e711e608f703b94cf5c93be2a2ea96b","id":54771414,"location_subtype":"","month":"2017-02"},{"category":"violent-crime","location_type":"Force","location":{"latitude":"51.522311","street":{"id":962237,"name":"On or near Glen Road"},"longitude":"0.035648"},"context":"","outcome_status":{"category":"Investigation complete; no suspect identified","date":"2017-02"},"persistent_id":"542106baa8b58afbd0b0866938c4183659ad092003e5bec14f54f9222f84f5a2","id":54762069,"location_subtype":"","month":"2017-02"},{"category":"violent-crime","location_type":"Force","location":{"latitude":"51.526086","street":{"id":962307,"name":"On or near Barking Road"},"longitude":"0.030035"},"context":"","outcome_status":{"category":"Investigation complete; no suspect identified","date":"2017-07"},"persistent_id":"eccd3b4d7604dd8090c601a0e5416a4c10060c4e58a239643aade75ccd43b0f7","id":54772760,"location_subtype":"","month":"2017-02"},{"category":"violent-crime","location_type":"Force","location":{"latitude":"51.524886","street":{"id":962210,"name":"On or near Tunmarsh Lane"},"longitude":"0.034422"},"context":"","outcome_status":{"category":"Status update unavailable","date":"2017-06"},"persistent_id":"cceb37a5c1ef82360542d918cd462567f976646f5870f01f044d736704c5cd70","id":54769435,"location_subtype":"","month":"2017-02"},{"category":"violent-crime","location_type":"Force","location":{"latitude":"51.519918","street":{"id":962267,"name":"On or near Westport Road"},"longitude":"0.026878"},"context":"","outcome_status":{"category":"Investigation complete; no suspect identified","date":"2017-04"},"persistent_id":"ae680776e7e294aff6f3560b425e6afc939dec192c2e3f282b6234f4ec933a3f","id":54768763,"location_subtype":"","month":"2017-02"},{"category":"violent-crime","location_type":"Force","location":{"latitude":"51.525677","street":{"id":962252,"name":"On or near Beaumont Road"},"longitude":"0.030810"},"context":"","outcome_status":{"category":"Status update unavailable","date":"2017-06"},"persistent_id":"80170718613a4f493e14342a01a2a9e4eedaec583b3c51221c77e172813f3881","id":54769392,"location_subtype":"","month":"2017-02"},{"category":"violent-crime","location_type":"Force","location":{"latitude":"51.522311","street":{"id":962237,"name":"On or near Glen Road"},"longitude":"0.035648"},"context":"","outcome_status":{"category":"Status update unavailable","date":"2017-06"},"persistent_id":"fb4307372128fdce15574dd7af202a27b64e312b1a0262e5a7aafd17cd190487","id":54751952,"location_subtype":"","month":"2017-02"},{"category":"violent-crime","location_type":"Force","location":{"latitude":"51.523670","street":{"id":962302,"name":"On or near Crofton Road"},"longitude":"0.028284"},"context":"","outcome_status":{"category":"Status update unavailable","date":"2017-06"},"persistent_id":"450d3ccd401c1eea52ae2a622db42ebca7abb6a3a67b0774afc7fe610f5e8867","id":54749816,"location_subtype":"","month":"2017-02"},{"category":"violent-crime","location_type":"Force","location":{"latitude":"51.522311","street":{"id":962237,"name":"On or near Glen Road"},"longitude":"0.035648"},"context":"","outcome_status":{"category":"Investigation complete; no suspect identified","date":"2017-03"},"persistent_id":"ccddedfa52f63936cc1faa016acfe1bd26cf1bfc5cb5f0635eb53737781bd168","id":54749491,"location_subtype":"","month":"2017-02"},{"category":"violent-crime","location_type":"Force","location":{"latitude":"51.529515","street":{"id":963564,"name":"On or near Nile Road"},"longitude":"0.033489"},"context":"","outcome_status":{"category":"Local resolution","date":"2017-05"},"persistent_id":"17f657fd53dd25a3ff823b1bd5e9889b86e1dcef6c0b8b36a5fc2c0e671488b4","id":54744636,"location_subtype":"","month":"2017-02"},{"category":"violent-crime","location_type":"Force","location":{"latitude":"51.522311","street":{"id":962237,"name":"On or near Glen Road"},"longitude":"0.035648"},"context":"","outcome_status":{"category":"Status update unavailable","date":"2017-06"},"persistent_id":"cd539a8f76b9f600370e0b5aaa4dca310f6d1af78db98a9c65f7840416a067b8","id":54745010,"location_subtype":"","month":"2017-02"},{"category":"violent-crime","location_type":"Force","location":{"latitude":"51.518615","street":{"id":962350,"name":"On or near Botha Road"},"longitude":"0.030971"},"context":"","outcome_status":{"category":"Investigation complete; no suspect identified","date":"2017-04"},"persistent_id":"42e4b7fe7fc405ed237dbc72dab870de7812e6bc4c5c1998f773e651d940198c","id":54741361,"location_subtype":"","month":"2017-02"},{"category":"violent-crime","location_type":"Force","location":{"latitude":"51.530172","street":{"id":963572,"name":"On or near Central Park Road"},"longitude":"0.037642"},"context":"","outcome_status":{"category":"Status update unavailable","date":"2017-06"},"persistent_id":"3e4ee06f2714021297c66002eeb450488acdf8b9a27b41f90580d80aa91a85be","id":54739988,"location_subtype":"","month":"2017-02"},{"category":"violent-crime","location_type":"Force","location":{"latitude":"51.525034","street":{"id":962270,"name":"On or near Sussex Street"},"longitude":"0.028979"},"context":"","outcome_status":{"category":"Investigation complete; no suspect identified","date":"2017-03"},"persistent_id":"6bdc005ed14ac1fc864671119cb02c5e1ae1c2376ab8d7f0fb1879efd55804f6","id":54739441,"location_subtype":"","month":"2017-02"},{"category":"violent-crime","location_type":"Force","location":{"latitude":"51.529471","street":{"id":963571,"name":"On or near Claughton Road"},"longitude":"0.036587"},"context":"","outcome_status":{"category":"Investigation complete; no suspect identified","date":"2017-03"},"persistent_id":"6dbd3f3336f582b23f9b4069bde7e5d533bea2a807a1ef14b85ad63aee142c0b","id":54765429,"location_subtype":"","month":"2017-02"},{"category":"violent-crime","location_type":"Force","location":{"latitude":"51.526748","street":{"id":962211,"name":"On or near Sutton Court Road"},"longitude":"0.035442"},"context":"","outcome_status":{"category":"Investigation complete; no suspect identified","date":"2017-02"},"persistent_id":"8d9532cbd8ae6bfa5e878b40c0d53ad5a9c3d5d2e119a3d68747290763ab8e18","id":54765855,"location_subtype":"","month":"2017-02"},{"category":"violent-crime","location_type":"Force","location":{"latitude":"51.525333","street":{"id":962284,"name":"On or near Khartoum Road"},"longitude":"0.027320"},"context":"","outcome_status":{"category":"Status update unavailable","date":"2017-06"},"persistent_id":"16dbc411e06743bb2d3cd83704713bb592521982c9fa74bb4478d3d202ca59da","id":54765857,"location_subtype":"","month":"2017-02"},{"category":"violent-crime","location_type":"Force","location":{"latitude":"51.525333","street":{"id":962284,"name":"On or near Khartoum Road"},"longitude":"0.027320"},"context":"","outcome_status":{"category":"Investigation complete; no suspect identified","date":"2017-10"},"persistent_id":"16dbc411e06743bb2d3cd83704713bb592521982c9fa74bb4478d3d202ca59da","id":54765858,"location_subtype":"","month":"2017-02"},{"category":"violent-crime","location_type":"Force","location":{"latitude":"51.524247","street":{"id":962245,"name":"On or near Boundary Road"},"longitude":"0.039612"},"context":"","outcome_status":{"category":"Investigation complete; no suspect identified","date":"2017-03"},"persistent_id":"6246f715cf416a7cf6c8d531f5e94b194afaa93b2bbf8b6cf8e87937e67b2882","id":54754531,"location_subtype":"","month":"2017-02"},{"category":"violent-crime","location_type":"Force","location":{"latitude":"51.525034","street":{"id":962270,"name":"On or near Sussex Street"},"longitude":"0.028979"},"context":"","outcome_status":{"category":"Investigation complete; no suspect identified","date":"2017-02"},"persistent_id":"a92769bec776e56a7664d1a2fc5afd45ecc4da1f9b91c0cbc2de6fb4626ad96a","id":54755093,"location_subtype":"","month":"2017-02"},{"category":"violent-crime","location_type":"Force","location":{"latitude":"51.522311","street":{"id":962237,"name":"On or near Glen Road"},"longitude":"0.035648"},"context":"","outcome_status":{"category":"Status update unavailable","date":"2017-06"},"persistent_id":"52cd3b417de733d7a19d82013b2a0e0c67d6eee922958bf3c7d5ddb38030dca7","id":54753542,"location_subtype":"","month":"2017-02"},{"category":"violent-crime","location_type":"Force","location":{"latitude":"51.518431","street":{"id":962318,"name":"On or near Cranley Road"},"longitude":"0.027043"},"context":"","outcome_status":{"category":"Investigation complete; no suspect identified","date":"2017-02"},"persistent_id":"31912ca01850a714163e2cb9f2d28866211514d289ebe00a4d0ed5a068f6cf5c","id":54759764,"location_subtype":"","month":"2017-02"},{"category":"violent-crime","location_type":"Force","location":{"latitude":"51.526620","street":{"id":962255,"name":"On or near Augurs Lane"},"longitude":"0.030881"},"context":"","outcome_status":{"category":"Investigation complete; no suspect identified","date":"2017-03"},"persistent_id":"6db707d21fa4396606e30f6f79201f4f93fac2061996787f4b614799f92233e8","id":54759003,"location_subtype":"","month":"2017-02"},{"category":"violent-crime","location_type":"Force","location":{"latitude":"51.519918","street":{"id":962267,"name":"On or near Westport Road"},"longitude":"0.026878"},"context":"","outcome_status":{"category":"Investigation complete; no suspect identified","date":"2017-03"},"persistent_id":"66a1fb3653b13ecc9f0a092f1f36a036a011ab6360711f57aae41eb799b63cd4","id":54758782,"location_subtype":"","month":"2017-02"},{"category":"violent-crime","location_type":"Force","location":{"latitude":"51.525034","street":{"id":962270,"name":"On or near Sussex Street"},"longitude":"0.028979"},"context":"","outcome_status":{"category":"Investigation complete; no suspect identified","date":"2017-05"},"persistent_id":"5cbfb1c26665fe341f7fb14990c1a7f0d614dfbc8aac9e83c3230720bd3f6a08","id":54715617,"location_subtype":"","month":"2017-02"},{"category":"violent-crime","location_type":"Force","location":{"latitude":"51.529832","street":{"id":963563,"name":"On or near Old Street"},"longitude":"0.031312"},"context":"","outcome_status":{"category":"Court result unavailable","date":"2017-09"},"persistent_id":"fd3328977eb591d560d30dc044de4f51b5eb0f1b672c27178d0122bb9ec2444c","id":54717150,"location_subtype":"","month":"2017-02"},{"category":"violent-crime","location_type":"Force","location":{"latitude":"51.529471","street":{"id":963571,"name":"On or near Claughton Road"},"longitude":"0.036587"},"context":"","outcome_status":{"category":"Investigation complete; no suspect identified","date":"2017-03"},"persistent_id":"c7ba424eef9cb9a326c8123065ac8f2c649b22295c8ae208f69b369025f93398","id":54712386,"location_subtype":"","month":"2017-02"},{"category":"violent-crime","location_type":"Force","location":{"latitude":"51.529832","street":{"id":963563,"name":"On or near Old Street"},"longitude":"0.031312"},"context":"","outcome_status":{"category":"Status update unavailable","date":"2017-06"},"persistent_id":"fd3328977eb591d560d30dc044de4f51b5eb0f1b672c27178d0122bb9ec2444c","id":54712117,"location_subtype":"","month":"2017-02"},{"category":"violent-crime","location_type":"Force","location":{"latitude":"51.518615","street":{"id":962350,"name":"On or near Botha Road"},"longitude":"0.030971"},"context":"","outcome_status":{"category":"Investigation complete; no suspect identified","date":"2017-03"},"persistent_id":"ce38888ce48dd4f9f1414d8da12f96b74105109489ba93d79bdddff269870b22","id":54718963,"location_subtype":"","month":"2017-02"},{"category":"violent-crime","location_type":"Force","location":{"latitude":"51.527753","street":{"id":962226,"name":"On or near Jedburgh Road"},"longitude":"0.033497"},"context":"","outcome_status":{"category":"Investigation complete; no suspect identified","date":"2017-04"},"persistent_id":"7c9f940b6f459108eaa4f48127ae2e2a429c5d27076cec5ec25e7da6ff4870e3","id":54705270,"location_subtype":"","month":"2017-02"},{"category":"violent-crime","location_type":"Force","location":{"latitude":"51.519918","street":{"id":962267,"name":"On or near Westport Road"},"longitude":"0.026878"},"context":"","outcome_status":{"category":"Status update unavailable","date":"2017-06"},"persistent_id":"69047cedcdb2f6e50b29e423be4b1c39b118dc0e110d80d11f256285cb95e31c","id":54703333,"location_subtype":"","month":"2017-02"},{"category":"violent-crime","location_type":"Force","location":{"latitude":"51.529832","street":{"id":963563,"name":"On or near Old Street"},"longitude":"0.031312"},"context":"","outcome_status":{"category":"Offender given a caution","date":"2017-03"},"persistent_id":"62fd9c964468c5dda9fa8f93b8502ad5e5b0f4aa4e2b6901552b4e05f5b21ca1","id":54697509,"location_subtype":"","month":"2017-02"},{"category":"violent-crime","location_type":"Force","location":{"latitude":"51.523670","street":{"id":962302,"name":"On or near Crofton Road"},"longitude":"0.028284"},"context":"","outcome_status":{"category":"Court result unavailable","date":"2017-08"},"persistent_id":"450d3ccd401c1eea52ae2a622db42ebca7abb6a3a67b0774afc7fe610f5e8867","id":54751579,"location_subtype":"","month":"2017-02"},{"category":"violent-crime","location_type":"Force","location":{"latitude":"51.518344","street":{"id":962347,"name":"On or near Egham Road"},"longitude":"0.029979"},"context":"","outcome_status":{"category":"Investigation complete; no suspect identified","date":"2017-02"},"persistent_id":"fbca482ce714995acf8be8d07a07a755c0ac90651ae309d9173b002ab70adf8d","id":54752900,"location_subtype":"","month":"2017-02"},{"category":"violent-crime","location_type":"Force","location":{"latitude":"51.528421","street":{"id":962272,"name":"On or near St Clair Road"},"longitude":"0.028683"},"context":"","outcome_status":{"category":"Investigation complete; no suspect identified","date":"2017-02"},"persistent_id":"86fd078c7e9932bc605a1f8fb97628d8d76d91ad50741936bdfb7df963da0cba","id":54721886,"location_subtype":"","month":"2017-02"},{"category":"violent-crime","location_type":"Force","location":{"latitude":"51.519864","street":{"id":962279,"name":"On or near Palmer Road"},"longitude":"0.029470"},"context":"","outcome_status":{"category":"Investigation complete; no suspect identified","date":"2017-06"},"persistent_id":"0ff00cef51e7baef3496262c65c7cdd0fcc3355f769136d7cd8e6e49265237bc","id":54757081,"location_subtype":"","month":"2017-02"},{"category":"violent-crime","location_type":"Force","location":{"latitude":"51.521671","street":{"id":923576,"name":"On or near Woodside Road"},"longitude":"0.032578"},"context":"","outcome_status":{"category":"Investigation complete; no suspect identified","date":"2017-06"},"persistent_id":"bd2cba0cf28e1734f0cb51342a7355fa764d05ca80bc05c77791681ab0d1660c","id":54770635,"location_subtype":"","month":"2017-02"},{"category":"violent-crime","location_type":"Force","location":{"latitude":"51.522311","street":{"id":962237,"name":"On or near Glen Road"},"longitude":"0.035648"},"context":"","outcome_status":{"category":"Offender given community sentence","date":"2017-03"},"persistent_id":"cd539a8f76b9f600370e0b5aaa4dca310f6d1af78db98a9c65f7840416a067b8","id":54745694,"location_subtype":"","month":"2017-02"},{"category":"other-crime","location_type":"Force","location":{"latitude":"51.526391","street":{"id":962208,"name":"On or near Upperton Road West"},"longitude":"0.033696"},"context":"","outcome_status":{"category":"Offender given community sentence","date":"2017-02"},"persistent_id":"30d9621f2ca0dbad6ebaf429e6f62cc2e6180441dbb31d88c2414a48c913a4b9","id":54763488,"location_subtype":"","month":"2017-02"}]