[{"category":"anti-social-behaviour","location_type":"Force","location":{"latitude":"51.533059","street":{"id":959757,"name":"On or near Central Way"},"longitude":"-0.267970"},"context":"","outcome_status":null,"persistent_id":"","id":54677014,"location_subtype":"","month":"2017-02"},{"category":"anti-social-behaviour","location_type":"Force","location":{"latitude":"51.545418","street":{"id":965706,"name":"On or near Conduit Way"},"longitude":"-0.268236"},"context":"","outcome_status":null,"persistent_id":"","id":54677017,"location_subtype":"","month":"2017-02"},{"category":"anti-social-behaviour","location_type":"Force","location":{"latitude":"51.530525","street":{"id":959729,"name":"On or near Cumberland Avenue"},"longitude":"-0.274799"},"context":"","outcome_status":null,"persistent_id":"","id":54677040,"location_subtype":"","month":"2017-02"},{"category":"anti-social-behaviour","location_type":"Force","location":{"latitude":"51.550726","street":{"id":967242,"name":"On or near Garden Way"},"longitude":"-0.263549"},"context":"","outcome_status":null,"persistent_id":"","id":54676947,"location_subtype":"","month":"2017-02"},{"category":"anti-social-behaviour","location_type":"Force","location":{"latitude":"51.542773","street":{"id":965692,"name":"On or near Marshall Street"},"longitude":"-0.262078"},"context":"","outcome_status":null,"persistent_id":"","id":54676945,"location_subtype":"","month":"2017-02"},{"category":"anti-social-behaviour","location_type":"Force","location":{"latitude":"51.542773","street":{"id":965692,"name":"On or near Marshall Street"},"longitude":"-0.262078"},"context":"","outcome_status":null,"persistent_id":"","id":54676942,"location_subtype":"","month":"2017-02"},{"category":"anti-social-behaviour","location_type":"Force","location":{"latitude":"51.549012","street":{"id":967273,"name":"On or near Brentfield Close"},"longitude":"-0.261956"},"context":"","outcome_status":null,"persistent_id":"","id":54676939,"location_subtype":"","month":"2017-02"},{"category":"anti-social-behaviour","location_type":"Force","location":{"latitude":"51.541326","street":{"id":965680,"name":"On or near Wesley Road"},"longitude":"-0.263936"},"context":"","outcome_status":null,"persistent_id":"","id":54676977,"location_subtype":"","month":"2017-02"},{"category":"anti-social-behaviour","location_type":"Force","location":{"latitude":"51.549012","street":{"id":967273,"name":"On or near Brentfield Close"},"longitude":"-0.261956"},"context":"","outcome_status":null,"persistent_id":"","id":54676937,"location_subtype":"","month":"2017-02"},{"category":"anti-social-behaviour","location_type":"Force","location":{"latitude":"51.552097","street":{"id":967234,"name":"On or near St Raphael's Way"},"longitude":"-0.262559"},"context":"","outcome_status":null,"persistent_id":"","id":54676934,"location_subtype":"","month":"2017-02"},{"category":"anti-social-behaviour","location_type":"Force","location":{"latitude":"51.552097","street":{"id":967234,"name":"On or near St Raphael's Way"},"longitude":"-0.262559"},"context":"","outcome_status":null,"persistent_id":"","id":54676931,"location_subtype":"","month":"2017-02"},{"category":"anti-social-behaviour","location_type":"Force","location":{"latitude":"51.543804","street":{"id":965691,"name":"On or near Melville Road"},"longitude":"-0.261808"},"context":"","outcome_status":null,"persistent_id":"","id":54676928,"location_subtype":"","month":"2017-02"},{"category":"anti-social-behaviour","location_type":"Force","location":{"latitude":"51.544566","street":{"id":965751,"name":"On or near Gloucester Close"},"longitude":"-0.261087"},"context":"","outcome_status":null,"persistent_id":"","id":54676916,"location_subtype":"","month":"2017-02"},{"category":"anti-social-behaviour","location_type":"Force","location":{"latitude":"51.544566","street":{"id":965751,"name":"On or near Gloucester Close"},"longitude":"-0.261087"},"context":"","outcome_status":null,"persistent_id":"","id":54676914,"location_subtype":"","month":"2017-02"},{"category":"anti-social-behaviour","location_type":"Force","location":{"latitude":"51.545991","street":{"id":965742,"name":"On or near Kingthorpe Road"},"longitude":"-0.260773"},"context":"","outcome_status":null,"persistent_id":"","id":54676911,"location_subtype":"","month":"2017-02"},{"category":"anti-social-behaviour","location_type":"Force","location":{"latitude":"51.542284","street":{"id":965735,"name":"On or near Morland Gardens"},"longitude":"-0.260020"},"context":"","outcome_status":null,"persistent_id":"","id":54676907,"location_subtype":"","month":"2017-02"},{"category":"anti-social-behaviour","location_type":"Force","location":{"latitude":"51.554343","street":{"id":967246,"name":"On or near Parking Area"},"longitude":"-0.262474"},"context":"","outcome_status":null,"persistent_id":"","id":54676904,"location_subtype":"","month":"2017-02"},{"category":"anti-social-behaviour","location_type":"Force","location":{"latitude":"51.542284","street":{"id":965735,"name":"On or near Morland Gardens"},"longitude":"-0.260020"},"context":"","outcome_status":null,"persistent_id":"","id":54676900,"location_subtype":"","month":"2017-02"},{"category":"anti-social-behaviour","location_type":"Force","location":{"latitude":"51.538569","street":{"id":965783,"name":"On or near Shopping Area"},"longitude":"-0.259902"},"context":"","outcome_status":null,"persistent_id":"","id":54676898,"location_subtype":"","month":"2017-02"},{"category":"anti-social-behaviour","location_type":"Force","location":{"latitude":"51.538569","street":{"id":965783,"name":"On or near Shopping Area"},"longitude":"-0.259902"},"context":"","outcome_status":null,"persistent_id":"","id":54676896,"location_subtype":"","month":"2017-02"},{"category":"anti-social-behaviour","location_type":"Force","location":{"latitude":"51.551282","street":{"id":967216,"name":"On or near Cygnet Close"},"longitude":"-0.257960"},"context":"","outcome_status":null,"persistent_id":"","id":54676882,"location_subtype":"","month":"2017-02"},{"category":"anti-social-behaviour","location_type":"Force","location":{"latitude":"51.553906","street":{"id":967230,"name":"On or near Petrol Station"},"longitude":"-0.255437"},"context":"","outcome_status":null,"persistent_id":"","id":54676879,"location_subtype":"","month":"2017-02"},{"category":"anti-social-behaviour","location_type":"Force","location":{"latitude":"51.553906","street":{"id":967230,"name":"On or near Petrol Station"},"longitude":"-0.255437"},"context":"","outcome_status":null,"persistent_id":"","id":54676876,"location_subtype":"","month":"2017-02"},{"category":"anti-social-behaviour","location_type":"Force","location":{"latitude":"51.537729","street":{"id":965755,"name":"On or near Farm Road"},"longitude":"-0.257886"},"context":"","outcome_status":null,"persistent_id":"","id":54676868,"location_subtype":"","month":"2017-02"},{"category":"anti-social-behaviour","location_type":"Force","location":{"latitude":"51.541869","street":{"id":965764,"name":"On or near Craven Park"},"longitude":"-0.257498"},"context":"","outcome_status":null,"persistent_id":"","id":54676859,"location_subtype":"","month":"2017-02"},{"category":"anti-social-behaviour","location_type":"Force","location":{"latitude":"51.539162","street":{"id":965768,"name":"On or near Chelsea Close"},"longitude":"-0.256837"},"context":"","outcome_status":null,"persistent_id":"","id":54676853,"location_subtype":"","month":"2017-02"},{"category":"anti-social-behaviour","location_type":"Force","location":{"latitude":"51.539162","street":{"id":965768,"name":"On or near Chelsea Close"},"longitude":"-0.256837"},"context":"","outcome_status":null,"persistent_id":"","id":54676851,"location_subtype":"","month":"2017-02"},{"category":"anti-social-behaviour","location_type":"Force","location":{"latitude":"51.551061","street":{"id":967209,"name":"On or near Lynton Close"},"longitude":"-0.252805"},"context":"","outcome_status":null,"persistent_id":"","id":54675891,"location_subtype":"","month":"2017-02"},{"category":"anti-social-behaviour","location_type":"Force","location":{"latitude":"51.551061","street":{"id":967209,"name":"On or near Lynton Close"},"longitude":"-0.252805"},"context":"","outcome_status":null,"persistent_id":"","id":54675888,"location_subtype":"","month":"2017-02"},{"category":"anti-social-behaviour","location_type":"Force","location":{"latitude":"51.530943","street":{"id":959713,"name":"On or near Sports\/recreation Area"},"longitude":"-0.288018"},"context":"","outcome_status":null,"persistent_id":"","id":54662693,"location_subtype":"","month":"2017-02"},{"category":"anti-social-behaviour","location_type":"Force","location":{"latitude":"51.530943","street":{"id":959713,"name":"On or near Sports\/recreation Area"},"longitude":"-0.288018"},"context":"","outcome_status":null,"persistent_id":"","id":54662690,"location_subtype":"","month":"2017-02"},{"category":"anti-social-behaviour","location_type":"Force","location":{"latitude":"51.541326","street":{"id":965680,"name":"On or near Wesley Road"},"longitude":"-0.263936"},"context":"","outcome_status":null,"persistent_id":"","id":54676979,"location_subtype":"","month":"2017-02"},{"category":"anti-social-behaviour","location_type":"Force","location":{"latitude":"51.541326","street":{"id":965680,"name":"On or near Wesley Road"},"longitude":"-0.263936"},"context":"","outcome_status":null,"persistent_id":"","id":54676974,"location_subtype":"","month":"2017-02"},{"category":"anti-social-behaviour","location_type":"Force","location":{"latitude":"51.551640","street":{"id":967240,"name":"On or near Lansbury Close"},"longitude":"-0.265764"},"context":"","outcome_status":null,"persistent_id":"","id":54676971,"location_subtype":"","month":"2017-02"},{"category":"anti-social-behaviour","location_type":"Force","location":{"latitude":"51.529790","street":{"id":959764,"name":"On or near Abbey Road"},"longitude":"-0.269449"},"context":"","outcome_status":null,"persistent_id":"","id":54676992,"location_subtype":"","month":"2017-02"},{"category":"anti-social-behaviour","location_type":"Force","location":{"latitude":"51.542824","street":{"id":965678,"name":"On or near Wood Road"},"longitude":"-0.264874"},"context":"","outcome_status":null,"persistent_id":"","id":54676961,"location_subtype":"","month":"2017-02"},{"category":"anti-social-behaviour","location_type":"Force","location":{"latitude":"51.543504","street":{"id":965704,"name":"On or near Diamond Street"},"longitude":"-0.263435"},"context":"","outcome_status":null,"persistent_id":"","id":54676949,"location_subtype":"","month":"2017-02"},{"category":"anti-social-behaviour","location_type":"Force","location":{"latitude":"51.545418","street":{"id":965706,"name":"On or near Conduit Way"},"longitude":"-0.268236"},"context":"","outcome_status":null,"persistent_id":"","id":54676995,"location_subtype":"","month":"2017-02"},{"category":"bicycle-theft","location_type":"Force","location":{"latitude":"51.534894","street":{"id":965790,"name":"On or near Willenfield Road"},"longitude":"-0.269847"},"context":"","outcome_status":{"category":"Status update unavailable","date":"2017-06"},"persistent_id":"f7312d26f33af30697b8a8c37e9845c353264d93e932c6b574b71376b5d91c61","id":54721366,"location_subtype":"","month":"2017-02"},{"category":"bicycle-theft","location_type":"Force","location":{"latitude":"51.548333","street":{"id":967266,"name":"On or near Overton Close"},"longitude":"-0.268342"},"context":"","outcome_status":{"category":"Status update unavailable","date":"2017-06"},"persistent_id":"03a5498889fd140fd78a447e6fce9b639ef24160f26cdb308a347e174dea437b","id":54727448,"location_subtype":"","month":"2017-02"},{"category":"bicycle-theft","location_type":"Force","location":{"latitude":"51.530704","street":{"id":959712,"name":"On or near Sports\/recreation Area"},"longitude":"-0.286413"},"context":"","outcome_status":{"category":"Investigation complete; no suspect identified","date":"2017-03"},"persistent_id":"d448bbeddc881b737f42d092d76698d38d64b4aa01522d78a9c1bc9f42c7766a","id":54759540,"location_subtype":"","month":"2017-02"},{"category":"burglary","location_type":"Force","location":{"latitude":"51.550252","street":{"id":967241,"name":"On or near Henderson Close"},"longitude":"-0.266106"},"context":"","outcome_status":{"category":"Status update unavailable","date":"2017-06"},"persistent_id":"a5c3948ede0b754b967911078991f3b11f2aa58b41c79f59957c528661271020","id":54771259,"location_subtype":"","month":"2017-02"},{"category":"burglary","location_type":"Force","location":{"latitude":"51.549012","street":{"id":967273,"name":"On or near Brentfield Close"},"longitude":"-0.261956"},"context":"","outcome_status":{"category":"Investigation complete; no suspect identified","date":"2017-02"},"persistent_id":"728caa58b8856c48a2d26c51816100bd78daeffebaec6c2483fa0aaf1ba61abf","id":54749668,"location_subtype":"","month":"2017-02"},{"category":"burglary","location_type":"Force","location":{"latitude":"51.550726","street":{"id":967242,"name":"On or near Garden Way"},"longitude":"-0.263549"},"context":"","outcome_status":{"category":"Investigation complete; no suspect identified","date":"2017-02"},"persistent_id":"b2d65399d475daf0dfaed95b013f9daecbe8998b356588e083500647a2e902bf","id":54703813,"location_subtype":"","month":"2017-02"},{"category":"burglary","location_type":"Force","location":{"latitude":"51.552097","street":{"id":967234,"name":"On or near St Raphael's Way"},"longitude":"-0.262559"},"context":"","outcome_status":{"category":"Investigation complete; no suspect identified","date":"2017-02"},"persistent_id":"c8c296a62a63f06c07c0c59e196cf37923199917e5ac4e2c91a8a6d75f3c75b9","id":54705087,"location_subtype":"","month":"2017-02"},{"category":"burglary","location_type":"Force","location":{"latitude":"51.546589","street":{"id":965688,"name":"On or near North Circular Road"},"longitude":"-0.267759"},"context":"","outcome_status":{"category":"Status update unavailable","date":"2017-06"},"persistent_id":"040c0f710222e0fcddac939ddfabc093269ce8982c6a27b3c8cfc38b9468792f","id":54764791,"location_subtype":"","month":"2017-02"},{"category":"burglary","location_type":"Force","location":{"latitude":"51.548391","street":{"id":967269,"name":"On or near Normans Close"},"longitude":"-0.262498"},"context":"","outcome_status":{"category":"Investigation complete; no suspect identified","date":"2017-02"},"persistent_id":"6b984851c192ac2814ef17accbf94905c97abfe240d6f302db5f055659e1e48c","id":54727359,"location_subtype":"","month":"2017-02"},{"category":"burglary","location_type":"Force","location":{"latitude":"51.549270","street":{"id":967262,"name":"On or near Wrights Place"},"longitude":"-0.263561"},"context":"","outcome_status":{"category":"Investigation complete; no suspect identified","date":"2017-04"},"persistent_id":"d4ad6df0859055b36f76d438314d83c008cad3409a95417213d9e9464701bae4","id":54721455,"location_subtype":"","month":"2017-02"},{"category":"burglary","location_type":"Force","location":{"latitude":"51.551122","street":{"id":967204,"name":"On or near Woodheyes Road"},"longitude":"-0.256235"},"context":"","outcome_status":{"category":"Status update unavailable","date":"2017-06"},"persistent_id":"82b21a1dd1f67ec90a138c2c72d10919aab1a99eb2138c0a03096faeababaf00","id":54756484,"location_subtype":"","month":"2017-02"},{"category":"burglary","location_type":"Force","location":{"latitude":"51.551122","street":{"id":967204,"name":"On or near Woodheyes Road"},"longitude":"-0.256235"},"context":"","outcome_status":{"category":"Status update unavailable","date":"2017-06"},"persistent_id":"82b21a1dd1f67ec90a138c2c72d10919aab1a99eb2138c0a03096faeababaf00","id":54756481,"location_subtype":"","month":"2017-02"},{"category":"burglary","location_type":"Force","location":{"latitude":"51.551122","street":{"id":967204,"name":"On or near Woodheyes Road"},"longitude":"-0.256235"},"context":"","outcome_status":{"category":"Status update unavailable","date":"2017-06"},"persistent_id":"82b21a1dd1f67ec90a138c2c72d10919aab1a99eb2138c0a03096faeababaf00","id":54756480,"location_subtype":"","month":"2017-02"},{"category":"burglary","location_type":"Force","location":{"latitude":"51.551122","street":{"id":967204,"name":"On or near Woodheyes Road"},"longitude":"-0.256235"},"context":"","outcome_status":{"category":"Status update unavailable","date":"2017-06"},"persistent_id":"82b21a1dd1f67ec90a138c2c72d10919aab1a99eb2138c0a03096faeababaf00","id":54756478,"location_subtype":"","month":"2017-02"},{"category":"burglary","location_type":"Force","location":{"latitude":"51.549994","street":{"id":967238,"name":"On or near Mead Plat"},"longitude":"-0.263894"},"context":"","outcome_status":{"category":"Status update unavailable","date":"2017-06"},"persistent_id":"55879066e1fab3ca8e115ccce38f9fc411c9a2cdf5c4962d256938c2361797ef","id":54717592,"location_subtype":"","month":"2017-02"},{"category":"burglary","location_type":"Force","location":{"latitude":"51.548553","street":{"id":967270,"name":"On or near Mitchell Way"},"longitude":"-0.265564"},"context":"","outcome_status":{"category":"Status update unavailable","date":"2017-06"},"persistent_id":"721f8a32a3996b7db90666986c07c535a9a4f9b6b1da4c920fbe6c68decfbfc2","id":54771247,"location_subtype":"","month":"2017-02"},{"category":"burglary","location_type":"Force","location":{"latitude":"51.544262","street":{"id":965703,"name":"On or near Durand Way"},"longitude":"-0.270314"},"context":"","outcome_status":{"category":"Status update unavailable","date":"2017-06"},"persistent_id":"01cbc9cc69dcd9c459416ec8d4e992232eb12a4269e418b7a80d3e90e88461a1","id":54760613,"location_subtype":"","month":"2017-02"},{"category":"burglary","location_type":"Force","location":{"latitude":"51.549994","street":{"id":967238,"name":"On or near Mead Plat"},"longitude":"-0.263894"},"context":"","outcome_status":{"category":"Investigation complete; no suspect identified","date":"2017-04"},"persistent_id":"ca7cbe70224367f376fd578587c3ffdb3207c5ba3ddfbf4ed4037630699066d8","id":54759776,"location_subtype":"","month":"2017-02"},{"category":"burglary","location_type":"Force","location":{"latitude":"51.535805","street":{"id":965795,"name":"On or near Waxlow Road"},"longitude":"-0.263944"},"context":"","outcome_status":{"category":"Status update unavailable","date":"2017-06"},"persistent_id":"210f1b6bb2d6003da2f976b41d7f207a2c65dd715129cf8a0c8c6a3c79f31b95","id":54716222,"location_subtype":"","month":"2017-02"},{"category":"burglary","location_type":"Force","location":{"latitude":"51.550726","street":{"id":967242,"name":"On or near Garden Way"},"longitude":"-0.263549"},"context":"","outcome_status":{"category":"Investigation complete; no suspect identified","date":"2017-04"},"persistent_id":"83349bd5de582181bd4ebc47357c229590ac6f46610896b21c62bb02820bf6af","id":54727967,"location_subtype":"","month":"2017-02"},{"category":"burglary","location_type":"Force","location":{"latitude":"51.533574","street":{"id":959756,"name":"On or near Commercial Way"},"longitude":"-0.272420"},"context":"","outcome_status":{"category":"Investigation complete; no suspect identified","date":"2017-05"},"persistent_id":"a8f33e7208a98eb053ab71e20c23d8be144633d60ac3ff01d59411301a5f7bd4","id":54764613,"location_subtype":"","month":"2017-02"},{"category":"burglary","location_type":"Force","location":{"latitude":"51.547596","street":{"id":967272,"name":"On or near Dryfield Close"},"longitude":"-0.266495"},"context":"","outcome_status":{"category":"Status update unavailable","date":"2017-06"},"persistent_id":"1a5ef28a648a42ea1d852f0edefa5e03af1907a65d3c2676c3c977735ada1869","id":54751094,"location_subtype":"","month":"2017-02"},{"category":"burglary","location_type":"Force","location":{"latitude":"51.550726","street":{"id":967242,"name":"On or near Garden Way"},"longitude":"-0.263549"},"context":"","outcome_status":{"category":"Investigation complete; no suspect identified","date":"2017-02"},"persistent_id":"af6708b50ba716be9f96e8d05b3bc66b43f759a14ad256c132728b29cd9a975b","id":54749696,"location_subtype":"","month":"2017-02"},{"category":"burglary","location_type":"Force","location":{"latitude":"51.548333","street":{"id":967266,"name":"On or near Overton Close"},"longitude":"-0.268342"},"context":"","outcome_status":{"category":"Investigation complete; no suspect identified","date":"2017-03"},"persistent_id":"40c8ce21aba405dfa58fc387b40230889fd791cf7a903c71993e2ee817cc2aa0","id":54720866,"location_subtype":"","month":"2017-02"},{"category":"burglary","location_type":"Force","location":{"latitude":"51.547596","street":{"id":967272,"name":"On or near Dryfield Close"},"longitude":"-0.266495"},"context":"","outcome_status":{"category":"Investigation complete; no suspect identified","date":"2017-03"},"persistent_id":"4bf30f8f5512436259a7527c324d2d5aab7788a720cf2c13d5d6cab590397365","id":54720345,"location_subtype":"","month":"2017-02"},{"category":"burglary","location_type":"Force","location":{"latitude":"51.547113","street":{"id":967282,"name":"On or near Beckett Close"},"longitude":"-0.256360"},"context":"","outcome_status":{"category":"Status update unavailable","date":"2017-06"},"persistent_id":"94e21fe520cd296c00f6d83011281f1232f5468c9d881e705f9b7ea93908aa39","id":54747904,"location_subtype":"","month":"2017-02"},{"category":"burglary","location_type":"Force","location":{"latitude":"51.553252","street":{"id":967248,"name":"On or near Lovett Way"},"longitude":"-0.264650"},"context":"","outcome_status":{"category":"Investigation complete; no suspect identified","date":"2017-03"},"persistent_id":"667567f83f38801454c60ee833cad95a3048765e8cbd18ec583ffcf734292bef","id":54718801,"location_subtype":"","month":"2017-02"},{"category":"burglary","location_type":"Force","location":{"latitude":"51.551088","street":{"id":967236,"name":"On or near Owen Way"},"longitude":"-0.266103"},"context":"","outcome_status":{"category":"Status update unavailable","date":"2017-06"},"persistent_id":"f5178aa71c379ef484867a67cc7a85e72e81608ac707dd45182e2d1c654c2500","id":54705883,"location_subtype":"","month":"2017-02"},{"category":"burglary","location_type":"Force","location":{"latitude":"51.549994","street":{"id":967238,"name":"On or near Mead Plat"},"longitude":"-0.263894"},"context":"","outcome_status":{"category":"Status update unavailable","date":"2017-06"},"persistent_id":"d798cc97e3c0825f9499517ce7651b7a6d9d5952442c74521028971887f9b433","id":54703659,"location_subtype":"","month":"2017-02"},{"category":"burglary","location_type":"Force","location":{"latitude":"51.540657","street":{"id":965759,"name":"On or near Craven Road"},"longitude":"-0.256982"},"context":"","outcome_status":{"category":"Status update unavailable","date":"2017-06"},"persistent_id":"c56e37ee015c81ec93ee7b69c8dbc5aa2a882609c7567c562a4d261b9f8d6a2a","id":54703300,"location_subtype":"","month":"2017-02"},{"category":"burglary","location_type":"Force","location":{"latitude":"51.545894","street":{"id":965682,"name":"On or near Tatum Road"},"longitude":"-0.262709"},"context":"","outcome_status":{"category":"Status update unavailable","date":"2017-06"},"persistent_id":"540bf0ab0ce4fe6d97abc584b1dc2911495451e6b331fcf7079444f20adc9ac7","id":54701017,"location_subtype":"","month":"2017-02"},{"category":"burglary","location_type":"Force","location":{"latitude":"51.548333","street":{"id":967266,"name":"On or near Overton Close"},"longitude":"-0.268342"},"context":"","outcome_status":{"category":"Investigation complete; no suspect identified","date":"2017-04"},"persistent_id":"6362979dbb7176ed50ddc8b54e51ebc71306f74263b5564e1bb4854e4c207054","id":54699872,"location_subtype":"","month":"2017-02"},{"category":"burglary","location_type":"Force","location":{"latitude":"51.550726","street":{"id":967242,"name":"On or near Garden Way"},"longitude":"-0.263549"},"context":"","outcome_status":{"category":"Status update unavailable","date":"2017-06"},"persistent_id":"10efee362558a5d6d6be0bfe5ede0ba7e38b4b2d0fcb9360706ebc61ba1a8ca0","id":54771327,"location_subtype":"","month":"2017-02"},{"category":"burglary","location_type":"Force","location":{"latitude":"51.550726","street":{"id":967242,"name":"On or near Garden Way"},"longitude":"-0.263549"},"context":"","outcome_status":{"category":"Investigation complete; no suspect identified","date":"2017-02"},"persistent_id":"4f659451c3467bf3af80130d9819b67bd2f163e94d47ec17f25613ea68957f6d","id":54698218,"location_subtype":"","month":"2017-02"},{"category":"burglary","location_type":"Force","location":{"latitude":"51.553252","street":{"id":967248,"name":"On or near Lovett Way"},"longitude":"-0.264650"},"context":"","outcome_status":{"category":"Investigation complete; no suspect identified","date":"2017-02"},"persistent_id":"771b7c05d090f74cf7ee41f19a265c111d3b96ceff6c53aceb904f67731abbc3","id":54738040,"location_subtype":"","month":"2017-02"},{"category":"burglary","location_type":"Force","location":{"latitude":"51.545418","street":{"id":965706,"name":"On or near Conduit Way"},"longitude":"-0.268236"},"context":"","outcome_status":{"category":"Status update unavailable","date":"2017-06"},"persistent_id":"4c54b0aaf525af6141c7e447d65b9bff80ffa1e42db81917951f012e676456f6","id":54696622,"location_subtype":"","month":"2017-02"},{"category":"burglary","location_type":"Force","location":{"latitude":"51.546760","street":{"id":965694,"name":"On or near Homefield Close"},"longitude":"-0.264133"},"context":"","outcome_status":{"category":"Status update unavailable","date":"2017-06"},"persistent_id":"0269f48cd194cec6234765fa74aac1a51926cc14bcd48420c51c34fb6972a26f","id":54696277,"location_subtype":"","month":"2017-02"},{"category":"criminal-damage-arson","location_type":"Force","location":{"latitude":"51.542284","street":{"id":965735,"name":"On or near Morland Gardens"},"longitude":"-0.260020"},"context":"","outcome_status":{"category":"Status update unavailable","date":"2017-06"},"persistent_id":"325c2d532d47baecc9371dd5540e09e49b7664079aa10805499fd78d7415a2f0","id":54707469,"location_subtype":"","month":"2017-02"},{"category":"criminal-damage-arson","location_type":"Force","location":{"latitude":"51.552097","street":{"id":967234,"name":"On or near St Raphael's Way"},"longitude":"-0.262559"},"context":"","outcome_status":{"category":"Offender otherwise dealt with","date":"2017-02"},"persistent_id":"931c42a36fb9f619efbac2a7cb663bfc2e7464fecda197fb74fa7ff3e6c5e2b3","id":54701732,"location_subtype":"","month":"2017-02"},{"category":"criminal-damage-arson","location_type":"Force","location":{"latitude":"51.549012","street":{"id":967273,"name":"On or near Brentfield Close"},"longitude":"-0.261956"},"context":"","outcome_status":{"category":"Status update unavailable","date":"2017-06"},"persistent_id":"e636204a5b4bf2f95d358c0dd6c52a467af317b0f41abfa10f6c7a8a23f4e706","id":54761204,"location_subtype":"","month":"2017-02"},{"category":"criminal-damage-arson","location_type":"Force","location":{"latitude":"51.545452","street":{"id":965708,"name":"On or near Beech Way"},"longitude":"-0.262639"},"context":"","outcome_status":{"category":"Status update unavailable","date":"2017-06"},"persistent_id":"2ea6ccd8e2512e617cc829ff5a33f60081074dd37846fd6cc71230ac075da0cc","id":54702889,"location_subtype":"","month":"2017-02"},{"category":"criminal-damage-arson","location_type":"Force","location":{"latitude":"51.542200","street":{"id":965699,"name":"On or near First Drive"},"longitude":"-0.268921"},"context":"","outcome_status":{"category":"Status update unavailable","date":"2017-06"},"persistent_id":"c05512e2b7eafced9c96d07c069d36bdecfb5fe0a170e9e2a45ab46996a554de","id":54731501,"location_subtype":"","month":"2017-02"},{"category":"criminal-damage-arson","location_type":"Force","location":{"latitude":"51.536144","street":{"id":965789,"name":"On or near Acton Lane"},"longitude":"-0.257111"},"context":"","outcome_status":{"category":"Status update unavailable","date":"2017-06"},"persistent_id":"1d8eb2eaf671c8f83e51f163548b0280a598f55a029503c71bed5dcdedbc9dda","id":54728784,"location_subtype":"","month":"2017-02"},{"category":"criminal-damage-arson","location_type":"Force","location":{"latitude":"51.549012","street":{"id":967273,"name":"On or near Brentfield Close"},"longitude":"-0.261956"},"context":"","outcome_status":{"category":"Status update unavailable","date":"2017-06"},"persistent_id":"2f3c4c802e4857d09f75dd766589d276c4a939d1fc1bbc072e84c766ddd4b39d","id":54757306,"location_subtype":"","month":"2017-02"},{"category":"criminal-damage-arson","location_type":"Force","location":{"latitude":"51.540494","street":{"id":965741,"name":"On or near Knatchbull Road"},"longitude":"-0.258156"},"context":"","outcome_status":{"category":"Status update unavailable","date":"2017-06"},"persistent_id":"c52b38dcbe773b462f12870569967392e891dac662096ba1741f467cfb3e1673","id":54701362,"location_subtype":"","month":"2017-02"},{"category":"criminal-damage-arson","location_type":"Force","location":{"latitude":"51.541970","street":{"id":965707,"name":"On or near Brett Crescent"},"longitude":"-0.261878"},"context":"","outcome_status":{"category":"Status update unavailable","date":"2017-06"},"persistent_id":"a46a4e49a0e8916569c7628034f766621685de016d3268fd042014c40022c797","id":54724687,"location_subtype":"","month":"2017-02"},{"category":"criminal-damage-arson","location_type":"Force","location":{"latitude":"51.551061","street":{"id":967209,"name":"On or near Lynton Close"},"longitude":"-0.252805"},"context":"","outcome_status":{"category":"Status update unavailable","date":"2017-06"},"persistent_id":"946d519f2ff28014b573408d53471899209911b5ad0778af5a097917a38a758b","id":54762999,"location_subtype":"","month":"2017-02"},{"category":"criminal-damage-arson","location_type":"Force","location":{"latitude":"51.532463","street":{"id":959669,"name":"On or near Whitby Avenue"},"longitude":"-0.276326"},"context":"","outcome_status":{"category":"Investigation complete; no suspect identified","date":"2017-02"},"persistent_id":"ade1366ad3ddaa65269c67b29034fed518c2965c99ed10d92b2cdb7ce62aafdf","id":54698934,"location_subtype":"","month":"2017-02"},{"category":"criminal-damage-arson","location_type":"Force","location":{"latitude":"51.536144","street":{"id":965789,"name":"On or near Acton Lane"},"longitude":"-0.257111"},"context":"","outcome_status":{"category":"Defendant found not guilty","date":"2017-06"},"persistent_id":"1d8eb2eaf671c8f83e51f163548b0280a598f55a029503c71bed5dcdedbc9dda","id":54728786,"location_subtype":"","month":"2017-02"},{"category":"drugs","location_type":"Force","location":{"latitude":"51.543043","street":{"id":965698,"name":"On or near Foxholt Gardens"},"longitude":"-0.268125"},"context":"","outcome_status":{"category":"Offender given a drugs possession warning","date":"2017-02"},"persistent_id":"18e893cbde1ca2faba17baa971769ec9b23b0f59f4eb36dfcb368b9ad219bdf7","id":54752933,"location_subtype":"","month":"2017-02"},{"category":"drugs","location_type":"Force","location":{"latitude":"51.548333","street":{"id":967266,"name":"On or near Overton Close"},"longitude":"-0.268342"},"context":"","outcome_status":{"category":"Status update unavailable","date":"2017-06"},"persistent_id":"25de614c2062325602c50d3bd1acd30a3ce45d3bfa3a88ce8b4de00dc5f6b896","id":54719546,"location_subtype":"","month":"2017-02"},{"category":"drugs","location_type":"Force","location":{"latitude":"51.550981","street":{"id":967210,"name":"On or near Kingfisher Way"},"longitude":"-0.259457"},"context":"","outcome_status":{"category":"Offender given a drugs possession warning","date":"2017-02"},"persistent_id":"31620d39e679990920da8d92bfa30bc5568232e36e8bfc0f87b6d37a56fef173","id":54705763,"location_subtype":"","month":"2017-02"},{"category":"drugs","location_type":"Force","location":{"latitude":"51.540657","street":{"id":965759,"name":"On or near Craven Road"},"longitude":"-0.256982"},"context":"","outcome_status":{"category":"Offender given a drugs possession warning","date":"2017-02"},"persistent_id":"dc89b8354e038520e4eb5dc2cd3abdb059e888a5d978b6bfa24cbce92587cb82","id":54762055,"location_subtype":"","month":"2017-02"},{"category":"drugs","location_type":"Force","location":{"latitude":"51.545920","street":{"id":965710,"name":"On or near Barrs Road"},"longitude":"-0.262045"},"context":"","outcome_status":{"category":"Offender given a drugs possession warning","date":"2017-02"},"persistent_id":"f5843ac2e1234ccbf1a1bf623a4aad9b5700f1ea8aee67b3c9835cdc5e86b8fb","id":54724548,"location_subtype":"","month":"2017-02"},{"category":"drugs","location_type":"Force","location":{"latitude":"51.541970","street":{"id":965707,"name":"On or near Brett Crescent"},"longitude":"-0.261878"},"context":"","outcome_status":{"category":"Offender given a drugs possession warning","date":"2017-02"},"persistent_id":"68bd9c2c6b1dea7664b272dc589d1360dd83fe341a02b97496bbb34df316eae9","id":54703094,"location_subtype":"","month":"2017-02"},{"category":"other-theft","location_type":"Force","location":{"latitude":"51.534894","street":{"id":965790,"name":"On or near Willenfield Road"},"longitude":"-0.269847"},"context":"","outcome_status":{"category":"Status update unavailable","date":"2017-06"},"persistent_id":"15b0cfaf1bb5e7065f0d6d2bfce4cf65fff1feeaa8b0a37a9a5e7213da47fb2a","id":54759034,"location_subtype":"","month":"2017-02"},{"category":"other-theft","location_type":"Force","location":{"latitude":"51.553906","street":{"id":967230,"name":"On or near Petrol Station"},"longitude":"-0.255437"},"context":"","outcome_status":{"category":"Investigation complete; no suspect identified","date":"2017-03"},"persistent_id":"3c8d0de1c483047c0657f67b8bdebadb38224c62bd9ec9e82f6e9b30c46e81f9","id":54717563,"location_subtype":"","month":"2017-02"},{"category":"other-theft","location_type":"Force","location":{"latitude":"51.546266","street":{"id":965758,"name":"On or near Crouch Road"},"longitude":"-0.261094"},"context":"","outcome_status":{"category":"Investigation complete; no suspect identified","date":"2017-03"},"persistent_id":"23f9463fe1136fb60381932677a60d447d520f16510de6a889967741cddef848","id":54715427,"location_subtype":"","month":"2017-02"},{"category":"other-theft","location_type":"Force","location":{"latitude":"51.553906","street":{"id":967230,"name":"On or near Petrol Station"},"longitude":"-0.255437"},"context":"","outcome_status":{"category":"Investigation complete; no suspect identified","date":"2017-03"},"persistent_id":"13d9c956d8f31f810ffb0429deffa697334259b60bd276e6f980076146507466","id":54697078,"location_subtype":"","month":"2017-02"},{"category":"other-theft","location_type":"Force","location":{"latitude":"51.539686","street":{"id":923828,"name":"On or near Johnson Road"},"longitude":"-0.262484"},"context":"","outcome_status":{"category":"Status update unavailable","date":"2017-06"},"persistent_id":"0d9b8c030ab82e716d725c3fef71179b2cc3dc60745dc8d4f92c765c4f82a74f","id":54729610,"location_subtype":"","month":"2017-02"},{"category":"other-theft","location_type":"Force","location":{"latitude":"51.533141","street":{"id":959674,"name":"On or near Eldon Way"},"longitude":"-0.275969"},"context":"","outcome_status":{"category":"Investigation complete; no suspect identified","date":"2017-03"},"persistent_id":"1914af591f88f2d0e25db6b5ce56d53217a12cb12072298b8c6cfe66398c3c77","id":54747162,"location_subtype":"","month":"2017-02"},{"category":"other-theft","location_type":"Force","location":{"latitude":"51.546589","street":{"id":965688,"name":"On or near North Circular Road"},"longitude":"-0.267759"},"context":"","outcome_status":{"category":"Investigation complete; no suspect identified","date":"2018-01"},"persistent_id":"c081f2f177b3fa3b4f1ab5a52a27412f746d0936347b449a2f0c805d5c40d9e8","id":54740821,"location_subtype":"","month":"2017-02"},{"category":"other-theft","location_type":"Force","location":{"latitude":"51.544517","street":{"id":965725,"name":"On or near Stonebridge Park"},"longitude":"-0.260771"},"context":"","outcome_status":{"category":"Investigation complete; no suspect identified","date":"2017-04"},"persistent_id":"cb61860ace48eb5ac7f808e2da3b0d3fbc63a5487819f946867f5350caca6b77","id":54751300,"location_subtype":"","month":"2017-02"},{"category":"other-theft","location_type":"Force","location":{"latitude":"51.551585","street":{"id":967239,"name":"On or near Lewis Crescent"},"longitude":"-0.263213"},"context":"","outcome_status":{"category":"Status update unavailable","date":"2017-06"},"persistent_id":"ea44d0be6f7885ccbefad6ec155ebd98b58cb8f74840a3720ce75514c172fbdb","id":54721007,"location_subtype":"","month":"2017-02"},{"category":"other-theft","location_type":"Force","location":{"latitude":"51.533059","street":{"id":959757,"name":"On or near Central Way"},"longitude":"-0.267970"},"context":"","outcome_status":{"category":"Status update unavailable","date":"2017-06"},"persistent_id":"34e6eef10a166322107122c59bf1778025cdc2be242915ae27d195c5c2c343f2","id":54719981,"location_subtype":"","month":"2017-02"},{"category":"other-theft","location_type":"Force","location":{"latitude":"51.549994","street":{"id":967238,"name":"On or near Mead Plat"},"longitude":"-0.263894"},"context":"","outcome_status":{"category":"Status update unavailable","date":"2017-06"},"persistent_id":"0ff09ad70ffb6710e9618e243bcc015f0f19b375a4d9840e2029aa4d3f2db7cb","id":54719748,"location_subtype":"","month":"2017-02"},{"category":"other-theft","location_type":"Force","location":{"latitude":"51.551061","street":{"id":967209,"name":"On or near Lynton Close"},"longitude":"-0.252805"},"context":"","outcome_status":{"category":"Status update unavailable","date":"2017-06"},"persistent_id":"ba17e74fa543ea57065c9023331c69b0034ea8eb8e134ea8bd9d2429ba536a9c","id":54700774,"location_subtype":"","month":"2017-02"},{"category":"other-theft","location_type":"Force","location":{"latitude":"51.552097","street":{"id":967234,"name":"On or near St Raphael's Way"},"longitude":"-0.262559"},"context":"","outcome_status":{"category":"Investigation complete; no suspect identified","date":"2017-03"},"persistent_id":"4229038c08ea5fe0693714fdca23f111ca1e9d5b586255ca034f445e64ebdeb0","id":54719499,"location_subtype":"","month":"2017-02"},{"category":"other-theft","location_type":"Force","location":{"latitude":"51.554343","street":{"id":967246,"name":"On or near Parking Area"},"longitude":"-0.262474"},"context":"","outcome_status":{"category":"Status update unavailable","date":"2017-06"},"persistent_id":"b415871bb7a56230ce43cc9b99f46a74b74b770284bae2c71f8e33e64fb87a6d","id":54747240,"location_subtype":"","month":"2017-02"},{"category":"other-theft","location_type":"Force","location":{"latitude":"51.529790","street":{"id":959764,"name":"On or near Abbey Road"},"longitude":"-0.269449"},"context":"","outcome_status":{"category":"Status update unavailable","date":"2017-06"},"persistent_id":"b1ae0c80964d96adbfb75eb15062fd11065b21ec5d408917fa96030a7d0aac50","id":54696338,"location_subtype":"","month":"2017-02"},{"category":"other-theft","location_type":"Force","location":{"latitude":"51.553906","street":{"id":967230,"name":"On or near Petrol Station"},"longitude":"-0.255437"},"context":"","outcome_status":{"category":"Investigation complete; no suspect identified","date":"2017-03"},"persistent_id":"5e8086a1e2f5a1d700f44e1ad82db97604dfa0a98e2ca789b7e2c2cd90868788","id":54771400,"location_subtype":"","month":"2017-02"},{"category":"other-theft","location_type":"Force","location":{"latitude":"51.530704","street":{"id":959712,"name":"On or near Sports\/recreation Area"},"longitude":"-0.286413"},"context":"","outcome_status":{"category":"Status update unavailable","date":"2017-06"},"persistent_id":"95fb4f4f8db4c12546f796c2658b936fb34a5a4890e53ff5777ea8a0c837489e","id":54771370,"location_subtype":"","month":"2017-02"},{"category":"other-theft","location_type":"Force","location":{"latitude":"51.545894","street":{"id":965682,"name":"On or near Tatum Road"},"longitude":"-0.262709"},"context":"","outcome_status":{"category":"Investigation complete; no suspect identified","date":"2017-03"},"persistent_id":"9418bd282bf055ccba376133b11ddcbced864a236d960ca1f9e92e06334b440f","id":54703258,"location_subtype":"","month":"2017-02"},{"category":"other-theft","location_type":"Force","location":{"latitude":"51.553906","street":{"id":967230,"name":"On or near Petrol Station"},"longitude":"-0.255437"},"context":"","outcome_status":{"category":"Investigation complete; no suspect identified","date":"2017-03"},"persistent_id":"93345711d150a5596ebb1596e0a78635984aa97f290df1179dc69f3f1152a18a","id":54702601,"location_subtype":"","month":"2017-02"},{"category":"other-theft","location_type":"Force","location":{"latitude":"51.533059","street":{"id":959757,"name":"On or near Central Way"},"longitude":"-0.267970"},"context":"","outcome_status":{"category":"Status update unavailable","date":"2017-06"},"persistent_id":"449864082344d569aef8e1d415d1c920302dc4859f218d33d51cc5007ce8de02","id":54702464,"location_subtype":"","month":"2017-02"},{"category":"other-theft","location_type":"Force","location":{"latitude":"51.550981","street":{"id":967210,"name":"On or near Kingfisher Way"},"longitude":"-0.259457"},"context":"","outcome_status":{"category":"Status update unavailable","date":"2017-06"},"persistent_id":"8c629f52c5ea5a159143757d83526a3c8f8d38f79ee259c5bbd81de30d73e66f","id":54753760,"location_subtype":"","month":"2017-02"},{"category":"other-theft","location_type":"Force","location":{"latitude":"51.534894","street":{"id":965790,"name":"On or near Willenfield Road"},"longitude":"-0.269847"},"context":"","outcome_status":{"category":"Investigation complete; no suspect identified","date":"2017-03"},"persistent_id":"7ea3b42fba1aa8c068708211939e14b8361e978f58db3b67cfebde88ac4ccf37","id":54717890,"location_subtype":"","month":"2017-02"},{"category":"other-theft","location_type":"Force","location":{"latitude":"51.543804","street":{"id":965691,"name":"On or near Melville Road"},"longitude":"-0.261808"},"context":"","outcome_status":{"category":"Investigation complete; no suspect identified","date":"2017-03"},"persistent_id":"338e8c7d156f5621581cbe7a168088b0ff5bbe7d9c06bbdbc25b0a7ef9234a2e","id":54769855,"location_subtype":"","month":"2017-02"},{"category":"public-order","location_type":"Force","location":{"latitude":"51.531907","street":{"id":959672,"name":"On or near Penny Road"},"longitude":"-0.273392"},"context":"","outcome_status":{"category":"Status update unavailable","date":"2017-06"},"persistent_id":"076adef06fbea76f268d3af48f1e7ce0d8b1881439ed65f7822a6f290e6d2dc1","id":54747005,"location_subtype":"","month":"2017-02"},{"category":"public-order","location_type":"Force","location":{"latitude":"51.539219","street":{"id":965739,"name":"On or near Lawrence Avenue"},"longitude":"-0.260065"},"context":"","outcome_status":{"category":"Court result unavailable","date":"2017-08"},"persistent_id":"d9778fa4a7e7d0b1d8f48d3afd41e13a8b1a92fee1dc9c853b72a61e544223b7","id":54746753,"location_subtype":"","month":"2017-02"},{"category":"public-order","location_type":"Force","location":{"latitude":"51.549620","street":{"id":967215,"name":"On or near Elgar Avenue"},"longitude":"-0.259855"},"context":"","outcome_status":{"category":"Investigation complete; no suspect identified","date":"2017-03"},"persistent_id":"e51e00a6492f32c0dfa79fda2dfb6f8c56cf2c85e53f26752a7f1915e6ec4339","id":54749889,"location_subtype":"","month":"2017-02"},{"category":"public-order","location_type":"Force","location":{"latitude":"51.548553","street":{"id":967270,"name":"On or near Mitchell Way"},"longitude":"-0.265564"},"context":"","outcome_status":{"category":"Court result unavailable","date":"2017-08"},"persistent_id":"8d9070f6143bf36b2df9f64bcbdcb1ec39503a9122e49be3fb9b7362e391c1a2","id":54712163,"location_subtype":"","month":"2017-02"},{"category":"public-order","location_type":"Force","location":{"latitude":"51.544842","street":{"id":965697,"name":"On or near Harrow Road"},"longitude":"-0.272440"},"context":"","outcome_status":{"category":"Investigation complete; no suspect identified","date":"2017-04"},"persistent_id":"f27344113e095c576f6fdf88c19636b76ba22b95b723ead16e9031efd307db6c","id":54719928,"location_subtype":"","month":"2017-02"},{"category":"public-order","location_type":"Force","location":{"latitude":"51.536144","street":{"id":965789,"name":"On or near Acton Lane"},"longitude":"-0.257111"},"context":"","outcome_status":{"category":"Investigation complete; no suspect identified","date":"2017-02"},"persistent_id":"4762c1a0ca94b714a0657ba47116f1c244dba031ec4e2683aeeb9186105f223f","id":54769134,"location_subtype":"","month":"2017-02"},{"category":"public-order","location_type":"Force","location":{"latitude":"51.535475","street":{"id":965853,"name":"On or near Abbey Road"},"longitude":"-0.275102"},"context":"","outcome_status":{"category":"Investigation complete; no suspect identified","date":"2017-03"},"persistent_id":"dc9c15f6e5d5ba8cac9eb53d1b68b4f4cb1f6c5f989c8c80d5333947bb1c3ea8","id":54769017,"location_subtype":"","month":"2017-02"},{"category":"public-order","location_type":"Force","location":{"latitude":"51.531907","street":{"id":959672,"name":"On or near Penny Road"},"longitude":"-0.273392"},"context":"","outcome_status":{"category":"Investigation complete; no suspect identified","date":"2017-07"},"persistent_id":"076adef06fbea76f268d3af48f1e7ce0d8b1881439ed65f7822a6f290e6d2dc1","id":54747878,"location_subtype":"","month":"2017-02"},{"category":"public-order","location_type":"Force","location":{"latitude":"51.536144","street":{"id":965789,"name":"On or near Acton Lane"},"longitude":"-0.257111"},"context":"","outcome_status":{"category":"Status update unavailable","date":"2017-06"},"persistent_id":"44a7f3af032b00e68f9f70d1cc3458b6a63785bb5bcf460a153cce6905fee56d","id":54758029,"location_subtype":"","month":"2017-02"},{"category":"public-order","location_type":"Force","location":{"latitude":"51.529790","street":{"id":959764,"name":"On or near Abbey Road"},"longitude":"-0.269449"},"context":"","outcome_status":{"category":"Investigation complete; no suspect identified","date":"2017-03"},"persistent_id":"654123590e3b45be0e1d9c93ec68ba78f7ee018354086f68fbb71218c0c737ca","id":54707514,"location_subtype":"","month":"2017-02"},{"category":"robbery","location_type":"Force","location":{"latitude":"51.540001","street":{"id":965776,"name":"On or near Beames Road"},"longitude":"-0.260049"},"context":"","outcome_status":{"category":"Investigation complete; no suspect identified","date":"2018-03"},"persistent_id":"a1faace266d085c01c061665c1fcba49f3ef59d2dfeed3a5d82a9db600a6ca89","id":54718628,"location_subtype":"","month":"2017-02"},{"category":"robbery","location_type":"Force","location":{"latitude":"51.535475","street":{"id":965853,"name":"On or near Abbey Road"},"longitude":"-0.275102"},"context":"","outcome_status":{"category":"Investigation complete; no suspect identified","date":"2017-03"},"persistent_id":"e9b6524dda693917c02ddac904a38ed518d372dd93216fc25cddb57e6c055f04","id":54747914,"location_subtype":"","month":"2017-02"},{"category":"robbery","location_type":"Force","location":{"latitude":"51.538800","street":{"id":965690,"name":"On or near Milton Avenue"},"longitude":"-0.262128"},"context":"","outcome_status":{"category":"Investigation complete; no suspect identified","date":"2017-04"},"persistent_id":"6a6f97365972938f4b705acc33ab372f7c9d6b504b17d1954a2434260f9cd658","id":54702235,"location_subtype":"","month":"2017-02"},{"category":"robbery","location_type":"Force","location":{"latitude":"51.544842","street":{"id":965697,"name":"On or near Harrow Road"},"longitude":"-0.272440"},"context":"","outcome_status":{"category":"Investigation complete; no suspect identified","date":"2017-04"},"persistent_id":"ab46e2da3c15694702c18ed96f08b10d818bde73367915162eab24018bfe3713","id":54767851,"location_subtype":"","month":"2017-02"},{"category":"robbery","location_type":"Force","location":{"latitude":"51.544566","street":{"id":965751,"name":"On or near Gloucester Close"},"longitude":"-0.261087"},"context":"","outcome_status":{"category":"Investigation complete; no suspect identified","date":"2017-03"},"persistent_id":"84f5a9bb822489c97169ba033beb4c775064ae291322f2b2d58b68f8f84f45a6","id":54740626,"location_subtype":"","month":"2017-02"},{"category":"robbery","location_type":"Force","location":{"latitude":"51.545452","street":{"id":965708,"name":"On or near Beech Way"},"longitude":"-0.262639"},"context":"","outcome_status":{"category":"Investigation complete; no suspect identified","date":"2017-04"},"persistent_id":"605932d9392f88868545058dd8943dc6e9b311922f3239c838b6ffb156576711","id":54755337,"location_subtype":"","month":"2017-02"},{"category":"shoplifting","location_type":"Force","location":{"latitude":"51.553906","street":{"id":967230,"name":"On or near Petrol Station"},"longitude":"-0.255437"},"context":"","outcome_status":{"category":"Offender fined","date":"2017-04"},"persistent_id":"c7a0750d1183e26b36c23ab6875ba1cf7d2f1b27ed9b9d1961e208e49dcdde65","id":54706716,"location_subtype":"","month":"2017-02"},{"category":"shoplifting","location_type":"Force","location":{"latitude":"51.554343","street":{"id":967246,"name":"On or near Parking Area"},"longitude":"-0.262474"},"context":"","outcome_status":{"category":"Court result unavailable","date":"2017-12"},"persistent_id":"3adc7380b395bf87d9e1a9e26e1eb0c5fd5c343ccb43842f77b11c6506322a04","id":54748178,"location_subtype":"","month":"2017-02"},{"category":"shoplifting","location_type":"Force","location":{"latitude":"51.554343","street":{"id":967246,"name":"On or near Parking Area"},"longitude":"-0.262474"},"context":"","outcome_status":{"category":"Offender given community sentence","date":"2017-02"},"persistent_id":"530cb4f89dd9ae3923dc598c2f7f9186f3aac13367e267259ecc12e30aee3f2b","id":54705472,"location_subtype":"","month":"2017-02"},{"category":"shoplifting","location_type":"Force","location":{"latitude":"51.553906","street":{"id":967230,"name":"On or near Petrol Station"},"longitude":"-0.255437"},"context":"","outcome_status":{"category":"Status update unavailable","date":"2017-06"},"persistent_id":"d3458bf7fdfa5d1cb7fa9a1a8228ff3a160676c8c637de2de041f8a833fe415f","id":54701553,"location_subtype":"","month":"2017-02"},{"category":"shoplifting","location_type":"Force","location":{"latitude":"51.554343","street":{"id":967246,"name":"On or near Parking Area"},"longitude":"-0.262474"},"context":"","outcome_status":{"category":"Court result unavailable","date":"2017-09"},"persistent_id":"744fe18d8bb2136e5e7bb3093d6a19a6ddc53b8960cc1f474ff447d9fbbafaf4","id":54723093,"location_subtype":"","month":"2017-02"},{"category":"shoplifting","location_type":"Force","location":{"latitude":"51.553906","street":{"id":967230,"name":"On or near Petrol Station"},"longitude":"-0.255437"},"context":"","outcome_status":{"category":"Offender sent to prison","date":"2017-02"},"persistent_id":"09b4b6cd8643b99f0c777f8f234b59817b7e3542397b9689c654d528616695fa","id":54697943,"location_subtype":"","month":"2017-02"},{"category":"shoplifting","location_type":"Force","location":{"latitude":"51.553906","street":{"id":967230,"name":"On or near Petrol Station"},"longitude":"-0.255437"},"context":"","outcome_status":{"category":"Offender sent to prison","date":"2017-02"},"persistent_id":"9c28ebb3e32f40f16a2f639cee9302fdc4fe195feef3f00ec0496dbd4980ac74","id":54770741,"location_subtype":"","month":"2017-02"},{"category":"theft-from-the-person","location_type":"Force","location":{"latitude":"51.553906","street":{"id":967230,"name":"On or near Petrol Station"},"longitude":"-0.255437"},"context":"","outcome_status":{"category":"Status update unavailable","date":"2017-06"},"persistent_id":"ea045c745b12b945df2e25452757d32287594a7e16d9fda68b968899a699b08a","id":54720183,"location_subtype":"","month":"2017-02"},{"category":"theft-from-the-person","location_type":"Force","location":{"latitude":"51.541970","street":{"id":965707,"name":"On or near Brett Crescent"},"longitude":"-0.261878"},"context":"","outcome_status":{"category":"Status update unavailable","date":"2017-06"},"persistent_id":"90439400073a261b2fc1ff0aebea9f8db668e8955683cb7a2cfbd36497550059","id":54758404,"location_subtype":"","month":"2017-02"},{"category":"theft-from-the-person","location_type":"Force","location":{"latitude":"51.553906","street":{"id":967230,"name":"On or near Petrol Station"},"longitude":"-0.255437"},"context":"","outcome_status":{"category":"Status update unavailable","date":"2017-06"},"persistent_id":"17eaa22852b950cd5301f27bc8fda36fb6c514a20d13885fb08becc2f38d45c0","id":54711501,"location_subtype":"","month":"2017-02"},{"category":"theft-from-the-person","location_type":"Force","location":{"latitude":"51.544517","street":{"id":965725,"name":"On or near Stonebridge Park"},"longitude":"-0.260771"},"context":"","outcome_status":{"category":"Status update unavailable","date":"2017-06"},"persistent_id":"e6bf2edf8abf4cdff19a0076f88e66da60cd43b6cd7f1d15113adddcc219ffa1","id":54755824,"location_subtype":"","month":"2017-02"},{"category":"vehicle-crime","location_type":"Force","location":{"latitude":"51.535805","street":{"id":965795,"name":"On or near Waxlow Road"},"longitude":"-0.263944"},"context":"","outcome_status":{"category":"Status update unavailable","date":"2017-06"},"persistent_id":"7d3ceabf7aaf9baef95ff54d538bae73cee37aa1c82f3aab6f5a3fd4766b378b","id":54744394,"location_subtype":"","month":"2017-02"},{"category":"vehicle-crime","location_type":"Force","location":{"latitude":"51.545920","street":{"id":965710,"name":"On or near Barrs Road"},"longitude":"-0.262045"},"context":"","outcome_status":{"category":"Status update unavailable","date":"2017-06"},"persistent_id":"9cab177daadb9b97b1eac535e1eb9cf9cbfdba881fcc33fcdbe18d06c5a1a8ef","id":54771060,"location_subtype":"","month":"2017-02"},{"category":"vehicle-crime","location_type":"Force","location":{"latitude":"51.553276","street":{"id":967250,"name":"On or near Hardie Close"},"longitude":"-0.262630"},"context":"","outcome_status":{"category":"Status update unavailable","date":"2017-06"},"persistent_id":"ffababcec4196e61e1140ddd07134c0282009b40ee61383b051c641c1c86082b","id":54770895,"location_subtype":"","month":"2017-02"},{"category":"vehicle-crime","location_type":"Force","location":{"latitude":"51.553252","street":{"id":967248,"name":"On or near Lovett Way"},"longitude":"-0.264650"},"context":"","outcome_status":{"category":"Investigation complete; no suspect identified","date":"2017-03"},"persistent_id":"cd1752b131760a2fe29a9947f155b260495f4af0719788ebcf0032baa3ebf7eb","id":54761333,"location_subtype":"","month":"2017-02"},{"category":"vehicle-crime","location_type":"Force","location":{"latitude":"51.544557","street":{"id":965781,"name":"On or near Petrol Station"},"longitude":"-0.259270"},"context":"","outcome_status":{"category":"Status update unavailable","date":"2017-06"},"persistent_id":"7d25864783843cac422f87f4715bcf342c1f6c1797c85aea60e72502a1225aa9","id":54766301,"location_subtype":"","month":"2017-02"},{"category":"vehicle-crime","location_type":"Force","location":{"latitude":"51.549770","street":{"id":967206,"name":"On or near Tallis View"},"longitude":"-0.257859"},"context":"","outcome_status":{"category":"Status update unavailable","date":"2017-06"},"persistent_id":"60cecc7c79f381e1605485feb7dd257caabbfbaa180a97c261fb65c1e0b215ce","id":54768406,"location_subtype":"","month":"2017-02"},{"category":"vehicle-crime","location_type":"Force","location":{"latitude":"51.542200","street":{"id":965699,"name":"On or near First Drive"},"longitude":"-0.268921"},"context":"","outcome_status":{"category":"Status update unavailable","date":"2017-06"},"persistent_id":"9702bdda8be736358533c08445b97d66d6fa0c488bb1d6ac3093002e6ccddf6c","id":54734127,"location_subtype":"","month":"2017-02"},{"category":"vehicle-crime","location_type":"Force","location":{"latitude":"51.542697","street":{"id":965772,"name":"On or near Bruce Road"},"longitude":"-0.258735"},"context":"","outcome_status":{"category":"Status update unavailable","date":"2017-06"},"persistent_id":"66577b60214a16b96fac5b2779696e02cccbaba4c54edfa15384b1b84c3ac14b","id":54703624,"location_subtype":"","month":"2017-02"},{"category":"vehicle-crime","location_type":"Force","location":{"latitude":"51.550726","street":{"id":967242,"name":"On or near Garden Way"},"longitude":"-0.263549"},"context":"","outcome_status":{"category":"Status update unavailable","date":"2017-06"},"persistent_id":"06cfad62bfb8529b076d93f25b978fcbdd9001d6588a547a7a1c369b1f2923f2","id":54771116,"location_subtype":"","month":"2017-02"},{"category":"vehicle-crime","location_type":"Force","location":{"latitude":"51.542697","street":{"id":965772,"name":"On or near Bruce Road"},"longitude":"-0.258735"},"context":"","outcome_status":{"category":"Status update unavailable","date":"2017-06"},"persistent_id":"cc2e62b1597c23d2056a72a3f9c319ae6b29979b0f460127479e893b78ea2e3b","id":54722371,"location_subtype":"","month":"2017-02"},{"category":"vehicle-crime","location_type":"Force","location":{"latitude":"51.553252","street":{"id":967248,"name":"On or near Lovett Way"},"longitude":"-0.264650"},"context":"","outcome_status":{"category":"Investigation complete; no suspect identified","date":"2017-03"},"persistent_id":"9688928565d36bf9f59a8a491fe42e792f82f8223f627608e68effeb98da3128","id":54772372,"location_subtype":"","month":"2017-02"},{"category":"vehicle-crime","location_type":"Force","location":{"latitude":"51.549909","street":{"id":967235,"name":"On or near Rainborough Close"},"longitude":"-0.267287"},"context":"","outcome_status":{"category":"Status update unavailable","date":"2017-06"},"persistent_id":"b5712db9fe75555697190cb00809ce22945c98ee2f401c62bfa867b8472ea7a6","id":54703362,"location_subtype":"","month":"2017-02"},{"category":"vehicle-crime","location_type":"Force","location":{"latitude":"51.553906","street":{"id":967230,"name":"On or near Petrol Station"},"longitude":"-0.255437"},"context":"","outcome_status":{"category":"Investigation complete; no suspect identified","date":"2017-05"},"persistent_id":"47fd2c1e95b4f6a2c84b494586e30d2cad4192ddc1ca7235c3b39123b8f32647","id":54771115,"location_subtype":"","month":"2017-02"},{"category":"vehicle-crime","location_type":"Force","location":{"latitude":"51.554343","street":{"id":967246,"name":"On or near Parking Area"},"longitude":"-0.262474"},"context":"","outcome_status":{"category":"Investigation complete; no suspect identified","date":"2017-03"},"persistent_id":"a57ed059b6024c892152b3f22ebdefbe8f66a2fc34206f6c1623b618405a0991","id":54720853,"location_subtype":"","month":"2017-02"},{"category":"vehicle-crime","location_type":"Force","location":{"latitude":"51.547311","street":{"id":967263,"name":"On or near Tillett Close"},"longitude":"-0.267919"},"context":"","outcome_status":{"category":"Status update unavailable","date":"2017-06"},"persistent_id":"5c74352dc5fd6022dc7371314023b8430b76aaa5ccc58d03089a3e830aef5e2a","id":54749041,"location_subtype":"","month":"2017-02"},{"category":"vehicle-crime","location_type":"Force","location":{"latitude":"51.541598","street":{"id":965696,"name":"On or near Hillside"},"longitude":"-0.264098"},"context":"","outcome_status":{"category":"Status update unavailable","date":"2017-06"},"persistent_id":"55227f1842d733e5958d9f9b143e885893218d76dad92f240c4272d90183c564","id":54770885,"location_subtype":"","month":"2017-02"},{"category":"vehicle-crime","location_type":"Force","location":{"latitude":"51.535805","street":{"id":965795,"name":"On or near Waxlow Road"},"longitude":"-0.263944"},"context":"","outcome_status":{"category":"Status update unavailable","date":"2017-06"},"persistent_id":"4f3c202ad1d7d3a40ed9905e1b0260dea731a0a7fe63fb7677709a254ec313eb","id":54739646,"location_subtype":"","month":"2017-02"},{"category":"vehicle-crime","location_type":"Force","location":{"latitude":"51.553276","street":{"id":967250,"name":"On or near Hardie Close"},"longitude":"-0.262630"},"context":"","outcome_status":{"category":"Status update unavailable","date":"2017-06"},"persistent_id":"f0c2ce243306cafa93845f60f9381df273c09d93a96b4d797767a95b14637a93","id":54747116,"location_subtype":"","month":"2017-02"},{"category":"vehicle-crime","location_type":"Force","location":{"latitude":"51.539878","street":{"id":965748,"name":"On or near Harrison Road"},"longitude":"-0.258439"},"context":"","outcome_status":{"category":"Investigation complete; no suspect identified","date":"2017-03"},"persistent_id":"24bd9a0c9522edc713510d7a637aa1cc0ab9e9fb174d277b8147ed34269c40a6","id":54720221,"location_subtype":"","month":"2017-02"},{"category":"vehicle-crime","location_type":"Force","location":{"latitude":"51.553906","street":{"id":967230,"name":"On or near Petrol Station"},"longitude":"-0.255437"},"context":"","outcome_status":{"category":"Investigation complete; no suspect identified","date":"2017-03"},"persistent_id":"90dab7f2918d64406ee139e3ac5323985fdaa14856872d3171cb6febc1ff5b00","id":54708402,"location_subtype":"","month":"2017-02"},{"category":"vehicle-crime","location_type":"Force","location":{"latitude":"51.548794","street":{"id":967268,"name":"On or near Normans Mead"},"longitude":"-0.261820"},"context":"","outcome_status":{"category":"Status update unavailable","date":"2017-06"},"persistent_id":"f1dc2c75a3f6cd104b22a51c1f1a3b9965dfb26594603ab75d540082221512d3","id":54728086,"location_subtype":"","month":"2017-02"},{"category":"vehicle-crime","location_type":"Force","location":{"latitude":"51.547311","street":{"id":967263,"name":"On or near Tillett Close"},"longitude":"-0.267919"},"context":"","outcome_status":{"category":"Investigation complete; no suspect identified","date":"2017-03"},"persistent_id":"36f1d7428db4eaf62b373a4fe16694dd13028bae186855c332723fb8510e6bca","id":54717739,"location_subtype":"","month":"2017-02"},{"category":"vehicle-crime","location_type":"Force","location":{"latitude":"51.554343","street":{"id":967246,"name":"On or near Parking Area"},"longitude":"-0.262474"},"context":"","outcome_status":{"category":"Investigation complete; no suspect identified","date":"2017-11"},"persistent_id":"6a4878c25dbd5bd44778f3c1ae7f6a17e3fa601a271cf1523b579c1030d8e147","id":54734978,"location_subtype":"","month":"2017-02"},{"category":"violent-crime","location_type":"BTP","location":{"latitude":"51.536669","street":{"id":1490066,"name":"Harlesden (station)"},"longitude":"-0.258547"},"context":"","outcome_status":{"category":"Status update unavailable","date":"2017-06"},"persistent_id":"","id":66288141,"location_subtype":"OTHER","month":"2017-02"},{"category":"violent-crime","location_type":"Force","location":{"latitude":"51.549909","street":{"id":967235,"name":"On or near Rainborough Close"},"longitude":"-0.267287"},"context":"","outcome_status":{"category":"Investigation complete; no suspect identified","date":"2018-03"},"persistent_id":"452ebdbfcc4b7cc7d72ce9c68f6b9ece4e539fc5f2208baf0f7b02f55003da1e","id":54700650,"location_subtype":"","month":"2017-02"},{"category":"violent-crime","location_type":"Force","location":{"latitude":"51.544566","street":{"id":965751,"name":"On or near Gloucester Close"},"longitude":"-0.261087"},"context":"","outcome_status":{"category":"Investigation complete; no suspect identified","date":"2017-05"},"persistent_id":"912cf73bcd221d3f877760f8826d474824999bf3e34e7f03921e6373f76dad61","id":54770551,"location_subtype":"","month":"2017-02"},{"category":"violent-crime","location_type":"Force","location":{"latitude":"51.539219","street":{"id":965739,"name":"On or near Lawrence Avenue"},"longitude":"-0.260065"},"context":"","outcome_status":{"category":"Investigation complete; no suspect identified","date":"2017-05"},"persistent_id":"b23f59705175faa6bb259ca914c38b464eb3c23ac42c959af5b1856c99f8d7db","id":54759903,"location_subtype":"","month":"2017-02"},{"category":"violent-crime","location_type":"Force","location":{"latitude":"51.544517","street":{"id":965725,"name":"On or near Stonebridge Park"},"longitude":"-0.260771"},"context":"","outcome_status":{"category":"Investigation complete; no suspect identified","date":"2017-04"},"persistent_id":"2ddd4dee47a40554a5889f4871483f4c00dd15ab50c5e4436dcced3abc79d6b5","id":54744729,"location_subtype":"","month":"2017-02"},{"category":"violent-crime","location_type":"Force","location":{"latitude":"51.545089","street":{"id":965709,"name":"On or near Barry Road"},"longitude":"-0.264196"},"context":"","outcome_status":{"category":"Investigation complete; no suspect identified","date":"2017-02"},"persistent_id":"17daea664cfcdf26b547f8075498f0755656dcc34c70793e43107a2c6383f16e","id":54770530,"location_subtype":"","month":"2017-02"},{"category":"violent-crime","location_type":"Force","location":{"latitude":"51.533059","street":{"id":959757,"name":"On or near Central Way"},"longitude":"-0.267970"},"context":"","outcome_status":{"category":"Status update unavailable","date":"2017-06"},"persistent_id":"94516a4b616c568f0a410ec0c8a293031af0a49a7991769284c4b72ec389f065","id":54752646,"location_subtype":"","month":"2017-02"},{"category":"violent-crime","location_type":"Force","location":{"latitude":"51.533059","street":{"id":959757,"name":"On or near Central Way"},"longitude":"-0.267970"},"context":"","outcome_status":{"category":"Investigation complete; no suspect identified","date":"2017-02"},"persistent_id":"a26f7cc91063b1dbe74c4278e820999689cd326b4d5b218b275b8177935845c9","id":54751883,"location_subtype":"","month":"2017-02"},{"category":"violent-crime","location_type":"Force","location":{"latitude":"51.541970","street":{"id":965707,"name":"On or near Brett Crescent"},"longitude":"-0.261878"},"context":"","outcome_status":{"category":"Status update unavailable","date":"2017-06"},"persistent_id":"6d278d30a938c86120ed326bbad943121c35c6c5b7b18ef922adb2292cf805d2","id":54752202,"location_subtype":"","month":"2017-02"},{"category":"violent-crime","location_type":"Force","location":{"latitude":"51.533059","street":{"id":959757,"name":"On or near Central Way"},"longitude":"-0.267970"},"context":"","outcome_status":{"category":"Status update unavailable","date":"2017-06"},"persistent_id":"9f1ffb4a23fe90535c917921fabac15519edbe7f0285a6bdf169bcdad96b4b75","id":54748864,"location_subtype":"","month":"2017-02"},{"category":"violent-crime","location_type":"Force","location":{"latitude":"51.547786","street":{"id":967279,"name":"On or near Energen Close"},"longitude":"-0.255036"},"context":"","outcome_status":{"category":"Investigation complete; no suspect identified","date":"2017-02"},"persistent_id":"3b57b53f1f20a65f9116864b5774c0145a1816935565f61af7790e7f3a6f458a","id":54748854,"location_subtype":"","month":"2017-02"},{"category":"violent-crime","location_type":"Force","location":{"latitude":"51.543504","street":{"id":965704,"name":"On or near Diamond Street"},"longitude":"-0.263435"},"context":"","outcome_status":{"category":"Investigation complete; no suspect identified","date":"2017-05"},"persistent_id":"e366825a4118aa40aed3c5bf5834c0d0e11ac4e099e0d7477120eba1b923387a","id":54749186,"location_subtype":"","month":"2017-02"},{"category":"violent-crime","location_type":"Force","location":{"latitude":"51.554343","street":{"id":967246,"name":"On or near Parking Area"},"longitude":"-0.262474"},"context":"","outcome_status":{"category":"Status update unavailable","date":"2017-06"},"persistent_id":"3adc7380b395bf87d9e1a9e26e1eb0c5fd5c343ccb43842f77b11c6506322a04","id":54746528,"location_subtype":"","month":"2017-02"},{"category":"violent-crime","location_type":"Force","location":{"latitude":"51.533059","street":{"id":959757,"name":"On or near Central Way"},"longitude":"-0.267970"},"context":"","outcome_status":{"category":"Status update unavailable","date":"2017-06"},"persistent_id":"cfdb831a811b45f5541ba43fef07e454b1b13f59ed58f050bebfb482f8d865d3","id":54746452,"location_subtype":"","month":"2017-02"},{"category":"violent-crime","location_type":"Force","location":{"latitude":"51.551814","street":{"id":967212,"name":"On or near Herne Close"},"longitude":"-0.259296"},"context":"","outcome_status":{"category":"Investigation complete; no suspect identified","date":"2017-05"},"persistent_id":"53f1a67fe2b964d56e415cba331377c1eda865d86e79560fa5497809b7f19a12","id":54745071,"location_subtype":"","month":"2017-02"},{"category":"violent-crime","location_type":"Force","location":{"latitude":"51.544262","street":{"id":965703,"name":"On or near Durand Way"},"longitude":"-0.270314"},"context":"","outcome_status":{"category":"Investigation complete; no suspect identified","date":"2017-03"},"persistent_id":"921ad2a17b7048dc5eb9032c079d1699924c054243b464dbc9ba3368aac80815","id":54741149,"location_subtype":"","month":"2017-02"},{"category":"violent-crime","location_type":"Force","location":{"latitude":"51.545418","street":{"id":965706,"name":"On or near Conduit Way"},"longitude":"-0.268236"},"context":"","outcome_status":{"category":"Investigation complete; no suspect identified","date":"2017-04"},"persistent_id":"b7cf79affffa89f524a84f444aa1aec80c00d7ac39423fa37b78fc1944bb2908","id":54735587,"location_subtype":"","month":"2017-02"},{"category":"violent-crime","location_type":"Force","location":{"latitude":"51.536144","street":{"id":965789,"name":"On or near Acton Lane"},"longitude":"-0.257111"},"context":"","outcome_status":{"category":"Investigation complete; no suspect identified","date":"2017-05"},"persistent_id":"10f73d5039c36903bd806879538ff3266b30ade1855850e202b5bced54ba5e83","id":54766226,"location_subtype":"","month":"2017-02"},{"category":"violent-crime","location_type":"Force","location":{"latitude":"51.533465","street":{"id":959684,"name":"On or near Twyford Abbey Road"},"longitude":"-0.284002"},"context":"","outcome_status":{"category":"Status update unavailable","date":"2017-06"},"persistent_id":"009afa7143993674eea3226dac5097e6e3f46d551a8b12e47cbfa059f25ef998","id":54757073,"location_subtype":"","month":"2017-02"},{"category":"violent-crime","location_type":"Force","location":{"latitude":"51.541970","street":{"id":965707,"name":"On or near Brett Crescent"},"longitude":"-0.261878"},"context":"","outcome_status":{"category":"Status update unavailable","date":"2017-06"},"persistent_id":"6d278d30a938c86120ed326bbad943121c35c6c5b7b18ef922adb2292cf805d2","id":54755034,"location_subtype":"","month":"2017-02"},{"category":"violent-crime","location_type":"Force","location":{"latitude":"51.541970","street":{"id":965707,"name":"On or near Brett Crescent"},"longitude":"-0.261878"},"context":"","outcome_status":{"category":"Status update unavailable","date":"2017-06"},"persistent_id":"6d278d30a938c86120ed326bbad943121c35c6c5b7b18ef922adb2292cf805d2","id":54754401,"location_subtype":"","month":"2017-02"},{"category":"violent-crime","location_type":"Force","location":{"latitude":"51.533059","street":{"id":959757,"name":"On or near Central Way"},"longitude":"-0.267970"},"context":"","outcome_status":{"category":"Status update unavailable","date":"2017-06"},"persistent_id":"9dfe3d85c22a3fb5a30caed7e8478f78010cc29ae59abb255849a340d68693dd","id":54717943,"location_subtype":"","month":"2017-02"},{"category":"violent-crime","location_type":"Force","location":{"latitude":"51.543600","street":{"id":965683,"name":"On or near Sunny Crescent"},"longitude":"-0.269329"},"context":"","outcome_status":{"category":"Investigation complete; no suspect identified","date":"2017-04"},"persistent_id":"a14419dcf6285f86aabc31f32ab1d49c98242bc9084cfbe288364c93dfc67677","id":54762694,"location_subtype":"","month":"2017-02"},{"category":"violent-crime","location_type":"Force","location":{"latitude":"51.551122","street":{"id":967204,"name":"On or near Woodheyes Road"},"longitude":"-0.256235"},"context":"","outcome_status":{"category":"Investigation complete; no suspect identified","date":"2017-05"},"persistent_id":"f57036909fa2bbe111b130890d77f3a556dce3686fdb6695938322e2b0c7aceb","id":54761812,"location_subtype":"","month":"2017-02"},{"category":"violent-crime","location_type":"Force","location":{"latitude":"51.533059","street":{"id":959757,"name":"On or near Central Way"},"longitude":"-0.267970"},"context":"","outcome_status":{"category":"Status update unavailable","date":"2017-06"},"persistent_id":"748920ef0429e95a3c92e3da6479ef7e3e8621ac415ddba6ffd604ed19122d52","id":54734459,"location_subtype":"","month":"2017-02"},{"category":"violent-crime","location_type":"Force","location":{"latitude":"51.544842","street":{"id":965697,"name":"On or near Harrow Road"},"longitude":"-0.272440"},"context":"","outcome_status":{"category":"Investigation complete; no suspect identified","date":"2017-04"},"persistent_id":"2f7c5cab19af4c0c6fa2ff7db10efb42e8d9fbf36c508efba895168f3d88fb5e","id":54734176,"location_subtype":"","month":"2017-02"},{"category":"violent-crime","location_type":"Force","location":{"latitude":"51.551585","street":{"id":967239,"name":"On or near Lewis Crescent"},"longitude":"-0.263213"},"context":"","outcome_status":{"category":"Investigation complete; no suspect identified","date":"2017-03"},"persistent_id":"d8578447af947ff9a1003936ea56151673b774ebbfcb3f451951dc2d1379ff47","id":54729444,"location_subtype":"","month":"2017-02"},{"category":"violent-crime","location_type":"Force","location":{"latitude":"51.551061","street":{"id":967209,"name":"On or near Lynton Close"},"longitude":"-0.252805"},"context":"","outcome_status":{"category":"Investigation complete; no suspect identified","date":"2017-03"},"persistent_id":"77263d4129b4f58c6237327a6f5ac1c8032fe859658d0ed00373e3c1e6cbbefd","id":54726481,"location_subtype":"","month":"2017-02"},{"category":"violent-crime","location_type":"Force","location":{"latitude":"51.554343","street":{"id":967246,"name":"On or near Parking Area"},"longitude":"-0.262474"},"context":"","outcome_status":{"category":"Investigation complete; no suspect identified","date":"2017-03"},"persistent_id":"9c51eb50dce067d1d4c6fa8fa426614dc963d9c6180fa807303be551c96d9352","id":54726223,"location_subtype":"","month":"2017-02"},{"category":"violent-crime","location_type":"Force","location":{"latitude":"51.548333","street":{"id":967266,"name":"On or near Overton Close"},"longitude":"-0.268342"},"context":"","outcome_status":{"category":"Status update unavailable","date":"2017-06"},"persistent_id":"25de614c2062325602c50d3bd1acd30a3ce45d3bfa3a88ce8b4de00dc5f6b896","id":54724175,"location_subtype":"","month":"2017-02"},{"category":"violent-crime","location_type":"Force","location":{"latitude":"51.554343","street":{"id":967246,"name":"On or near Parking Area"},"longitude":"-0.262474"},"context":"","outcome_status":{"category":"Investigation complete; no suspect identified","date":"2017-03"},"persistent_id":"bcaef95533bece67c5e2f682a520af50c088a78c53f56d2291ac983b8ac12c18","id":54723385,"location_subtype":"","month":"2017-02"},{"category":"violent-crime","location_type":"Force","location":{"latitude":"51.541351","street":{"id":965763,"name":"On or near Craven Park"},"longitude":"-0.257719"},"context":"","outcome_status":{"category":"Investigation complete; no suspect identified","date":"2017-03"},"persistent_id":"dd3e319357d82cb801079a52e10ccc60ba9936ed12aeb6f23f2c2d8916344f4c","id":54721534,"location_subtype":"","month":"2017-02"},{"category":"violent-crime","location_type":"Force","location":{"latitude":"51.547113","street":{"id":967282,"name":"On or near Beckett Close"},"longitude":"-0.256360"},"context":"","outcome_status":{"category":"Investigation complete; no suspect identified","date":"2017-03"},"persistent_id":"5a3d6915ee183771d6b480b4adfe28a6f2c59355974d526828fec0fdf59c3b3d","id":54720834,"location_subtype":"","month":"2017-02"},{"category":"violent-crime","location_type":"Force","location":{"latitude":"51.534385","street":{"id":965791,"name":"On or near Steele Road"},"longitude":"-0.264632"},"context":"","outcome_status":{"category":"Status update unavailable","date":"2017-06"},"persistent_id":"401b1d0636b81984b1ab45c034c30473df803793b6c851ba781bfdd35dd028f6","id":54720249,"location_subtype":"","month":"2017-02"},{"category":"violent-crime","location_type":"Force","location":{"latitude":"51.544370","street":{"id":965778,"name":"On or near Artesian Close"},"longitude":"-0.258743"},"context":"","outcome_status":{"category":"Investigation complete; no suspect identified","date":"2017-07"},"persistent_id":"0c32b9dbbd80ab447171d7162346e5fca24150829da6ca645b65d6659d1ddb6f","id":54719166,"location_subtype":"","month":"2017-02"},{"category":"violent-crime","location_type":"Force","location":{"latitude":"51.548971","street":{"id":967265,"name":"On or near Pitfield Way"},"longitude":"-0.266472"},"context":"","outcome_status":{"category":"Court result unavailable","date":"2017-08"},"persistent_id":"edf159b0b0ed7430c55d12fa81d1ed8b4a96f05bae200c44cd0668fb8b559068","id":54719110,"location_subtype":"","month":"2017-02"},{"category":"violent-crime","location_type":"Force","location":{"latitude":"51.545219","street":{"id":965738,"name":"On or near Leicester Road"},"longitude":"-0.258437"},"context":"","outcome_status":{"category":"Local resolution","date":"2017-03"},"persistent_id":"6f0ac49b6d0a0ab4102f8dc1ebdc8c6d67168b5330656de82d590b2d277747dd","id":54718895,"location_subtype":"","month":"2017-02"},{"category":"violent-crime","location_type":"Force","location":{"latitude":"51.537729","street":{"id":965755,"name":"On or near Farm Road"},"longitude":"-0.257886"},"context":"","outcome_status":{"category":"Status update unavailable","date":"2017-06"},"persistent_id":"0113defbce119ac8613713e692b5f1eb8d6967becd7151949c402d607ecc2db0","id":54710868,"location_subtype":"","month":"2017-02"},{"category":"violent-crime","location_type":"Force","location":{"latitude":"51.544566","street":{"id":965751,"name":"On or near Gloucester Close"},"longitude":"-0.261087"},"context":"","outcome_status":{"category":"Investigation complete; no suspect identified","date":"2017-04"},"persistent_id":"e3123efcd239cbe78acb140889f4d483b8ededa70a477351862a076aab3315ea","id":54707516,"location_subtype":"","month":"2017-02"},{"category":"violent-crime","location_type":"Force","location":{"latitude":"51.551640","street":{"id":967240,"name":"On or near Lansbury Close"},"longitude":"-0.265764"},"context":"","outcome_status":{"category":"Investigation complete; no suspect identified","date":"2017-03"},"persistent_id":"27be618ddcbc62823f294604d69935672cd6399303382c464d7482b6a59114c6","id":54705275,"location_subtype":"","month":"2017-02"},{"category":"violent-crime","location_type":"Force","location":{"latitude":"51.551640","street":{"id":967240,"name":"On or near Lansbury Close"},"longitude":"-0.265764"},"context":"","outcome_status":{"category":"Investigation complete; no suspect identified","date":"2017-05"},"persistent_id":"224eba6674071deb6432264030d5754f4f0310c03cd15348e80ffeadb3a6aa63","id":54704299,"location_subtype":"","month":"2017-02"},{"category":"violent-crime","location_type":"Force","location":{"latitude":"51.549012","street":{"id":967273,"name":"On or near Brentfield Close"},"longitude":"-0.261956"},"context":"","outcome_status":{"category":"Status update unavailable","date":"2017-06"},"persistent_id":"20235b359493e3b1712d1260e444657f1a3ab1c6af3c89b0ab1ae60d3cc5d5a6","id":54703983,"location_subtype":"","month":"2017-02"},{"category":"violent-crime","location_type":"Force","location":{"latitude":"51.548226","street":{"id":967283,"name":"On or near Sports\/recreation Area"},"longitude":"-0.255639"},"context":"","outcome_status":{"category":"Status update unavailable","date":"2017-06"},"persistent_id":"4e861418d8c4c59cc2a73fdff2b5e7bf546e451dcbc61d91ae5cb868a94f95de","id":54702490,"location_subtype":"","month":"2017-02"},{"category":"violent-crime","location_type":"Force","location":{"latitude":"51.533059","street":{"id":959757,"name":"On or near Central Way"},"longitude":"-0.267970"},"context":"","outcome_status":{"category":"Status update unavailable","date":"2017-06"},"persistent_id":"cf0f28c1c127eb707e0847cd8a0609f23b0ce413aea3e90f057c3de57bb70e6e","id":54701230,"location_subtype":"","month":"2017-02"},{"category":"violent-crime","location_type":"Force","location":{"latitude":"51.533059","street":{"id":959757,"name":"On or near Central Way"},"longitude":"-0.267970"},"context":"","outcome_status":{"category":"Status update unavailable","date":"2017-06"},"persistent_id":"223e9e83e4fd20bd8a951f3cff9c6558886e7b646f8aa9054373a667c5e84b04","id":54699626,"location_subtype":"","month":"2017-02"},{"category":"violent-crime","location_type":"Force","location":{"latitude":"51.551814","street":{"id":967212,"name":"On or near Herne Close"},"longitude":"-0.259296"},"context":"","outcome_status":{"category":"Investigation complete; no suspect identified","date":"2017-03"},"persistent_id":"b52fcb666dd2cd2c7451bd34ac4c09698998e3aae489e4f7b0d3071b8d560cdf","id":54699298,"location_subtype":"","month":"2017-02"},{"category":"violent-crime","location_type":"Force","location":{"latitude":"51.544343","street":{"id":965677,"name":"On or near Wyborne Way"},"longitude":"-0.268493"},"context":"","outcome_status":{"category":"Investigation complete; no suspect identified","date":"2017-03"},"persistent_id":"83fa0b9ad0097ceb2ac971185f93b24c70925a7b5bc4dd09b9688f803a20f18a","id":54698327,"location_subtype":"","month":"2017-02"},{"category":"violent-crime","location_type":"Force","location":{"latitude":"51.553906","street":{"id":967230,"name":"On or near Petrol Station"},"longitude":"-0.255437"},"context":"","outcome_status":{"category":"Status update unavailable","date":"2017-06"},"persistent_id":"6ff7384cebca294a9d0b0a8ada5e947c98b142dd8a76830e144473df28ef28f9","id":54698073,"location_subtype":"","month":"2017-02"},{"category":"violent-crime","location_type":"Force","location":{"latitude":"51.533059","street":{"id":959757,"name":"On or near Central Way"},"longitude":"-0.267970"},"context":"","outcome_status":{"category":"Status update unavailable","date":"2017-06"},"persistent_id":"5643436a515c53cc0f186fc55b0bd8b8f13407f5cc6c44f521731562688c9877","id":54696947,"location_subtype":"","month":"2017-02"},{"category":"violent-crime","location_type":"Force","location":{"latitude":"51.533059","street":{"id":959757,"name":"On or near Central Way"},"longitude":"-0.267970"},"context":"","outcome_status":{"category":"Investigation complete; no suspect identified","date":"2017-02"},"persistent_id":"653cec20b68099c15acf3cc8a3608b8bab5257690b6645e220077f7bad409220","id":54751445,"location_subtype":"","month":"2017-02"},{"category":"violent-crime","location_type":"Force","location":{"latitude":"51.533465","street":{"id":959684,"name":"On or near Twyford Abbey Road"},"longitude":"-0.284002"},"context":"","outcome_status":{"category":"Investigation complete; no suspect identified","date":"2017-02"},"persistent_id":"009afa7143993674eea3226dac5097e6e3f46d551a8b12e47cbfa059f25ef998","id":54757074,"location_subtype":"","month":"2017-02"},{"category":"violent-crime","location_type":"Force","location":{"latitude":"51.547493","street":{"id":967267,"name":"On or near North Circular Road"},"longitude":"-0.265013"},"context":"","outcome_status":{"category":"Offender given a caution","date":"2017-02"},"persistent_id":"c04b71de96422ddbffca79f65024264dcd644acbda76cc200405b83f8e20b233","id":54712886,"location_subtype":"","month":"2017-02"},{"category":"violent-crime","location_type":"Force","location":{"latitude":"51.543464","street":{"id":965702,"name":"On or near Exton Road"},"longitude":"-0.264994"},"context":"","outcome_status":{"category":"Investigation complete; no suspect identified","date":"2017-02"},"persistent_id":"ad3b0971a28b6d783a7e06230cf40b011e690d78e104f1103d8da436394d478c","id":54755945,"location_subtype":"","month":"2017-02"},{"category":"violent-crime","location_type":"Force","location":{"latitude":"51.550252","street":{"id":967241,"name":"On or near Henderson Close"},"longitude":"-0.266106"},"context":"","outcome_status":{"category":"Investigation complete; no suspect identified","date":"2017-03"},"persistent_id":"250a1711556c1eabd62d6a2af386af77c3a79cf19a97f14878d91bd005d1ad13","id":54707511,"location_subtype":"","month":"2017-02"},{"category":"violent-crime","location_type":"Force","location":{"latitude":"51.543804","street":{"id":965691,"name":"On or near Melville Road"},"longitude":"-0.261808"},"context":"","outcome_status":{"category":"Investigation complete; no suspect identified","date":"2017-03"},"persistent_id":"9ccae3d4609a95061053872cd14d9a8fac5097b7d46b29d6bac9628d2b7904ea","id":54724193,"location_subtype":"","month":"2017-02"},{"category":"violent-crime","location_type":"Force","location":{"latitude":"51.543804","street":{"id":965691,"name":"On or near Melville Road"},"longitude":"-0.261808"},"context":"","outcome_status":{"category":"Investigation complete; no suspect identified","date":"2017-03"},"persistent_id":"d3dddc4fd6b055337beff2868e0a76a619c3a4972502ff2272881152e7f07ac2","id":54700716,"location_subtype":"","month":"2017-02"},{"category":"violent-crime","location_type":"Force","location":{"latitude":"51.533059","street":{"id":959757,"name":"On or near Central Way"},"longitude":"-0.267970"},"context":"","outcome_status":{"category":"Investigation complete; no suspect identified","date":"2017-03"},"persistent_id":"cf0f28c1c127eb707e0847cd8a0609f23b0ce413aea3e90f057c3de57bb70e6e","id":54701231,"location_subtype":"","month":"2017-02"},{"category":"violent-crime","location_type":"Force","location":{"latitude":"51.547493","street":{"id":967267,"name":"On or near North Circular Road"},"longitude":"-0.265013"},"context":"","outcome_status":{"category":"Investigation complete; no suspect identified","date":"2017-06"},"persistent_id":"d28f9599a4ba0baf92f1deb17a0ad0fbd1682eb7b439cc60c596eb86dfc121e9","id":54770207,"location_subtype":"","month":"2017-02"},{"category":"violent-crime","location_type":"Force","location":{"latitude":"51.550252","street":{"id":967241,"name":"On or near Henderson Close"},"longitude":"-0.266106"},"context":"","outcome_status":{"category":"Offender given a caution","date":"2017-06"},"persistent_id":"37ac576b98fba658c4c996803e7d9f8f908447f03bdddf2442671cfdabe9416f","id":54710576,"location_subtype":"","month":"2017-02"},{"category":"violent-crime","location_type":"Force","location":{"latitude":"51.552097","street":{"id":967234,"name":"On or near St Raphael's Way"},"longitude":"-0.262559"},"context":"","outcome_status":{"category":"Investigation complete; no suspect identified","date":"2017-06"},"persistent_id":"a0f0415e9861c5077b412fc13d3843690b2b49cafedb3d165a7888a578d1ee29","id":54770550,"location_subtype":"","month":"2017-02"},{"category":"violent-crime","location_type":"Force","location":{"latitude":"51.537729","street":{"id":965755,"name":"On or near Farm Road"},"longitude":"-0.257886"},"context":"","outcome_status":{"category":"Defendant found not guilty","date":"2017-06"},"persistent_id":"fe4391250b2dfd7ed5357913c8651463d640c85a31e8f86afcfd1e61eb1f3b0c","id":54720036,"location_subtype":"","month":"2017-02"},{"category":"violent-crime","location_type":"Force","location":{"latitude":"51.548333","street":{"id":967266,"name":"On or near Overton Close"},"longitude":"-0.268342"},"context":"","outcome_status":{"category":"Court case unable to proceed","date":"2017-03"},"persistent_id":"25de614c2062325602c50d3bd1acd30a3ce45d3bfa3a88ce8b4de00dc5f6b896","id":54724177,"location_subtype":"","month":"2017-02"},{"category":"violent-crime","location_type":"Force","location":{"latitude":"51.541970","street":{"id":965707,"name":"On or near Brett Crescent"},"longitude":"-0.261878"},"context":"","outcome_status":{"category":"Offender given suspended prison sentence","date":"2017-10"},"persistent_id":"6d278d30a938c86120ed326bbad943121c35c6c5b7b18ef922adb2292cf805d2","id":54755036,"location_subtype":"","month":"2017-02"},{"category":"violent-crime","location_type":"Force","location":{"latitude":"51.549012","street":{"id":967273,"name":"On or near Brentfield Close"},"longitude":"-0.261956"},"context":"","outcome_status":{"category":"Defendant found not guilty","date":"2017-04"},"persistent_id":"20235b359493e3b1712d1260e444657f1a3ab1c6af3c89b0ab1ae60d3cc5d5a6","id":54703984,"location_subtype":"","month":"2017-02"},{"category":"violent-crime","location_type":"Force","location":{"latitude":"51.544406","street":{"id":965732,"name":"On or near Selwyn Road"},"longitude":"-0.256362"},"context":"","outcome_status":{"category":"Defendant found not guilty","date":"2017-07"},"persistent_id":"d4c205788f3865afc165def0283f8fa1236976d69cf281363f913b0c32aa65a1","id":54765862,"location_subtype":"","month":"2017-02"},{"category":"violent-crime","location_type":"Force","location":{"latitude":"51.532986","street":{"id":959667,"name":"On or near Abbeyfields Close"},"longitude":"-0.282564"},"context":"","outcome_status":{"category":"Investigation complete; no suspect identified","date":"2018-06"},"persistent_id":"6a57c54e861a07d8cf4099b4af6081d92bc807814b226f3f592711f960d6bd97","id":54747333,"location_subtype":"","month":"2017-02"},{"category":"other-crime","location_type":"Force","location":{"latitude":"51.552097","street":{"id":967234,"name":"On or near St Raphael's Way"},"longitude":"-0.262559"},"context":"","outcome_status":{"category":"Investigation complete; no suspect identified","date":"2017-10"},"persistent_id":"15b3edc47e0308019d6f66c8f9807a8760d2ef191b85acfb7c5a14f2233d5c6d","id":54770267,"location_subtype":"","month":"2017-02"}]