[{"category":"anti-social-behaviour","location_type":"Force","location":{"latitude":"52.980131","street":{"id":896518,"name":"On or near Rochford Crescent"},"longitude":"-0.012767"},"context":"","outcome_status":null,"persistent_id":"","id":65982716,"location_subtype":"","month":"2018-06"},{"category":"anti-social-behaviour","location_type":"Force","location":{"latitude":"52.974675","street":{"id":896548,"name":"On or near Goodson Close"},"longitude":"-0.010694"},"context":"","outcome_status":null,"persistent_id":"","id":65982840,"location_subtype":"","month":"2018-06"},{"category":"anti-social-behaviour","location_type":"Force","location":{"latitude":"52.974178","street":{"id":896551,"name":"On or near Church Road"},"longitude":"-0.012668"},"context":"","outcome_status":null,"persistent_id":"","id":65982715,"location_subtype":"","month":"2018-06"},{"category":"anti-social-behaviour","location_type":"Force","location":{"latitude":"52.969731","street":{"id":895915,"name":"On or near Skirbeck Gardens"},"longitude":"-0.010742"},"context":"","outcome_status":null,"persistent_id":"","id":65983743,"location_subtype":"","month":"2018-06"},{"category":"anti-social-behaviour","location_type":"Force","location":{"latitude":"52.971674","street":{"id":896550,"name":"On or near Daisy Dale"},"longitude":"-0.015091"},"context":"","outcome_status":null,"persistent_id":"","id":65983386,"location_subtype":"","month":"2018-06"},{"category":"anti-social-behaviour","location_type":"Force","location":{"latitude":"52.975545","street":{"id":896579,"name":"On or near Brewster Road"},"longitude":"-0.009492"},"context":"","outcome_status":null,"persistent_id":"","id":65983934,"location_subtype":"","month":"2018-06"},{"category":"anti-social-behaviour","location_type":"Force","location":{"latitude":"52.969721","street":{"id":895916,"name":"On or near Rectory Road"},"longitude":"-0.011770"},"context":"","outcome_status":null,"persistent_id":"","id":65983271,"location_subtype":"","month":"2018-06"},{"category":"anti-social-behaviour","location_type":"Force","location":{"latitude":"52.975921","street":{"id":896577,"name":"On or near Dudley Close"},"longitude":"-0.006675"},"context":"","outcome_status":null,"persistent_id":"","id":65983622,"location_subtype":"","month":"2018-06"},{"category":"anti-social-behaviour","location_type":"Force","location":{"latitude":"52.970489","street":{"id":895913,"name":"On or near The Courtyard"},"longitude":"-0.012495"},"context":"","outcome_status":null,"persistent_id":"","id":65983621,"location_subtype":"","month":"2018-06"},{"category":"anti-social-behaviour","location_type":"Force","location":{"latitude":"52.971674","street":{"id":896550,"name":"On or near Daisy Dale"},"longitude":"-0.015091"},"context":"","outcome_status":null,"persistent_id":"","id":65983620,"location_subtype":"","month":"2018-06"},{"category":"anti-social-behaviour","location_type":"Force","location":{"latitude":"52.973074","street":{"id":896465,"name":"On or near Tower Gardens"},"longitude":"-0.020314"},"context":"","outcome_status":null,"persistent_id":"","id":65983617,"location_subtype":"","month":"2018-06"},{"category":"anti-social-behaviour","location_type":"Force","location":{"latitude":"52.972867","street":{"id":896573,"name":"On or near Kitwood Close"},"longitude":"-0.009571"},"context":"","outcome_status":null,"persistent_id":"","id":65982943,"location_subtype":"","month":"2018-06"},{"category":"anti-social-behaviour","location_type":"Force","location":{"latitude":"52.977605","street":{"id":896549,"name":"On or near Freiston Road"},"longitude":"-0.010589"},"context":"","outcome_status":null,"persistent_id":"","id":65982893,"location_subtype":"","month":"2018-06"},{"category":"anti-social-behaviour","location_type":"Force","location":{"latitude":"52.979236","street":{"id":896504,"name":"On or near Elizabeth Road"},"longitude":"-0.009233"},"context":"","outcome_status":null,"persistent_id":"","id":65982607,"location_subtype":"","month":"2018-06"},{"category":"anti-social-behaviour","location_type":"Force","location":{"latitude":"52.977605","street":{"id":896549,"name":"On or near Freiston Road"},"longitude":"-0.010589"},"context":"","outcome_status":null,"persistent_id":"","id":65983229,"location_subtype":"","month":"2018-06"},{"category":"anti-social-behaviour","location_type":"Force","location":{"latitude":"52.977605","street":{"id":896549,"name":"On or near Freiston Road"},"longitude":"-0.010589"},"context":"","outcome_status":null,"persistent_id":"","id":65982429,"location_subtype":"","month":"2018-06"},{"category":"anti-social-behaviour","location_type":"Force","location":{"latitude":"52.971713","street":{"id":896545,"name":"On or near Muster Roll Lane"},"longitude":"-0.015819"},"context":"","outcome_status":null,"persistent_id":"","id":65982270,"location_subtype":"","month":"2018-06"},{"category":"anti-social-behaviour","location_type":"Force","location":{"latitude":"52.970697","street":{"id":896562,"name":"On or near St Nicholas Road"},"longitude":"-0.009328"},"context":"","outcome_status":null,"persistent_id":"","id":65982784,"location_subtype":"","month":"2018-06"},{"category":"anti-social-behaviour","location_type":"Force","location":{"latitude":"52.979236","street":{"id":896504,"name":"On or near Elizabeth Road"},"longitude":"-0.009233"},"context":"","outcome_status":null,"persistent_id":"","id":65982719,"location_subtype":"","month":"2018-06"},{"category":"bicycle-theft","location_type":"Force","location":{"latitude":"52.973232","street":{"id":896538,"name":"On or near Wheeler Close"},"longitude":"-0.013113"},"context":"","outcome_status":{"category":"Under investigation","date":"2018-06"},"persistent_id":"60c213df15061c1429edaa78b20b9334808937024d9d0e8e5af0bbff45161378","id":65981516,"location_subtype":"","month":"2018-06"},{"category":"bicycle-theft","location_type":"Force","location":{"latitude":"52.969731","street":{"id":895915,"name":"On or near Skirbeck Gardens"},"longitude":"-0.010742"},"context":"","outcome_status":{"category":"Under investigation","date":"2018-06"},"persistent_id":"1beb01b455f3e61c23f822c1a77229a4361c70447af771c6f4108f585d834a61","id":65980501,"location_subtype":"","month":"2018-06"},{"category":"bicycle-theft","location_type":"Force","location":{"latitude":"52.978253","street":{"id":896515,"name":"On or near Vauxhall Road"},"longitude":"-0.014417"},"context":"","outcome_status":{"category":"Under investigation","date":"2018-06"},"persistent_id":"95d08ca9f17a9918b56d26731e892793a1b3a4f3eb1ed4f180356f757935a68e","id":65980499,"location_subtype":"","month":"2018-06"},{"category":"bicycle-theft","location_type":"Force","location":{"latitude":"52.970960","street":{"id":896566,"name":"On or near Mill Road"},"longitude":"-0.006829"},"context":"","outcome_status":{"category":"Under investigation","date":"2018-06"},"persistent_id":"53a95f0bcbe39bcb06b7526d66572715327bd41773b4897d44098882a1f39af3","id":65979883,"location_subtype":"","month":"2018-06"},{"category":"bicycle-theft","location_type":"Force","location":{"latitude":"52.973232","street":{"id":896538,"name":"On or near Wheeler Close"},"longitude":"-0.013113"},"context":"","outcome_status":{"category":"Awaiting court outcome","date":"2018-06"},"persistent_id":"b57db6fac8f7d2fe0880015c8e1ad17870defb80498929488b1adcff54b4a70e","id":65981517,"location_subtype":"","month":"2018-06"},{"category":"burglary","location_type":"Force","location":{"latitude":"52.969721","street":{"id":895916,"name":"On or near Rectory Road"},"longitude":"-0.011770"},"context":"","outcome_status":{"category":"Investigation complete; no suspect identified","date":"2018-06"},"persistent_id":"edc6eff99913ce0716341be8a53df2ba0ca1d3edae246c6abfa2f6b52c49721b","id":65981728,"location_subtype":"","month":"2018-06"},{"category":"criminal-damage-arson","location_type":"Force","location":{"latitude":"52.970960","street":{"id":896566,"name":"On or near Mill Road"},"longitude":"-0.006829"},"context":"","outcome_status":{"category":"Investigation complete; no suspect identified","date":"2018-06"},"persistent_id":"faa1954e1d61068c2bbea2af6d74517b2ad452e6dde65612ffbf26faa3bfde96","id":65980548,"location_subtype":"","month":"2018-06"},{"category":"criminal-damage-arson","location_type":"Force","location":{"latitude":"52.972971","street":{"id":896584,"name":"On or near Sports\/recreation Area"},"longitude":"-0.003445"},"context":"","outcome_status":{"category":"Under investigation","date":"2018-06"},"persistent_id":"3be462819b537b26b4b7578d131bfe5680ed529c1df3f65e7ad89fd4766580d9","id":65981185,"location_subtype":"","month":"2018-06"},{"category":"criminal-damage-arson","location_type":"Force","location":{"latitude":"52.972867","street":{"id":896573,"name":"On or near Kitwood Close"},"longitude":"-0.009571"},"context":"","outcome_status":{"category":"Investigation complete; no suspect identified","date":"2018-06"},"persistent_id":"8c61b10085f3ffa29a5941ca6f32f13c62bff2bd7458440ecf6f97639268cf70","id":65980865,"location_subtype":"","month":"2018-06"},{"category":"criminal-damage-arson","location_type":"Force","location":{"latitude":"52.977605","street":{"id":896549,"name":"On or near Freiston Road"},"longitude":"-0.010589"},"context":"","outcome_status":{"category":"Under investigation","date":"2018-06"},"persistent_id":"dbe0c8b087e2db3ec54d892f6de28b5e91b2959f12974146cd87815353128171","id":65980826,"location_subtype":"","month":"2018-06"},{"category":"criminal-damage-arson","location_type":"Force","location":{"latitude":"52.974178","street":{"id":896551,"name":"On or near Church Road"},"longitude":"-0.012668"},"context":"","outcome_status":{"category":"Investigation complete; no suspect identified","date":"2018-06"},"persistent_id":"792064643f5c0211186718608be5aa34e2012b74ab9f88d77725e63a75f945fd","id":65981626,"location_subtype":"","month":"2018-06"},{"category":"drugs","location_type":"Force","location":{"latitude":"52.973074","street":{"id":896465,"name":"On or near Tower Gardens"},"longitude":"-0.020314"},"context":"","outcome_status":{"category":"Under investigation","date":"2018-06"},"persistent_id":"52fac5aabcfb942852a9387f348058c6fd7765fc8f8d75ba6a32a4a5e02acc18","id":65979021,"location_subtype":"","month":"2018-06"},{"category":"other-theft","location_type":"Force","location":{"latitude":"52.973648","street":{"id":896472,"name":"On or near South End"},"longitude":"-0.021301"},"context":"","outcome_status":{"category":"Under investigation","date":"2018-06"},"persistent_id":"71b4214f9b16ac39d992608fdb3f9f8d05bb037a895b0e22b57e64afc6edf1b8","id":65979629,"location_subtype":"","month":"2018-06"},{"category":"other-theft","location_type":"Force","location":{"latitude":"52.970489","street":{"id":895913,"name":"On or near The Courtyard"},"longitude":"-0.012495"},"context":"","outcome_status":{"category":"Under investigation","date":"2018-06"},"persistent_id":"0f336ccc8a49f8de51be422d2a241accd4ce2f12047f7ee56c92001bc324ad24","id":65978153,"location_subtype":"","month":"2018-06"},{"category":"possession-of-weapons","location_type":"Force","location":{"latitude":"52.972274","street":{"id":896572,"name":"On or near Kitwood Road"},"longitude":"-0.010119"},"context":"","outcome_status":{"category":"Under investigation","date":"2018-06"},"persistent_id":"e7896749adf300263d7f76e4a043e406fe4bc3c44441e755bc8ddfe2f7142ce7","id":65980690,"location_subtype":"","month":"2018-06"},{"category":"public-order","location_type":"Force","location":{"latitude":"52.971674","street":{"id":896550,"name":"On or near Daisy Dale"},"longitude":"-0.015091"},"context":"","outcome_status":{"category":"Under investigation","date":"2018-06"},"persistent_id":"9d533abc8e4a19f7b92fcab7330c3c1f7b4c9b73cc44de6761417fc053d99a36","id":65978361,"location_subtype":"","month":"2018-06"},{"category":"public-order","location_type":"Force","location":{"latitude":"52.978082","street":{"id":896502,"name":"On or near Hardiway"},"longitude":"-0.005801"},"context":"","outcome_status":{"category":"Under investigation","date":"2018-06"},"persistent_id":"21e2515438c77c0d12e47ea6cbc3f044634682a43e5ee9f3a9fed41c7b900582","id":65980183,"location_subtype":"","month":"2018-06"},{"category":"robbery","location_type":"Force","location":{"latitude":"52.979998","street":{"id":896531,"name":"On or near Belton Close"},"longitude":"-0.010732"},"context":"","outcome_status":{"category":"Under investigation","date":"2018-06"},"persistent_id":"82b05fd33f8e194d7428a09cfc050c0fe09083dc9da1696cadfdf6f6858fbeee","id":65980098,"location_subtype":"","month":"2018-06"},{"category":"shoplifting","location_type":"Force","location":{"latitude":"52.971808","street":{"id":896543,"name":"On or near Rose Place"},"longitude":"-0.016634"},"context":"","outcome_status":{"category":"Investigation complete; no suspect identified","date":"2018-06"},"persistent_id":"7f1c2cda4e27e3455dd5a5f2bd5a13cc626cb6f5b70302bf80a9f618ab22b1bd","id":65978504,"location_subtype":"","month":"2018-06"},{"category":"vehicle-crime","location_type":"Force","location":{"latitude":"52.971808","street":{"id":896543,"name":"On or near Rose Place"},"longitude":"-0.016634"},"context":"","outcome_status":{"category":"Under investigation","date":"2018-06"},"persistent_id":"1743d253753556c81636f1deb09de9beda3a3457268b0d5b19d733d35cc4e7a8","id":65979681,"location_subtype":"","month":"2018-06"},{"category":"vehicle-crime","location_type":"Force","location":{"latitude":"52.974059","street":{"id":896581,"name":"On or near Arbella Road"},"longitude":"-0.005018"},"context":"","outcome_status":{"category":"Investigation complete; no suspect identified","date":"2018-06"},"persistent_id":"1cfbd4045045f998f1dbe521c51eb032c7cf31cb0862ab1e3ed806c3e59791d8","id":65980391,"location_subtype":"","month":"2018-06"},{"category":"violent-crime","location_type":"Force","location":{"latitude":"52.974320","street":{"id":896559,"name":"On or near Wellington Road"},"longitude":"-0.003963"},"context":"","outcome_status":{"category":"Unable to prosecute suspect","date":"2018-06"},"persistent_id":"b73adb790e919e0e22243746ff510e343ead7cdfb023d69bfc0fd78a128ff4cf","id":65979528,"location_subtype":"","month":"2018-06"},{"category":"violent-crime","location_type":"Force","location":{"latitude":"52.972971","street":{"id":896584,"name":"On or near Sports\/recreation Area"},"longitude":"-0.003445"},"context":"","outcome_status":{"category":"Under investigation","date":"2018-06"},"persistent_id":"37630fb43dea445d8f1bfad15109398c51216f26be8180744c8c4b09934a4da4","id":65982130,"location_subtype":"","month":"2018-06"},{"category":"violent-crime","location_type":"Force","location":{"latitude":"52.978253","street":{"id":896515,"name":"On or near Vauxhall Road"},"longitude":"-0.014417"},"context":"","outcome_status":{"category":"Under investigation","date":"2018-06"},"persistent_id":"f18bd9e97d91c0c2d2b9a53837df2ceb4f53205fb74faef3138216b27e17dcbd","id":65982083,"location_subtype":"","month":"2018-06"},{"category":"violent-crime","location_type":"Force","location":{"latitude":"52.973232","street":{"id":896538,"name":"On or near Wheeler Close"},"longitude":"-0.013113"},"context":"","outcome_status":{"category":"Under investigation","date":"2018-06"},"persistent_id":"ca5cf049d6a67327a9001bde3850bdde37d8cedaa63b7e1118e762cf51ffda61","id":65980097,"location_subtype":"","month":"2018-06"},{"category":"violent-crime","location_type":"Force","location":{"latitude":"52.975592","street":{"id":896570,"name":"On or near Leverett Road"},"longitude":"-0.008015"},"context":"","outcome_status":{"category":"Under investigation","date":"2018-06"},"persistent_id":"200815f80f0fef36eea354cac09ed54a70cfdda437613f04a2781609a6d5233c","id":65979923,"location_subtype":"","month":"2018-06"},{"category":"violent-crime","location_type":"Force","location":{"latitude":"52.975571","street":{"id":896578,"name":"On or near Burgess Close"},"longitude":"-0.008359"},"context":"","outcome_status":{"category":"Under investigation","date":"2018-06"},"persistent_id":"9b862987c0be82feacfef8c69372344b3ba086fb6b091e4a6abd317daa6a784a","id":65980030,"location_subtype":"","month":"2018-06"},{"category":"violent-crime","location_type":"Force","location":{"latitude":"52.970489","street":{"id":895913,"name":"On or near The Courtyard"},"longitude":"-0.012495"},"context":"","outcome_status":{"category":"Unable to prosecute suspect","date":"2018-06"},"persistent_id":"3fc80a8e51ba666f368d0c81cee12ff9f472089a4c9f5d7957f1f6389007c58a","id":65978441,"location_subtype":"","month":"2018-06"},{"category":"violent-crime","location_type":"Force","location":{"latitude":"52.972971","street":{"id":896584,"name":"On or near Sports\/recreation Area"},"longitude":"-0.003445"},"context":"","outcome_status":{"category":"Unable to prosecute suspect","date":"2018-06"},"persistent_id":"9187798c0e403978becf0a352ac4f9469a5c41fd0fc1426107e8842a27cc6b9b","id":65979178,"location_subtype":"","month":"2018-06"}]