[{"category":"anti-social-behaviour","location_type":"Force","location":{"latitude":"54.544404","street":{"id":1354480,"name":"On or near Purdysburn Road"},"longitude":"-5.920189"},"context":"","outcome_status":null,"persistent_id":"e1fff97f73a0d3e167810327638c18bc304d16ef13600a1226655e9df1e2a273","id":65826205,"location_subtype":"","month":"2018-06"},{"category":"anti-social-behaviour","location_type":"Force","location":{"latitude":"54.544404","street":{"id":1354480,"name":"On or near Purdysburn Road"},"longitude":"-5.920189"},"context":"","outcome_status":null,"persistent_id":"55e0f75f4b7bff56a3473dd5082623a6d12179579fc806c67b56f5af10659954","id":65824895,"location_subtype":"","month":"2018-06"},{"category":"anti-social-behaviour","location_type":"Force","location":{"latitude":"54.544404","street":{"id":1354480,"name":"On or near Purdysburn Road"},"longitude":"-5.920189"},"context":"","outcome_status":null,"persistent_id":"d48d237cd486d203de1259daa1433d3d10f69ffee2b242adb529b751d2bd01a5","id":65823309,"location_subtype":"","month":"2018-06"},{"category":"anti-social-behaviour","location_type":"Force","location":{"latitude":"54.548863","street":{"id":1355252,"name":"On or near Forest Grove"},"longitude":"-5.924506"},"context":"","outcome_status":null,"persistent_id":"7c5d0236954610493ed7c5d35ebc4e8cb8f0b100f38205c6b8fa75292db9aa58","id":65824826,"location_subtype":"","month":"2018-06"},{"category":"anti-social-behaviour","location_type":"Force","location":{"latitude":"54.544404","street":{"id":1354480,"name":"On or near Purdysburn Road"},"longitude":"-5.920189"},"context":"","outcome_status":null,"persistent_id":"cf0d7db8f5a3f584ddbe47ddb0b625b6c8a419e94080802759ca7e5cfc58bc1a","id":65823536,"location_subtype":"","month":"2018-06"},{"category":"anti-social-behaviour","location_type":"Force","location":{"latitude":"54.544404","street":{"id":1354480,"name":"On or near Purdysburn Road"},"longitude":"-5.920189"},"context":"","outcome_status":null,"persistent_id":"02e4c919be991373cfb9bc70827009ba4bd68fde3233ce247d4269b0c1324916","id":65823794,"location_subtype":"","month":"2018-06"},{"category":"criminal-damage-arson","location_type":"Force","location":{"latitude":"54.539357","street":{"id":1354555,"name":"On or near "},"longitude":"-5.906322"},"context":"","outcome_status":{"category":"Under investigation","date":"2018-06"},"persistent_id":"db909472f19c76bd8c3bada7fee3026e278b1c1dc6f91a443cfdf8ec4cf854d9","id":65820139,"location_subtype":"","month":"2018-06"},{"category":"criminal-damage-arson","location_type":"Force","location":{"latitude":"54.545855","street":{"id":1354544,"name":"On or near Royal Lodge Park"},"longitude":"-5.909544"},"context":"","outcome_status":{"category":"Under investigation","date":"2018-06"},"persistent_id":"9bb1715282cf3baa1b092fdef1d7ef21cd172431a3b3ba52620dbe3dcca21807","id":65817931,"location_subtype":"","month":"2018-06"},{"category":"other-theft","location_type":"Force","location":{"latitude":"54.538290","street":{"id":1354554,"name":"On or near "},"longitude":"-5.902792"},"context":"","outcome_status":{"category":"Under investigation","date":"2018-06"},"persistent_id":"915746cbc4b53eb44b522fcc99a81c05fb810890e5461ac1dd5d44869e5deb6e","id":65814003,"location_subtype":"","month":"2018-06"},{"category":"other-theft","location_type":"Force","location":{"latitude":"54.548982","street":{"id":1355251,"name":"On or near Beechwood Grove"},"longitude":"-5.920466"},"context":"","outcome_status":{"category":"Under investigation","date":"2018-06"},"persistent_id":"7a258ad369d2ee26e520477f451da9f5004db5ef560869c00572fc5507f0edfe","id":65817423,"location_subtype":"","month":"2018-06"},{"category":"shoplifting","location_type":"Force","location":{"latitude":"54.548982","street":{"id":1355251,"name":"On or near Beechwood Grove"},"longitude":"-5.920466"},"context":"","outcome_status":{"category":"Under investigation","date":"2018-06"},"persistent_id":"65c1ffcb20a1e4a5bb480ecf0b443fdde6dfb7c59759e08a6294018d3f98fb97","id":65813992,"location_subtype":"","month":"2018-06"},{"category":"shoplifting","location_type":"Force","location":{"latitude":"54.548982","street":{"id":1355251,"name":"On or near Beechwood Grove"},"longitude":"-5.920466"},"context":"","outcome_status":{"category":"Under investigation","date":"2018-06"},"persistent_id":"75aa7921c7216a85b6a2a7ebbc3e85ca216e6601ba9b09153f3f48030e22d312","id":65816471,"location_subtype":"","month":"2018-06"},{"category":"shoplifting","location_type":"Force","location":{"latitude":"54.548982","street":{"id":1355251,"name":"On or near Beechwood Grove"},"longitude":"-5.920466"},"context":"","outcome_status":{"category":"Under investigation","date":"2018-06"},"persistent_id":"0d961cd7f6aa520bd93bb7e6dba7f49983ebe106d5f1dcce5c5852bb77a38d91","id":65818743,"location_subtype":"","month":"2018-06"},{"category":"shoplifting","location_type":"Force","location":{"latitude":"54.548982","street":{"id":1355251,"name":"On or near Beechwood Grove"},"longitude":"-5.920466"},"context":"","outcome_status":{"category":"Under investigation","date":"2018-06"},"persistent_id":"1a1abae4cccc9241fc770bc43f0a203cc17e4b2f07d7f626ea295ab2e42461f3","id":65818838,"location_subtype":"","month":"2018-06"},{"category":"shoplifting","location_type":"Force","location":{"latitude":"54.548982","street":{"id":1355251,"name":"On or near Beechwood Grove"},"longitude":"-5.920466"},"context":"","outcome_status":{"category":"Under investigation","date":"2018-06"},"persistent_id":"3dd5491d84f4b7d19d4ea9218edda362c404f18a761b1632702ca3e669204fe9","id":65819241,"location_subtype":"","month":"2018-06"},{"category":"shoplifting","location_type":"Force","location":{"latitude":"54.548982","street":{"id":1355251,"name":"On or near Beechwood Grove"},"longitude":"-5.920466"},"context":"","outcome_status":{"category":"Under investigation","date":"2018-06"},"persistent_id":"51e76cc4f8654a40046009733487503dba637f7fa81f38463cfefc4093a24abd","id":65820633,"location_subtype":"","month":"2018-06"},{"category":"shoplifting","location_type":"Force","location":{"latitude":"54.548982","street":{"id":1355251,"name":"On or near Beechwood Grove"},"longitude":"-5.920466"},"context":"","outcome_status":{"category":"Under investigation","date":"2018-06"},"persistent_id":"c507bb2600e352677891c97d8a8d567cbcf4962428617eeca9b999c48eacaa03","id":65820635,"location_subtype":"","month":"2018-06"},{"category":"shoplifting","location_type":"Force","location":{"latitude":"54.548982","street":{"id":1355251,"name":"On or near Beechwood Grove"},"longitude":"-5.920466"},"context":"","outcome_status":{"category":"Under investigation","date":"2018-06"},"persistent_id":"57fc7ffb39472a81e76c3f26162df38472c81f3144a2d5596d69657626b2ad72","id":65820463,"location_subtype":"","month":"2018-06"},{"category":"vehicle-crime","location_type":"Force","location":{"latitude":"54.550761","street":{"id":1355204,"name":"On or near Martinville Park"},"longitude":"-5.911627"},"context":"","outcome_status":{"category":"Under investigation","date":"2018-06"},"persistent_id":"c7d35a27a828b8370133dd70e0a24334b17f1a04abfe992f840997db3cb61d2d","id":65820342,"location_subtype":"","month":"2018-06"},{"category":"violent-crime","location_type":"Force","location":{"latitude":"54.539357","street":{"id":1354555,"name":"On or near "},"longitude":"-5.906322"},"context":"","outcome_status":{"category":"Under investigation","date":"2018-06"},"persistent_id":"bb1657e69b76a92e7bec52803b434c71b58a13b9a75587065a96aed6ab490658","id":65817173,"location_subtype":"","month":"2018-06"},{"category":"violent-crime","location_type":"Force","location":{"latitude":"54.537986","street":{"id":1354552,"name":"On or near "},"longitude":"-5.904940"},"context":"","outcome_status":{"category":"Under investigation","date":"2018-06"},"persistent_id":"e2b4dfc2603b2741bc7854830e7322d4e3abdb9e62afefb51092160b37bf21ab","id":65816499,"location_subtype":"","month":"2018-06"},{"category":"violent-crime","location_type":"Force","location":{"latitude":"54.539357","street":{"id":1354555,"name":"On or near "},"longitude":"-5.906322"},"context":"","outcome_status":{"category":"Under investigation","date":"2018-06"},"persistent_id":"4e620dc36122c5eaf16ae06c4dc6c0047f647a611c259eecb95c5fe702207248","id":65817174,"location_subtype":"","month":"2018-06"},{"category":"violent-crime","location_type":"Force","location":{"latitude":"54.536608","street":{"id":1354550,"name":"On or near "},"longitude":"-5.908951"},"context":"","outcome_status":{"category":"Under investigation","date":"2018-06"},"persistent_id":"c8b0d6595ba04ae20ffd8d5bfe6a07c7d3c0831d52f082e64fac23b76acf9866","id":65820931,"location_subtype":"","month":"2018-06"},{"category":"violent-crime","location_type":"Force","location":{"latitude":"54.539357","street":{"id":1354555,"name":"On or near "},"longitude":"-5.906322"},"context":"","outcome_status":{"category":"Under investigation","date":"2018-06"},"persistent_id":"e35d3e23bb83bd7a3301fd92941259408332f7b1640f6507d092f2d17ca25463","id":65817175,"location_subtype":"","month":"2018-06"},{"category":"violent-crime","location_type":"Force","location":{"latitude":"54.549964","street":{"id":1355278,"name":"On or near Cederhurst Court"},"longitude":"-5.913832"},"context":"","outcome_status":{"category":"Under investigation","date":"2018-06"},"persistent_id":"e82d6cfba26bef8149fac53f3dba75599dacec41de94de0220f9a686b965e41f","id":65816346,"location_subtype":"","month":"2018-06"}]