[{"category":"anti-social-behaviour","location_type":"Force","location":{"latitude":"51.564834","street":{"id":972767,"name":"On or near Farnborough Close"},"longitude":"-0.272592"},"context":"","outcome_status":null,"persistent_id":"","id":47879931,"location_subtype":"","month":"2016-03"},{"category":"anti-social-behaviour","location_type":"Force","location":{"latitude":"51.573234","street":{"id":972745,"name":"On or near Alverstone Road"},"longitude":"-0.284958"},"context":"","outcome_status":null,"persistent_id":"","id":47880100,"location_subtype":"","month":"2016-03"},{"category":"anti-social-behaviour","location_type":"Force","location":{"latitude":"51.575426","street":{"id":974193,"name":"On or near Toley Avenue"},"longitude":"-0.292178"},"context":"","outcome_status":null,"persistent_id":"","id":47880197,"location_subtype":"","month":"2016-03"},{"category":"anti-social-behaviour","location_type":"Force","location":{"latitude":"51.564238","street":{"id":972635,"name":"On or near Blackbird Hill"},"longitude":"-0.262082"},"context":"","outcome_status":null,"persistent_id":"","id":47878224,"location_subtype":"","month":"2016-03"},{"category":"anti-social-behaviour","location_type":"Force","location":{"latitude":"51.571994","street":{"id":972739,"name":"On or near Uxendon Crescent"},"longitude":"-0.292999"},"context":"","outcome_status":null,"persistent_id":"","id":47880192,"location_subtype":"","month":"2016-03"},{"category":"anti-social-behaviour","location_type":"Force","location":{"latitude":"51.567722","street":{"id":972752,"name":"On or near Corringham Road"},"longitude":"-0.281241"},"context":"","outcome_status":null,"persistent_id":"","id":47880012,"location_subtype":"","month":"2016-03"},{"category":"anti-social-behaviour","location_type":"Force","location":{"latitude":"51.568034","street":{"id":972765,"name":"On or near Kings Drive"},"longitude":"-0.274332"},"context":"","outcome_status":null,"persistent_id":"","id":47879936,"location_subtype":"","month":"2016-03"},{"category":"anti-social-behaviour","location_type":"Force","location":{"latitude":"51.569334","street":{"id":972725,"name":"On or near East Hill"},"longitude":"-0.281440"},"context":"","outcome_status":null,"persistent_id":"","id":47880009,"location_subtype":"","month":"2016-03"},{"category":"anti-social-behaviour","location_type":"Force","location":{"latitude":"51.575103","street":{"id":974196,"name":"On or near Fryent Way"},"longitude":"-0.275060"},"context":"","outcome_status":null,"persistent_id":"","id":47879954,"location_subtype":"","month":"2016-03"},{"category":"anti-social-behaviour","location_type":"Force","location":{"latitude":"51.563810","street":{"id":972631,"name":"On or near Chalkhill Road"},"longitude":"-0.271476"},"context":"","outcome_status":null,"persistent_id":"","id":47879924,"location_subtype":"","month":"2016-03"},{"category":"anti-social-behaviour","location_type":"Force","location":{"latitude":"51.575103","street":{"id":974196,"name":"On or near Fryent Way"},"longitude":"-0.275060"},"context":"","outcome_status":null,"persistent_id":"","id":47879953,"location_subtype":"","month":"2016-03"},{"category":"anti-social-behaviour","location_type":"Force","location":{"latitude":"51.562557","street":{"id":972781,"name":"On or near Dugolly Avenue"},"longitude":"-0.272462"},"context":"","outcome_status":null,"persistent_id":"","id":47879928,"location_subtype":"","month":"2016-03"},{"category":"anti-social-behaviour","location_type":"Force","location":{"latitude":"51.564148","street":{"id":972622,"name":"On or near Kingsgate"},"longitude":"-0.269343"},"context":"","outcome_status":null,"persistent_id":"","id":47879911,"location_subtype":"","month":"2016-03"},{"category":"anti-social-behaviour","location_type":"Force","location":{"latitude":"51.562557","street":{"id":972781,"name":"On or near Dugolly Avenue"},"longitude":"-0.272462"},"context":"","outcome_status":null,"persistent_id":"","id":47879927,"location_subtype":"","month":"2016-03"},{"category":"anti-social-behaviour","location_type":"Force","location":{"latitude":"51.565150","street":{"id":972609,"name":"On or near The Drive"},"longitude":"-0.267819"},"context":"","outcome_status":null,"persistent_id":"","id":47879903,"location_subtype":"","month":"2016-03"},{"category":"anti-social-behaviour","location_type":"Force","location":{"latitude":"51.579612","street":{"id":974152,"name":"On or near Robin Grove"},"longitude":"-0.284501"},"context":"","outcome_status":null,"persistent_id":"","id":47880076,"location_subtype":"","month":"2016-03"},{"category":"anti-social-behaviour","location_type":"Force","location":{"latitude":"51.579612","street":{"id":974152,"name":"On or near Robin Grove"},"longitude":"-0.284501"},"context":"","outcome_status":null,"persistent_id":"","id":47880070,"location_subtype":"","month":"2016-03"},{"category":"anti-social-behaviour","location_type":"Force","location":{"latitude":"51.563305","street":{"id":972608,"name":"On or near The Leadings"},"longitude":"-0.267687"},"context":"","outcome_status":null,"persistent_id":"","id":47879901,"location_subtype":"","month":"2016-03"},{"category":"anti-social-behaviour","location_type":"Force","location":{"latitude":"51.562659","street":{"id":972610,"name":"On or near The Close"},"longitude":"-0.264162"},"context":"","outcome_status":null,"persistent_id":"","id":47878277,"location_subtype":"","month":"2016-03"},{"category":"anti-social-behaviour","location_type":"Force","location":{"latitude":"51.563353","street":{"id":972617,"name":"On or near Poplar Grove"},"longitude":"-0.263039"},"context":"","outcome_status":null,"persistent_id":"","id":47878269,"location_subtype":"","month":"2016-03"},{"category":"anti-social-behaviour","location_type":"Force","location":{"latitude":"51.562645","street":{"id":972619,"name":"On or near Page Avenue"},"longitude":"-0.269905"},"context":"","outcome_status":null,"persistent_id":"","id":47879914,"location_subtype":"","month":"2016-03"},{"category":"bicycle-theft","location_type":"Force","location":{"latitude":"51.562265","street":{"id":972708,"name":"On or near Anton Place"},"longitude":"-0.271593"},"context":"","outcome_status":{"category":"Investigation complete; no suspect identified","date":"2016-03"},"persistent_id":"921e14e217385f7042585b9d400a0990010b1cb41069fe9b218961a77bc77425","id":47969350,"location_subtype":"","month":"2016-03"},{"category":"burglary","location_type":"Force","location":{"latitude":"51.569070","street":{"id":972769,"name":"On or near Barn Hill"},"longitude":"-0.275707"},"context":"","outcome_status":{"category":"Status update unavailable","date":"2016-07"},"persistent_id":"299ccd5a5cde19c1f5139cd88632dd01a753c0d59cc3a6aed2193b622e2c6c7d","id":47971364,"location_subtype":"","month":"2016-03"},{"category":"burglary","location_type":"Force","location":{"latitude":"51.566995","street":{"id":972751,"name":"On or near Eversley Avenue"},"longitude":"-0.278902"},"context":"","outcome_status":{"category":"Investigation complete; no suspect identified","date":"2016-06"},"persistent_id":"618afbe14c6468f57c9ab11d58113564e7c617819957302bf3819911b229d5a2","id":47959092,"location_subtype":"","month":"2016-03"},{"category":"burglary","location_type":"Force","location":{"latitude":"51.565692","street":{"id":972636,"name":"On or near A4088"},"longitude":"-0.265518"},"context":"","outcome_status":{"category":"Status update unavailable","date":"2016-07"},"persistent_id":"3e9e4760d9b29d254a3f91dd4ae65cd16e68c7e2c911f51bd799b9ab31fbb0a3","id":47970337,"location_subtype":"","month":"2016-03"},{"category":"burglary","location_type":"Force","location":{"latitude":"51.567795","street":{"id":972763,"name":"On or near The Paddocks"},"longitude":"-0.272191"},"context":"","outcome_status":{"category":"Investigation complete; no suspect identified","date":"2016-04"},"persistent_id":"a843b2653bda92b5399f9606eb53cba446cf7ee664a3720cc80b8555060ddcba","id":47993822,"location_subtype":"","month":"2016-03"},{"category":"burglary","location_type":"Force","location":{"latitude":"51.563077","street":{"id":972764,"name":"On or near Rook Close"},"longitude":"-0.274794"},"context":"","outcome_status":{"category":"Offender given suspended prison sentence","date":"2016-04"},"persistent_id":"a403fa533053223f2cca0e4cbf217ce1636d116cfb8b26e698cc51c0de760b94","id":47928801,"location_subtype":"","month":"2016-03"},{"category":"burglary","location_type":"Force","location":{"latitude":"51.573234","street":{"id":972745,"name":"On or near Alverstone Road"},"longitude":"-0.284958"},"context":"","outcome_status":{"category":"Investigation complete; no suspect identified","date":"2016-03"},"persistent_id":"15dde9b6d04b8e61995cc0d6989a1b055d4ab1046d0da5298a4ac099d86c7f5d","id":48012003,"location_subtype":"","month":"2016-03"},{"category":"burglary","location_type":"Force","location":{"latitude":"51.561864","street":{"id":972707,"name":"On or near Barnhill Road"},"longitude":"-0.266299"},"context":"","outcome_status":{"category":"Status update unavailable","date":"2016-07"},"persistent_id":"1cc57702f26f034bc843a4b1f3121ea090629f9c386d646a919c1c4e3b8e83c7","id":48015335,"location_subtype":"","month":"2016-03"},{"category":"burglary","location_type":"Force","location":{"latitude":"51.573234","street":{"id":972745,"name":"On or near Alverstone Road"},"longitude":"-0.284958"},"context":"","outcome_status":{"category":"Status update unavailable","date":"2016-07"},"persistent_id":"5a90caad5c3db8cf6c515cd8d57cd2d3ebceba74a68d77f1988296976109cab9","id":47983456,"location_subtype":"","month":"2016-03"},{"category":"burglary","location_type":"Force","location":{"latitude":"51.568816","street":{"id":972718,"name":"On or near Hillview Close"},"longitude":"-0.285355"},"context":"","outcome_status":{"category":"Status update unavailable","date":"2016-07"},"persistent_id":"7a5ce75686b6fc6fdc125dc93a87388d584b80c8d0ae1f9591570eb80e1aa1d7","id":47968641,"location_subtype":"","month":"2016-03"},{"category":"burglary","location_type":"Force","location":{"latitude":"51.566836","street":{"id":972633,"name":"On or near Bruno Place"},"longitude":"-0.266918"},"context":"","outcome_status":{"category":"Status update unavailable","date":"2016-07"},"persistent_id":"a4886211e3ea7a64aa2bed45c93a207cd440da7f7a3e1b8bcc4c3c7f36cdf8e7","id":47918596,"location_subtype":"","month":"2016-03"},{"category":"burglary","location_type":"Force","location":{"latitude":"51.566652","street":{"id":972620,"name":"On or near Mount Drive"},"longitude":"-0.268454"},"context":"","outcome_status":{"category":"Court result unavailable","date":"2016-11"},"persistent_id":"c3dda6dce90b96d131ab945157aa5824264ce2104dc8640136fc62b62c1e0672","id":47935169,"location_subtype":"","month":"2016-03"},{"category":"burglary","location_type":"Force","location":{"latitude":"51.568816","street":{"id":972718,"name":"On or near Hillview Close"},"longitude":"-0.285355"},"context":"","outcome_status":{"category":"Offender sent to prison","date":"2016-11"},"persistent_id":"bc4e684ceadf606e12e5a588dec0d32954b4d600c312896a715fd31cd8856f3b","id":47967740,"location_subtype":"","month":"2016-03"},{"category":"burglary","location_type":"Force","location":{"latitude":"51.572042","street":{"id":972743,"name":"On or near Beverley Gardens"},"longitude":"-0.283993"},"context":"","outcome_status":{"category":"Status update unavailable","date":"2016-07"},"persistent_id":"a2c673a87c3f6d200d0e36b602af3c65568e0a57d1bee1b37c4a04089b8682b0","id":47940575,"location_subtype":"","month":"2016-03"},{"category":"criminal-damage-arson","location_type":"Force","location":{"latitude":"51.564484","street":{"id":972753,"name":"On or near Bridge Road"},"longitude":"-0.278145"},"context":"","outcome_status":{"category":"Investigation complete; no suspect identified","date":"2016-03"},"persistent_id":"c418bf185ac9ac0fe09a977e560e999cff307c71c57ec4881d9ac37b2e6cc6de","id":47973803,"location_subtype":"","month":"2016-03"},{"category":"criminal-damage-arson","location_type":"Force","location":{"latitude":"51.564918","street":{"id":972770,"name":"On or near Supermarket"},"longitude":"-0.275835"},"context":"","outcome_status":{"category":"Investigation complete; no suspect identified","date":"2016-03"},"persistent_id":"0346a5e5fd1deaafaa0e5217401b64ffa3f22ff950c5a787c9ea48d4a1f51b88","id":47933862,"location_subtype":"","month":"2016-03"},{"category":"criminal-damage-arson","location_type":"Force","location":{"latitude":"51.579790","street":{"id":974144,"name":"On or near Tylers Gate"},"longitude":"-0.291740"},"context":"","outcome_status":{"category":"Investigation complete; no suspect identified","date":"2016-04"},"persistent_id":"e86b97e89bf626509c46d506c64f015a8f9150b33fd48d94e3a1f6a0228b11b6","id":47980104,"location_subtype":"","month":"2016-03"},{"category":"criminal-damage-arson","location_type":"Force","location":{"latitude":"51.579200","street":{"id":974143,"name":"On or near Vane Close"},"longitude":"-0.289525"},"context":"","outcome_status":{"category":"Investigation complete; no suspect identified","date":"2016-04"},"persistent_id":"383a04839889a132ba01034b077254bf10448a1e8d5dae9775c905cd95b3a2ea","id":47985230,"location_subtype":"","month":"2016-03"},{"category":"criminal-damage-arson","location_type":"Force","location":{"latitude":"51.564484","street":{"id":972753,"name":"On or near Bridge Road"},"longitude":"-0.278145"},"context":"","outcome_status":{"category":"Offender given community sentence","date":"2016-05"},"persistent_id":"eedf77d141e07364fddabbde240dfcadbfb61d34e8990a558ffbb79b2db1e008","id":47968628,"location_subtype":"","month":"2016-03"},{"category":"criminal-damage-arson","location_type":"Force","location":{"latitude":"51.562651","street":{"id":972630,"name":"On or near Chalklands"},"longitude":"-0.267235"},"context":"","outcome_status":{"category":"Status update unavailable","date":"2016-07"},"persistent_id":"65be4b567bcb253c74bf0962f48426f0c5a2a6c44515d84b6548388d21acf544","id":47996531,"location_subtype":"","month":"2016-03"},{"category":"criminal-damage-arson","location_type":"Force","location":{"latitude":"51.568816","street":{"id":972718,"name":"On or near Hillview Close"},"longitude":"-0.285355"},"context":"","outcome_status":{"category":"Investigation complete; no suspect identified","date":"2016-03"},"persistent_id":"0b54493510f42f011887905abcc016f1fecb7d0f850cbdcced2d7526efe38932","id":47905383,"location_subtype":"","month":"2016-03"},{"category":"criminal-damage-arson","location_type":"Force","location":{"latitude":"51.564918","street":{"id":972770,"name":"On or near Supermarket"},"longitude":"-0.275835"},"context":"","outcome_status":{"category":"Court result unavailable","date":"2016-09"},"persistent_id":"6def597ff593790162f15a48d00477f301ab788683a87bb566f83061a5339fe7","id":47934317,"location_subtype":"","month":"2016-03"},{"category":"criminal-damage-arson","location_type":"Force","location":{"latitude":"51.564367","street":{"id":972625,"name":"On or near Gervase Close"},"longitude":"-0.264717"},"context":"","outcome_status":{"category":"Status update unavailable","date":"2016-07"},"persistent_id":"360862c132cbb39cdef251ab1de7bf98320df92a8ba115b8560f267c8b848845","id":47947711,"location_subtype":"","month":"2016-03"},{"category":"criminal-damage-arson","location_type":"Force","location":{"latitude":"51.563218","street":{"id":972760,"name":"On or near Windsor Crescent"},"longitude":"-0.276419"},"context":"","outcome_status":{"category":"Investigation complete; no suspect identified","date":"2016-04"},"persistent_id":"f0b4174ab36ae864842c017fd184f2f74c51a9d812e242f2c4b4e513a921d61f","id":47931958,"location_subtype":"","month":"2016-03"},{"category":"criminal-damage-arson","location_type":"Force","location":{"latitude":"51.562659","street":{"id":972610,"name":"On or near The Close"},"longitude":"-0.264162"},"context":"","outcome_status":{"category":"Status update unavailable","date":"2016-07"},"persistent_id":"83c60a1b45ef2f0cf026c9b6a95e14ce64af3378b2bd111e98e5cc0b1adb5f70","id":47927893,"location_subtype":"","month":"2016-03"},{"category":"drugs","location_type":"Force","location":{"latitude":"51.564148","street":{"id":972622,"name":"On or near Kingsgate"},"longitude":"-0.269343"},"context":"","outcome_status":{"category":"Offender given a drugs possession warning","date":"2016-03"},"persistent_id":"9a8e1db3a683cf1085fb8556f4607355b13e5698cc362649ace4588b7f04c8d8","id":47933010,"location_subtype":"","month":"2016-03"},{"category":"drugs","location_type":"Force","location":{"latitude":"51.564484","street":{"id":972753,"name":"On or near Bridge Road"},"longitude":"-0.278145"},"context":"","outcome_status":{"category":"Offender given a drugs possession warning","date":"2016-03"},"persistent_id":"4bcde3168e98eca9a5467ad4ef8dd7ab901d3703513fe3743052d9905b6cb4a5","id":48001660,"location_subtype":"","month":"2016-03"},{"category":"drugs","location_type":"Force","location":{"latitude":"51.579612","street":{"id":974152,"name":"On or near Robin Grove"},"longitude":"-0.284501"},"context":"","outcome_status":{"category":"Status update unavailable","date":"2016-07"},"persistent_id":"4e973cd3d2ae527d56797dda28d1ba6a1550f693d446a926a834b79ec1c2f557","id":47938268,"location_subtype":"","month":"2016-03"},{"category":"drugs","location_type":"Force","location":{"latitude":"51.562933","street":{"id":972768,"name":"On or near Bowater Road"},"longitude":"-0.272346"},"context":"","outcome_status":{"category":"Court result unavailable","date":"2016-09"},"persistent_id":"d9409bc4282e4ca03e878179651935e823c8fc409d697173f4cf4a0ab30d3ce1","id":47940463,"location_subtype":"","month":"2016-03"},{"category":"drugs","location_type":"Force","location":{"latitude":"51.562645","street":{"id":972619,"name":"On or near Page Avenue"},"longitude":"-0.269905"},"context":"","outcome_status":{"category":"Offender given a drugs possession warning","date":"2016-03"},"persistent_id":"d5262636b5832c970ad4add69e6c11bed1b48de127324f6382a34575187cacdd","id":47992903,"location_subtype":"","month":"2016-03"},{"category":"drugs","location_type":"Force","location":{"latitude":"51.564834","street":{"id":972767,"name":"On or near Farnborough Close"},"longitude":"-0.272592"},"context":"","outcome_status":{"category":"Offender given a drugs possession warning","date":"2016-03"},"persistent_id":"7c6563c484a805a4bf5791705c4af99341489e5220b896aaeead7ad3247cedd4","id":47907238,"location_subtype":"","month":"2016-03"},{"category":"drugs","location_type":"Force","location":{"latitude":"51.562790","street":{"id":972612,"name":"On or near Saxon Road"},"longitude":"-0.268745"},"context":"","outcome_status":{"category":"Offender given conditional discharge","date":"2016-03"},"persistent_id":"96571fcf71391e2dce44e01016c3a7d06cdee07d94083fa262d3523b54fd38cb","id":47996417,"location_subtype":"","month":"2016-03"},{"category":"other-theft","location_type":"Force","location":{"latitude":"51.564484","street":{"id":972753,"name":"On or near Bridge Road"},"longitude":"-0.278145"},"context":"","outcome_status":{"category":"Investigation complete; no suspect identified","date":"2016-04"},"persistent_id":"72ddbeea524a289c06ff6cbaf0cb8c497079ff7536ccaefcd4cc34df1471b241","id":47955392,"location_subtype":"","month":"2016-03"},{"category":"other-theft","location_type":"Force","location":{"latitude":"51.564484","street":{"id":972753,"name":"On or near Bridge Road"},"longitude":"-0.278145"},"context":"","outcome_status":{"category":"Investigation complete; no suspect identified","date":"2016-04"},"persistent_id":"420e3fef597487aa0bdd41162467b6677fc061eaceeae88c9d848760eb3003b1","id":47975432,"location_subtype":"","month":"2016-03"},{"category":"other-theft","location_type":"Force","location":{"latitude":"51.568034","street":{"id":972765,"name":"On or near Kings Drive"},"longitude":"-0.274332"},"context":"","outcome_status":{"category":"Status update unavailable","date":"2016-07"},"persistent_id":"298468bf6aeb7a050d125450ff71e698f11ece5d04997d0d0182494ff50ab50b","id":47924732,"location_subtype":"","month":"2016-03"},{"category":"other-theft","location_type":"Force","location":{"latitude":"51.564347","street":{"id":972618,"name":"On or near Peace Grove"},"longitude":"-0.271860"},"context":"","outcome_status":{"category":"Status update unavailable","date":"2016-07"},"persistent_id":"af9b9c74e97bf094414c61b3405b4f4faeb05704d2750f519cbbae767c56cc4b","id":47990206,"location_subtype":"","month":"2016-03"},{"category":"other-theft","location_type":"Force","location":{"latitude":"51.573187","street":{"id":972645,"name":"On or near Lavender Avenue"},"longitude":"-0.268249"},"context":"","outcome_status":{"category":"Investigation complete; no suspect identified","date":"2016-04"},"persistent_id":"1befebf918583dc1e1a0c6ab6ec4273c68a6aa6dcc40237e2b71f8c05f98ad72","id":47984189,"location_subtype":"","month":"2016-03"},{"category":"other-theft","location_type":"Force","location":{"latitude":"51.564918","street":{"id":972770,"name":"On or near Supermarket"},"longitude":"-0.275835"},"context":"","outcome_status":{"category":"Investigation complete; no suspect identified","date":"2016-04"},"persistent_id":"ab9f924823814fd71a1a13a0c37a14f60e4df1e6af4b1d9ff41f230291195ee9","id":47936843,"location_subtype":"","month":"2016-03"},{"category":"other-theft","location_type":"Force","location":{"latitude":"51.564918","street":{"id":972770,"name":"On or near Supermarket"},"longitude":"-0.275835"},"context":"","outcome_status":{"category":"Status update unavailable","date":"2016-07"},"persistent_id":"3b6d7b87f72e33b334a16edc69f64d586f233c65dbf424e8f8cd0be28094f671","id":47914362,"location_subtype":"","month":"2016-03"},{"category":"other-theft","location_type":"Force","location":{"latitude":"51.564992","street":{"id":972637,"name":"On or near Petrol Station"},"longitude":"-0.264434"},"context":"","outcome_status":{"category":"Investigation complete; no suspect identified","date":"2016-03"},"persistent_id":"0f67ea7a122f60a9428f213b6edb8630c02a7a49abf9319002c971a738b1d27d","id":47986923,"location_subtype":"","month":"2016-03"},{"category":"other-theft","location_type":"Force","location":{"latitude":"51.564992","street":{"id":972637,"name":"On or near Petrol Station"},"longitude":"-0.264434"},"context":"","outcome_status":{"category":"Investigation complete; no suspect identified","date":"2016-06"},"persistent_id":"dc0d2c13224d7edbbe4d3c6e298d901c2706a8fedfd154b3eb15cdc809720a41","id":47952934,"location_subtype":"","month":"2016-03"},{"category":"other-theft","location_type":"Force","location":{"latitude":"51.564484","street":{"id":972753,"name":"On or near Bridge Road"},"longitude":"-0.278145"},"context":"","outcome_status":{"category":"Investigation complete; no suspect identified","date":"2016-06"},"persistent_id":"339aa371ba4b1de821ddf4fc5847b88a049e369520f8246c0494071750a1b00b","id":47940166,"location_subtype":"","month":"2016-03"},{"category":"other-theft","location_type":"Force","location":{"latitude":"51.566995","street":{"id":972751,"name":"On or near Eversley Avenue"},"longitude":"-0.278902"},"context":"","outcome_status":{"category":"Status update unavailable","date":"2016-07"},"persistent_id":"d404f124361706210abaaf061edd7904282e6da5fe5eaa0944e360e6658eefb6","id":47950709,"location_subtype":"","month":"2016-03"},{"category":"public-order","location_type":"Force","location":{"latitude":"51.565692","street":{"id":972636,"name":"On or near A4088"},"longitude":"-0.265518"},"context":"","outcome_status":{"category":"Investigation complete; no suspect identified","date":"2016-03"},"persistent_id":"05222f9798fd16155317c0428a472efd0ee4a80163ec202d8a9925dc61d7abb3","id":48012605,"location_subtype":"","month":"2016-03"},{"category":"public-order","location_type":"Force","location":{"latitude":"51.564918","street":{"id":972770,"name":"On or near Supermarket"},"longitude":"-0.275835"},"context":"","outcome_status":{"category":"Investigation complete; no suspect identified","date":"2016-04"},"persistent_id":"11e6380c61401864958b558133fc3ce756cb5ee19a781770d11499400fec955b","id":47959566,"location_subtype":"","month":"2016-03"},{"category":"public-order","location_type":"Force","location":{"latitude":"51.564918","street":{"id":972770,"name":"On or near Supermarket"},"longitude":"-0.275835"},"context":"","outcome_status":{"category":"Status update unavailable","date":"2016-07"},"persistent_id":"a4a5a44838ea5eb878c3d74359b1f87d131f567398ab761d8ca488c41bbf9153","id":47937487,"location_subtype":"","month":"2016-03"},{"category":"public-order","location_type":"Force","location":{"latitude":"51.564918","street":{"id":972770,"name":"On or near Supermarket"},"longitude":"-0.275835"},"context":"","outcome_status":{"category":"Investigation complete; no suspect identified","date":"2016-04"},"persistent_id":"6f136d5e28f6aec8b3662a9484c100fde181b152cbf1d99f7a3a61e37c77c64d","id":47932333,"location_subtype":"","month":"2016-03"},{"category":"robbery","location_type":"Force","location":{"latitude":"51.566836","street":{"id":972633,"name":"On or near Bruno Place"},"longitude":"-0.266918"},"context":"","outcome_status":{"category":"Investigation complete; no suspect identified","date":"2016-03"},"persistent_id":"390b5aded871f515ca63255728d15c217ec12eced2448366fea5fbf332004af8","id":47925989,"location_subtype":"","month":"2016-03"},{"category":"shoplifting","location_type":"Force","location":{"latitude":"51.565692","street":{"id":972636,"name":"On or near A4088"},"longitude":"-0.265518"},"context":"","outcome_status":{"category":"Investigation complete; no suspect identified","date":"2016-04"},"persistent_id":"8654b117880b1ba9bcf503dff652c9e1dea14ad2086479b3cdf8e17c3eebf9f7","id":47970367,"location_subtype":"","month":"2016-03"},{"category":"shoplifting","location_type":"Force","location":{"latitude":"51.564918","street":{"id":972770,"name":"On or near Supermarket"},"longitude":"-0.275835"},"context":"","outcome_status":{"category":"Court result unavailable","date":"2016-10"},"persistent_id":"82b470fc7aafe4d84f2e22d310ccff61e88c093ae248d6a2b4baae077929c6e4","id":47985362,"location_subtype":"","month":"2016-03"},{"category":"shoplifting","location_type":"Force","location":{"latitude":"51.564918","street":{"id":972770,"name":"On or near Supermarket"},"longitude":"-0.275835"},"context":"","outcome_status":{"category":"Offender given a caution","date":"2016-03"},"persistent_id":"11838f96fd420760c3caa74b6c3bc3645303107fc8778fcdc76ae78f21d224cf","id":47933005,"location_subtype":"","month":"2016-03"},{"category":"shoplifting","location_type":"Force","location":{"latitude":"51.564918","street":{"id":972770,"name":"On or near Supermarket"},"longitude":"-0.275835"},"context":"","outcome_status":{"category":"Offender given penalty notice","date":"2016-03"},"persistent_id":"95ec667c6ae72af0b33910302128fa253617172dccb667449770e71cc0a6cbfc","id":47977048,"location_subtype":"","month":"2016-03"},{"category":"shoplifting","location_type":"Force","location":{"latitude":"51.564918","street":{"id":972770,"name":"On or near Supermarket"},"longitude":"-0.275835"},"context":"","outcome_status":{"category":"Offender given conditional discharge","date":"2016-04"},"persistent_id":"cc2ba4da43c6d536008bb702a395264abd8754eefa4fb30a47c82d9505534f5f","id":47988739,"location_subtype":"","month":"2016-03"},{"category":"shoplifting","location_type":"Force","location":{"latitude":"51.564918","street":{"id":972770,"name":"On or near Supermarket"},"longitude":"-0.275835"},"context":"","outcome_status":{"category":"Local resolution","date":"2016-03"},"persistent_id":"cb025d02859a790b546f3013111504de247cc74d7c53fd829240afff996d46d9","id":47997015,"location_subtype":"","month":"2016-03"},{"category":"shoplifting","location_type":"Force","location":{"latitude":"51.564918","street":{"id":972770,"name":"On or near Supermarket"},"longitude":"-0.275835"},"context":"","outcome_status":{"category":"Court result unavailable","date":"2016-09"},"persistent_id":"5dd6dea0d6f688d3f0f30d36d6e6b084e602a0151675d128dde314932695d568","id":48011345,"location_subtype":"","month":"2016-03"},{"category":"shoplifting","location_type":"Force","location":{"latitude":"51.564918","street":{"id":972770,"name":"On or near Supermarket"},"longitude":"-0.275835"},"context":"","outcome_status":{"category":"Offender given a caution","date":"2016-04"},"persistent_id":"ab9fa3cc6232d562fa8ab5e5396f2ea6fed5a288513e02e37e58598ec585572e","id":47970538,"location_subtype":"","month":"2016-03"},{"category":"theft-from-the-person","location_type":"Force","location":{"latitude":"51.564992","street":{"id":972637,"name":"On or near Petrol Station"},"longitude":"-0.264434"},"context":"","outcome_status":{"category":"Investigation complete; no suspect identified","date":"2016-03"},"persistent_id":"815a4fd65c14c5581fbdccb16deb352d8beba1ee8ced2546906e5e506c2cd0b3","id":47974499,"location_subtype":"","month":"2016-03"},{"category":"vehicle-crime","location_type":"Force","location":{"latitude":"51.566652","street":{"id":972620,"name":"On or near Mount Drive"},"longitude":"-0.268454"},"context":"","outcome_status":{"category":"Investigation complete; no suspect identified","date":"2016-06"},"persistent_id":"b585cd8354b66e036bb8f62dbd22b46a2d7f0b70554b3f2aeb864b4ae9ebf307","id":47971222,"location_subtype":"","month":"2016-03"},{"category":"vehicle-crime","location_type":"Force","location":{"latitude":"51.564918","street":{"id":972770,"name":"On or near Supermarket"},"longitude":"-0.275835"},"context":"","outcome_status":{"category":"Status update unavailable","date":"2016-07"},"persistent_id":"205368b6a3516263ee982227884f9dabae0711a1265ffcb72ca1f5e068d4376a","id":47933082,"location_subtype":"","month":"2016-03"},{"category":"vehicle-crime","location_type":"Force","location":{"latitude":"51.564918","street":{"id":972770,"name":"On or near Supermarket"},"longitude":"-0.275835"},"context":"","outcome_status":{"category":"Status update unavailable","date":"2016-07"},"persistent_id":"8b3cf71cf11fb70ea0ea58e0639586225f1d901e12850c1a8d8d91f166e4bfdf","id":47969705,"location_subtype":"","month":"2016-03"},{"category":"vehicle-crime","location_type":"Force","location":{"latitude":"51.571109","street":{"id":972772,"name":"On or near Summers Close"},"longitude":"-0.273682"},"context":"","outcome_status":{"category":"Status update unavailable","date":"2016-07"},"persistent_id":"ee02bed3fb0c6fc1ada2454c4891cd9433ca6ae70caea279d03e4d70830e95ed","id":47968687,"location_subtype":"","month":"2016-03"},{"category":"vehicle-crime","location_type":"Force","location":{"latitude":"51.566398","street":{"id":972749,"name":"On or near Grendon Gardens"},"longitude":"-0.279314"},"context":"","outcome_status":{"category":"Investigation complete; no suspect identified","date":"2016-04"},"persistent_id":"56fea4d0d241f8c4f0f8feb88101cdc04aa09c54490a51303cc993c72ff25e26","id":47970674,"location_subtype":"","month":"2016-03"},{"category":"violent-crime","location_type":"Force","location":{"latitude":"51.564484","street":{"id":972753,"name":"On or near Bridge Road"},"longitude":"-0.278145"},"context":"","outcome_status":{"category":"Investigation complete; no suspect identified","date":"2016-04"},"persistent_id":"0f2ed732aa6b0f9b7d27a30e8a6d634744d0bd73197c5b29b5e8a72a51b42bc3","id":47929268,"location_subtype":"","month":"2016-03"},{"category":"violent-crime","location_type":"Force","location":{"latitude":"51.566398","street":{"id":972749,"name":"On or near Grendon Gardens"},"longitude":"-0.279314"},"context":"","outcome_status":{"category":"Status update unavailable","date":"2016-07"},"persistent_id":"d121ba2fa316f010925b73c3a74a7ad909aaf97582713db0a63b81518b872ede","id":47926076,"location_subtype":"","month":"2016-03"},{"category":"violent-crime","location_type":"Force","location":{"latitude":"51.572763","street":{"id":972735,"name":"On or near Wykeham Hill"},"longitude":"-0.287169"},"context":"","outcome_status":{"category":"Status update unavailable","date":"2016-07"},"persistent_id":"f92965ec101e3b6f371f6bf1c5cc9467e309c7e150ea5961a7a08ed43d8d5f9d","id":47967209,"location_subtype":"","month":"2016-03"},{"category":"violent-crime","location_type":"Force","location":{"latitude":"51.564918","street":{"id":972770,"name":"On or near Supermarket"},"longitude":"-0.275835"},"context":"","outcome_status":{"category":"Status update unavailable","date":"2016-07"},"persistent_id":"332696b51a65d0818e645c42181c483ee9019fccd2db5c9a02a415c099a81482","id":47912131,"location_subtype":"","month":"2016-03"},{"category":"violent-crime","location_type":"Force","location":{"latitude":"51.565050","street":{"id":972757,"name":"On or near Sports\/recreation Area"},"longitude":"-0.279971"},"context":"","outcome_status":{"category":"Investigation complete; no suspect identified","date":"2016-04"},"persistent_id":"d7d76b733478a1ec6ec97a3f9cfb3ce4ba34328fa6ad53746aff33497a6da2e7","id":47970570,"location_subtype":"","month":"2016-03"},{"category":"violent-crime","location_type":"Force","location":{"latitude":"51.564367","street":{"id":972625,"name":"On or near Gervase Close"},"longitude":"-0.264717"},"context":"","outcome_status":{"category":"Status update unavailable","date":"2016-07"},"persistent_id":"f8a93447923fe6c70b37e999314435c312a58c2137ea635c7d3c93aa85c425fd","id":47972890,"location_subtype":"","month":"2016-03"},{"category":"violent-crime","location_type":"Force","location":{"latitude":"51.580725","street":{"id":923767,"name":"On or near Sports\/recreation Area"},"longitude":"-0.281255"},"context":"","outcome_status":{"category":"Investigation complete; no suspect identified","date":"2016-06"},"persistent_id":"44c2b44839bf82b6a227b1648b3fa2ea5ac605af64ca4a98cb671532587b5ff3","id":47909753,"location_subtype":"","month":"2016-03"},{"category":"violent-crime","location_type":"Force","location":{"latitude":"51.564834","street":{"id":972767,"name":"On or near Farnborough Close"},"longitude":"-0.272592"},"context":"","outcome_status":{"category":"Offender given a caution","date":"2016-03"},"persistent_id":"89de0a3ac5b6f4026eb2600a8f9ea5a20b919e9e37a8afa22f48f3c37fc1d3fb","id":47976435,"location_subtype":"","month":"2016-03"},{"category":"violent-crime","location_type":"Force","location":{"latitude":"51.580725","street":{"id":923767,"name":"On or near Sports\/recreation Area"},"longitude":"-0.281255"},"context":"","outcome_status":{"category":"Investigation complete; no suspect identified","date":"2016-04"},"persistent_id":"1753de6a781b9a35dddf5ab8874fbcc73805acd0466796bad598a7a7c0eebec2","id":47905812,"location_subtype":"","month":"2016-03"},{"category":"violent-crime","location_type":"Force","location":{"latitude":"51.564918","street":{"id":972770,"name":"On or near Supermarket"},"longitude":"-0.275835"},"context":"","outcome_status":{"category":"Offender given a caution","date":"2016-03"},"persistent_id":"ec3d17ce5d3e12bc8f28d78623ec1a7ee644d9774f268d04e0ddd89d405476c6","id":47981455,"location_subtype":"","month":"2016-03"},{"category":"violent-crime","location_type":"Force","location":{"latitude":"51.564148","street":{"id":972622,"name":"On or near Kingsgate"},"longitude":"-0.269343"},"context":"","outcome_status":{"category":"Investigation complete; no suspect identified","date":"2016-08"},"persistent_id":"1eabf7f5551e413c922e510754651eb8a8af9a5e304d88be5bd28bf4f8bc1286","id":47983280,"location_subtype":"","month":"2016-03"},{"category":"violent-crime","location_type":"Force","location":{"latitude":"51.562933","street":{"id":972768,"name":"On or near Bowater Road"},"longitude":"-0.272346"},"context":"","outcome_status":{"category":"Investigation complete; no suspect identified","date":"2016-03"},"persistent_id":"f75208bb78717d010a5f29755397c20fa2944c7e9753d8b0e0397af39fc5696e","id":47988748,"location_subtype":"","month":"2016-03"},{"category":"violent-crime","location_type":"Force","location":{"latitude":"51.564484","street":{"id":972753,"name":"On or near Bridge Road"},"longitude":"-0.278145"},"context":"","outcome_status":{"category":"Investigation complete; no suspect identified","date":"2016-03"},"persistent_id":"5c40580ba9afaed6b7f8f63ba1cd76d41896bd736af65bc1c1f2bdeb17169099","id":47937382,"location_subtype":"","month":"2016-03"},{"category":"violent-crime","location_type":"Force","location":{"latitude":"51.580725","street":{"id":923767,"name":"On or near Sports\/recreation Area"},"longitude":"-0.281255"},"context":"","outcome_status":{"category":"Investigation complete; no suspect identified","date":"2016-03"},"persistent_id":"c2c2cabcefb9f1e1754612b107bf51495e075990f9159a65259d52d1197bf9ea","id":47947378,"location_subtype":"","month":"2016-03"},{"category":"violent-crime","location_type":"Force","location":{"latitude":"51.562659","street":{"id":972610,"name":"On or near The Close"},"longitude":"-0.264162"},"context":"","outcome_status":{"category":"Investigation complete; no suspect identified","date":"2016-06"},"persistent_id":"6ed9e5ac65a0f74f94061ceff945d19f282cba54f7b7a70092d4c8b466f959ad","id":48014159,"location_subtype":"","month":"2016-03"},{"category":"violent-crime","location_type":"Force","location":{"latitude":"51.570037","street":{"id":972647,"name":"On or near Kingsmere Park"},"longitude":"-0.269307"},"context":"","outcome_status":{"category":"Investigation complete; no suspect identified","date":"2016-03"},"persistent_id":"8b579a16188f5c3d8f54f2990df839bf058492c2282a506a1de57a5d4554f663","id":47991261,"location_subtype":"","month":"2016-03"},{"category":"violent-crime","location_type":"Force","location":{"latitude":"51.564918","street":{"id":972770,"name":"On or near Supermarket"},"longitude":"-0.275835"},"context":"","outcome_status":{"category":"Investigation complete; no suspect identified","date":"2016-03"},"persistent_id":"283baec5d80d716dd069c74e6721d8697849b6273317f28eb5d06106b14b46ab","id":47932478,"location_subtype":"","month":"2016-03"},{"category":"violent-crime","location_type":"Force","location":{"latitude":"51.566836","street":{"id":972633,"name":"On or near Bruno Place"},"longitude":"-0.266918"},"context":"","outcome_status":{"category":"Investigation complete; no suspect identified","date":"2016-06"},"persistent_id":"a4d3d9f31f601c4cd0ffb00531b7a522111e0e3fb1d5e3681d3b985af5a5caef","id":47955390,"location_subtype":"","month":"2016-03"},{"category":"violent-crime","location_type":"Force","location":{"latitude":"51.577444","street":{"id":974153,"name":"On or near Preston Hill"},"longitude":"-0.291842"},"context":"","outcome_status":{"category":"Investigation complete; no suspect identified","date":"2016-06"},"persistent_id":"3189e2722e9ba04c018afac3604204acca7b94cd6bd047f8b228f61ab6a0f1d4","id":47955666,"location_subtype":"","month":"2016-03"},{"category":"violent-crime","location_type":"Force","location":{"latitude":"51.564992","street":{"id":972637,"name":"On or near Petrol Station"},"longitude":"-0.264434"},"context":"","outcome_status":{"category":"Investigation complete; no suspect identified","date":"2016-04"},"persistent_id":"c086da8ebfe3cd7768b0cf13610478d704fc6fdb94cd6c3123d8ec9328ce43ef","id":47956886,"location_subtype":"","month":"2016-03"},{"category":"violent-crime","location_type":"Force","location":{"latitude":"51.567573","street":{"id":972747,"name":"On or near The Crossways"},"longitude":"-0.278476"},"context":"","outcome_status":{"category":"Investigation complete; no suspect identified","date":"2016-03"},"persistent_id":"866d935f5cce0caf779df48d0328268d78184ba1815a9fd8caa172a0f2bd0f71","id":47924913,"location_subtype":"","month":"2016-03"},{"category":"violent-crime","location_type":"Force","location":{"latitude":"51.564347","street":{"id":972618,"name":"On or near Peace Grove"},"longitude":"-0.271860"},"context":"","outcome_status":{"category":"Court result unavailable","date":"2016-10"},"persistent_id":"aa5440c40f95cfa9ee6a9f2a67cc9a4b81a47ee2eca56d81a47be92f602d6b9c","id":47984266,"location_subtype":"","month":"2016-03"},{"category":"violent-crime","location_type":"Force","location":{"latitude":"51.577444","street":{"id":974153,"name":"On or near Preston Hill"},"longitude":"-0.291842"},"context":"","outcome_status":{"category":"Investigation complete; no suspect identified","date":"2017-02"},"persistent_id":"71c645421e729a2072438523d79e44f3de38a164d095ca1b33f7b31421c79b8f","id":47969268,"location_subtype":"","month":"2016-03"},{"category":"violent-crime","location_type":"Force","location":{"latitude":"51.570223","street":{"id":972740,"name":"On or near The Avenue"},"longitude":"-0.287496"},"context":"","outcome_status":{"category":"Offender given community sentence","date":"2016-03"},"persistent_id":"277b6e81d2bfe5171b8f480419e798c3df49485286399896182afaea10c62113","id":47963879,"location_subtype":"","month":"2016-03"},{"category":"violent-crime","location_type":"Force","location":{"latitude":"51.564992","street":{"id":972637,"name":"On or near Petrol Station"},"longitude":"-0.264434"},"context":"","outcome_status":{"category":"Status update unavailable","date":"2016-07"},"persistent_id":"fc44384f6c7e3c3406c4ffd0ba7ce6cacf23630118b608578bd4a5859011b0a6","id":47948129,"location_subtype":"","month":"2016-03"},{"category":"other-crime","location_type":"Force","location":{"latitude":"51.562812","street":{"id":972604,"name":"On or near Walton Avenue"},"longitude":"-0.270851"},"context":"","outcome_status":{"category":"Offender given community sentence","date":"2016-03"},"persistent_id":"77602e191ee576b3f998a45402106f07c8024f8748ad9da48e0fd666a733b272","id":47919177,"location_subtype":"","month":"2016-03"},{"category":"other-crime","location_type":"Force","location":{"latitude":"51.564918","street":{"id":972770,"name":"On or near Supermarket"},"longitude":"-0.275835"},"context":"","outcome_status":{"category":"Offender sent to prison","date":"2016-04"},"persistent_id":"84754e1b1bf2efe0d65f7b124dd74eff5406d39b45b77087d8bc668ea92f4983","id":47918065,"location_subtype":"","month":"2016-03"}]