[{"category":"anti-social-behaviour","location_type":"Force","location":{"latitude":"51.554298","street":{"id":969076,"name":"On or near Vansittart Road"},"longitude":"0.019001"},"context":"","outcome_status":null,"persistent_id":"","id":55531997,"location_subtype":"","month":"2017-03"},{"category":"anti-social-behaviour","location_type":"Force","location":{"latitude":"51.560150","street":{"id":971292,"name":"On or near Briscoe Close"},"longitude":"0.013345"},"context":"","outcome_status":null,"persistent_id":"","id":55532008,"location_subtype":"","month":"2017-03"},{"category":"anti-social-behaviour","location_type":"Force","location":{"latitude":"51.554298","street":{"id":969076,"name":"On or near Vansittart Road"},"longitude":"0.019001"},"context":"","outcome_status":null,"persistent_id":"","id":55531998,"location_subtype":"","month":"2017-03"},{"category":"anti-social-behaviour","location_type":"Force","location":{"latitude":"51.554512","street":{"id":969169,"name":"On or near Ranelagh Road"},"longitude":"0.007008"},"context":"","outcome_status":null,"persistent_id":"","id":55521356,"location_subtype":"","month":"2017-03"},{"category":"anti-social-behaviour","location_type":"Force","location":{"latitude":"51.554298","street":{"id":969076,"name":"On or near Vansittart Road"},"longitude":"0.019001"},"context":"","outcome_status":null,"persistent_id":"","id":55531999,"location_subtype":"","month":"2017-03"},{"category":"anti-social-behaviour","location_type":"Force","location":{"latitude":"51.553990","street":{"id":969167,"name":"On or near Steele Road"},"longitude":"0.006553"},"context":"","outcome_status":null,"persistent_id":"","id":55521360,"location_subtype":"","month":"2017-03"},{"category":"anti-social-behaviour","location_type":"Force","location":{"latitude":"51.558312","street":{"id":971244,"name":"On or near Harrow Green"},"longitude":"0.007277"},"context":"","outcome_status":null,"persistent_id":"","id":55521354,"location_subtype":"","month":"2017-03"},{"category":"anti-social-behaviour","location_type":"Force","location":{"latitude":"51.551418","street":{"id":969205,"name":"On or near Argyle Road"},"longitude":"0.006540"},"context":"","outcome_status":null,"persistent_id":"","id":55521359,"location_subtype":"","month":"2017-03"},{"category":"anti-social-behaviour","location_type":"Force","location":{"latitude":"51.556044","street":{"id":971336,"name":"On or near Selby Road"},"longitude":"0.008432"},"context":"","outcome_status":null,"persistent_id":"","id":55521345,"location_subtype":"","month":"2017-03"},{"category":"anti-social-behaviour","location_type":"Force","location":{"latitude":"51.555641","street":{"id":969189,"name":"On or near Elsham Road"},"longitude":"0.007808"},"context":"","outcome_status":null,"persistent_id":"","id":55521346,"location_subtype":"","month":"2017-03"},{"category":"anti-social-behaviour","location_type":"Force","location":{"latitude":"51.552674","street":{"id":969172,"name":"On or near Marlborough Road"},"longitude":"0.008817"},"context":"","outcome_status":null,"persistent_id":"","id":55521343,"location_subtype":"","month":"2017-03"},{"category":"anti-social-behaviour","location_type":"Force","location":{"latitude":"51.560907","street":{"id":971250,"name":"On or near Cobden Road"},"longitude":"0.009555"},"context":"","outcome_status":null,"persistent_id":"","id":55521342,"location_subtype":"","month":"2017-03"},{"category":"anti-social-behaviour","location_type":"Force","location":{"latitude":"51.560907","street":{"id":971250,"name":"On or near Cobden Road"},"longitude":"0.009555"},"context":"","outcome_status":null,"persistent_id":"","id":55521341,"location_subtype":"","month":"2017-03"},{"category":"anti-social-behaviour","location_type":"Force","location":{"latitude":"51.560907","street":{"id":971250,"name":"On or near Cobden Road"},"longitude":"0.009555"},"context":"","outcome_status":null,"persistent_id":"","id":55521340,"location_subtype":"","month":"2017-03"},{"category":"anti-social-behaviour","location_type":"Force","location":{"latitude":"51.554671","street":{"id":969081,"name":"On or near Tavistock Road"},"longitude":"0.011372"},"context":"","outcome_status":null,"persistent_id":"","id":55521331,"location_subtype":"","month":"2017-03"},{"category":"anti-social-behaviour","location_type":"Force","location":{"latitude":"51.560907","street":{"id":971250,"name":"On or near Cobden Road"},"longitude":"0.009555"},"context":"","outcome_status":null,"persistent_id":"","id":55521328,"location_subtype":"","month":"2017-03"},{"category":"anti-social-behaviour","location_type":"Force","location":{"latitude":"51.560907","street":{"id":971250,"name":"On or near Cobden Road"},"longitude":"0.009555"},"context":"","outcome_status":null,"persistent_id":"","id":55521339,"location_subtype":"","month":"2017-03"},{"category":"anti-social-behaviour","location_type":"Force","location":{"latitude":"51.553089","street":{"id":969200,"name":"On or near Blenheim Road"},"longitude":"0.009283"},"context":"","outcome_status":null,"persistent_id":"","id":55521334,"location_subtype":"","month":"2017-03"},{"category":"anti-social-behaviour","location_type":"Force","location":{"latitude":"51.558159","street":{"id":971228,"name":"On or near Sauls Green"},"longitude":"0.008857"},"context":"","outcome_status":null,"persistent_id":"","id":55521333,"location_subtype":"","month":"2017-03"},{"category":"anti-social-behaviour","location_type":"Force","location":{"latitude":"51.560907","street":{"id":971250,"name":"On or near Cobden Road"},"longitude":"0.009555"},"context":"","outcome_status":null,"persistent_id":"","id":55521327,"location_subtype":"","month":"2017-03"},{"category":"anti-social-behaviour","location_type":"Force","location":{"latitude":"51.560907","street":{"id":971250,"name":"On or near Cobden Road"},"longitude":"0.009555"},"context":"","outcome_status":null,"persistent_id":"","id":55521326,"location_subtype":"","month":"2017-03"},{"category":"anti-social-behaviour","location_type":"Force","location":{"latitude":"51.560907","street":{"id":971250,"name":"On or near Cobden Road"},"longitude":"0.009555"},"context":"","outcome_status":null,"persistent_id":"","id":55521325,"location_subtype":"","month":"2017-03"},{"category":"anti-social-behaviour","location_type":"Force","location":{"latitude":"51.564169","street":{"id":971249,"name":"On or near Cotton Close"},"longitude":"0.010752"},"context":"","outcome_status":null,"persistent_id":"","id":55521324,"location_subtype":"","month":"2017-03"},{"category":"anti-social-behaviour","location_type":"Force","location":{"latitude":"51.558656","street":{"id":971277,"name":"On or near Robinson Close"},"longitude":"0.010769"},"context":"","outcome_status":null,"persistent_id":"","id":55521323,"location_subtype":"","month":"2017-03"},{"category":"anti-social-behaviour","location_type":"Force","location":{"latitude":"51.558656","street":{"id":971277,"name":"On or near Robinson Close"},"longitude":"0.010769"},"context":"","outcome_status":null,"persistent_id":"","id":55521322,"location_subtype":"","month":"2017-03"},{"category":"anti-social-behaviour","location_type":"Force","location":{"latitude":"51.558656","street":{"id":971277,"name":"On or near Robinson Close"},"longitude":"0.010769"},"context":"","outcome_status":null,"persistent_id":"","id":55521317,"location_subtype":"","month":"2017-03"},{"category":"anti-social-behaviour","location_type":"Force","location":{"latitude":"51.562769","street":{"id":971281,"name":"On or near Malvern Road"},"longitude":"0.012191"},"context":"","outcome_status":null,"persistent_id":"","id":55521316,"location_subtype":"","month":"2017-03"},{"category":"anti-social-behaviour","location_type":"Force","location":{"latitude":"51.558053","street":{"id":971322,"name":"On or near Terling Close"},"longitude":"0.012949"},"context":"","outcome_status":null,"persistent_id":"","id":55521313,"location_subtype":"","month":"2017-03"},{"category":"anti-social-behaviour","location_type":"Force","location":{"latitude":"51.554298","street":{"id":969076,"name":"On or near Vansittart Road"},"longitude":"0.019001"},"context":"","outcome_status":null,"persistent_id":"","id":55532000,"location_subtype":"","month":"2017-03"},{"category":"bicycle-theft","location_type":"Force","location":{"latitude":"51.558159","street":{"id":971228,"name":"On or near Sauls Green"},"longitude":"0.008857"},"context":"","outcome_status":{"category":"Status update unavailable","date":"2017-07"},"persistent_id":"f80bda52e102c40b09e0378851b94cd725da062d2dcddb3528da44a0a9782c33","id":55599406,"location_subtype":"","month":"2017-03"},{"category":"burglary","location_type":"Force","location":{"latitude":"51.553990","street":{"id":969167,"name":"On or near Steele Road"},"longitude":"0.006553"},"context":"","outcome_status":{"category":"Status update unavailable","date":"2017-07"},"persistent_id":"f3ad692716a74d705870b66aea48380d26134cfe5b6b8fb186830e4366981933","id":55570354,"location_subtype":"","month":"2017-03"},{"category":"burglary","location_type":"Force","location":{"latitude":"51.556379","street":{"id":971325,"name":"On or near Sheridan Road"},"longitude":"0.017737"},"context":"","outcome_status":{"category":"Offender given suspended prison sentence","date":"2017-03"},"persistent_id":"331f88ffb794459015c7ef1ee818e2bce404ed294db761dea13264895e045112","id":55565817,"location_subtype":"","month":"2017-03"},{"category":"burglary","location_type":"Force","location":{"latitude":"51.552198","street":{"id":969198,"name":"On or near Borthwick Mews"},"longitude":"0.006156"},"context":"","outcome_status":{"category":"Investigation complete; no suspect identified","date":"2017-12"},"persistent_id":"ce9f9ca01976054017c66668b38bb0e5c457158fe7b1b8f840298fde1446102d","id":55545616,"location_subtype":"","month":"2017-03"},{"category":"burglary","location_type":"Force","location":{"latitude":"51.552674","street":{"id":969172,"name":"On or near Marlborough Road"},"longitude":"0.008817"},"context":"","outcome_status":{"category":"Status update unavailable","date":"2017-07"},"persistent_id":"9285878e6e7b23806b4a2ffc4d351fdac07d367398c98c69b605091de4cb33c2","id":55591877,"location_subtype":"","month":"2017-03"},{"category":"burglary","location_type":"Force","location":{"latitude":"51.555324","street":{"id":969077,"name":"On or near Trumpington Road"},"longitude":"0.014762"},"context":"","outcome_status":{"category":"Status update unavailable","date":"2017-07"},"persistent_id":"5797ea6814eed9891e00c4913ebc2e4d9d0ed48d49525d491d4149f826370847","id":55539145,"location_subtype":"","month":"2017-03"},{"category":"criminal-damage-arson","location_type":"Force","location":{"latitude":"51.560907","street":{"id":971250,"name":"On or near Cobden Road"},"longitude":"0.009555"},"context":"","outcome_status":{"category":"Offender given a caution","date":"2017-04"},"persistent_id":"e1e271a7653460a8d2b79fd097142af79d34c1559d58733f6ad576cfc4beb98f","id":55607207,"location_subtype":"","month":"2017-03"},{"category":"criminal-damage-arson","location_type":"Force","location":{"latitude":"51.558838","street":{"id":971242,"name":"On or near Howard Road"},"longitude":"0.008064"},"context":"","outcome_status":{"category":"Investigation complete; no suspect identified","date":"2017-03"},"persistent_id":"1a344c278e26a22c2d1ad442baaed35dc9a9580dd1a82724a991e032d7f027ae","id":55561611,"location_subtype":"","month":"2017-03"},{"category":"criminal-damage-arson","location_type":"Force","location":{"latitude":"51.553990","street":{"id":969167,"name":"On or near Steele Road"},"longitude":"0.006553"},"context":"","outcome_status":{"category":"Status update unavailable","date":"2017-07"},"persistent_id":"07210d8605f71a2a98cf76c4a8c44013489cff9ceae33ef2c77de6e1c74aaecc","id":55548009,"location_subtype":"","month":"2017-03"},{"category":"criminal-damage-arson","location_type":"Force","location":{"latitude":"51.554931","street":{"id":969092,"name":"On or near Huddlestone Road"},"longitude":"0.017197"},"context":"","outcome_status":{"category":"Status update unavailable","date":"2017-07"},"persistent_id":"72fa05e6092bb87f101afe2574dd81b4b36a81191f1338ec307b231fb7abef8a","id":55547183,"location_subtype":"","month":"2017-03"},{"category":"criminal-damage-arson","location_type":"Force","location":{"latitude":"51.556044","street":{"id":971336,"name":"On or near Selby Road"},"longitude":"0.008432"},"context":"","outcome_status":{"category":"Investigation complete; no suspect identified","date":"2017-03"},"persistent_id":"d3bfcec053e4a03875bd0e36711a60af209400d3b45ec857395e6d3c53784227","id":55579581,"location_subtype":"","month":"2017-03"},{"category":"criminal-damage-arson","location_type":"Force","location":{"latitude":"51.556732","street":{"id":971330,"name":"On or near Broxbourne Road"},"longitude":"0.018647"},"context":"","outcome_status":{"category":"Status update unavailable","date":"2017-07"},"persistent_id":"bc94b8e9eefdfbd99496ec7faa91c36d5fecc18e758d5b54f6890bebad170447","id":55559137,"location_subtype":"","month":"2017-03"},{"category":"criminal-damage-arson","location_type":"Force","location":{"latitude":"51.563330","street":{"id":971287,"name":"On or near Ferndale Road"},"longitude":"0.011956"},"context":"","outcome_status":{"category":"Investigation complete; no suspect identified","date":"2017-06"},"persistent_id":"52d5a9d4add41bba4a06c29aefe7fd5d4758a62aadd8a40900d050a89e5e7b9b","id":55598230,"location_subtype":"","month":"2017-03"},{"category":"criminal-damage-arson","location_type":"Force","location":{"latitude":"51.561324","street":{"id":971280,"name":"On or near Montague Road"},"longitude":"0.013599"},"context":"","outcome_status":{"category":"Status update unavailable","date":"2017-07"},"persistent_id":"e15374e38eb311f8d4a4c09c0a67312041462d53714a35821388279ae402b6c7","id":55591841,"location_subtype":"","month":"2017-03"},{"category":"criminal-damage-arson","location_type":"Force","location":{"latitude":"51.562024","street":{"id":923791,"name":"On or near Cookes Close"},"longitude":"0.013125"},"context":"","outcome_status":{"category":"Status update unavailable","date":"2017-07"},"persistent_id":"4abfb641742fb97e186d3acf0226727e72914528630de233406757ea9857e7b1","id":55561593,"location_subtype":"","month":"2017-03"},{"category":"criminal-damage-arson","location_type":"Force","location":{"latitude":"51.556593","street":{"id":971346,"name":"On or near Cheneys Road"},"longitude":"0.009956"},"context":"","outcome_status":{"category":"Offender given a caution","date":"2017-03"},"persistent_id":"8758cafd0f5a74e2606c00eccf1bbac75f870874cb0c261ffa2333c244a92e96","id":55600444,"location_subtype":"","month":"2017-03"},{"category":"criminal-damage-arson","location_type":"Force","location":{"latitude":"51.564140","street":{"id":971288,"name":"On or near Davies Lane"},"longitude":"0.012987"},"context":"","outcome_status":{"category":"Status update unavailable","date":"2017-07"},"persistent_id":"dda513a91403583b023ad7c81f9feea933c8d1829756a887a0ea1c3f660f8abf","id":55607515,"location_subtype":"","month":"2017-03"},{"category":"criminal-damage-arson","location_type":"Force","location":{"latitude":"51.554931","street":{"id":969092,"name":"On or near Huddlestone Road"},"longitude":"0.017197"},"context":"","outcome_status":{"category":"Investigation complete; no suspect identified","date":"2017-04"},"persistent_id":"e2c2d44236d4b8869ca80213bcf61b63ff8535011f38aff1f3ea817550ea90be","id":55574103,"location_subtype":"","month":"2017-03"},{"category":"drugs","location_type":"Force","location":{"latitude":"51.561345","street":{"id":971282,"name":"On or near Lansdowne Road"},"longitude":"0.012344"},"context":"","outcome_status":{"category":"Offender given a drugs possession warning","date":"2017-03"},"persistent_id":"5aae5c94e9eac7f8032e028d87095573e2fc16b51ff55090c8d7706dcf5751f3","id":55559284,"location_subtype":"","month":"2017-03"},{"category":"drugs","location_type":"Force","location":{"latitude":"51.562167","street":{"id":971240,"name":"On or near Lancaster Road"},"longitude":"0.010577"},"context":"","outcome_status":{"category":"Offender given a drugs possession warning","date":"2017-03"},"persistent_id":"f5d496eb0967036b0edfa59e58cdd8cc4c83394fd57353d6ced3db56eb2ed1f9","id":55582256,"location_subtype":"","month":"2017-03"},{"category":"other-theft","location_type":"Force","location":{"latitude":"51.559362","street":{"id":971286,"name":"On or near Harrow Road"},"longitude":"0.013180"},"context":"","outcome_status":{"category":"Investigation complete; no suspect identified","date":"2017-05"},"persistent_id":"f3eb040e1f98f0b6911b94c05ff8463206312b45b152caba583db4f1ca9cc248","id":55568280,"location_subtype":"","month":"2017-03"},{"category":"other-theft","location_type":"Force","location":{"latitude":"51.564140","street":{"id":971288,"name":"On or near Davies Lane"},"longitude":"0.012987"},"context":"","outcome_status":{"category":"Investigation complete; no suspect identified","date":"2017-03"},"persistent_id":"261899f45009f54fda0bc3fe72a6ce6507629c6241d789d8a034d4f1a730d1a8","id":55597947,"location_subtype":"","month":"2017-03"},{"category":"other-theft","location_type":"Force","location":{"latitude":"51.553089","street":{"id":969200,"name":"On or near Blenheim Road"},"longitude":"0.009283"},"context":"","outcome_status":{"category":"Investigation complete; no suspect identified","date":"2017-04"},"persistent_id":"c726f146344c07ec924f89200f817993018cdf100149b6029ef5c002e1468860","id":55591360,"location_subtype":"","month":"2017-03"},{"category":"other-theft","location_type":"Force","location":{"latitude":"51.558890","street":{"id":971284,"name":"On or near Jenny Hammond Close"},"longitude":"0.013419"},"context":"","outcome_status":{"category":"Status update unavailable","date":"2017-07"},"persistent_id":"b6d2713e06bd0a22b9eced686fb34c8431e5f2340c90b04444d2335e3431414f","id":55579755,"location_subtype":"","month":"2017-03"},{"category":"other-theft","location_type":"Force","location":{"latitude":"51.555641","street":{"id":969189,"name":"On or near Elsham Road"},"longitude":"0.007808"},"context":"","outcome_status":{"category":"Investigation complete; no suspect identified","date":"2017-06"},"persistent_id":"ba7784fc33286a863091b1bb8368a6800f835b5e048e50de7d4287e374a666a9","id":55550605,"location_subtype":"","month":"2017-03"},{"category":"possession-of-weapons","location_type":"Force","location":{"latitude":"51.556593","street":{"id":971346,"name":"On or near Cheneys Road"},"longitude":"0.009956"},"context":"","outcome_status":{"category":"Investigation complete; no suspect identified","date":"2017-04"},"persistent_id":"261892d0fd2c81b78d4b1b2c237562b7f98385894a11e7a17c90fda254d2c07d","id":55603310,"location_subtype":"","month":"2017-03"},{"category":"public-order","location_type":"Force","location":{"latitude":"51.557962","street":{"id":971329,"name":"On or near Cobbold Road"},"longitude":"0.016638"},"context":"","outcome_status":{"category":"Status update unavailable","date":"2017-07"},"persistent_id":"083ec7067344c0651b80f8177ec5726df000ee5660a43a2fb723c634e3a14b85","id":55605400,"location_subtype":"","month":"2017-03"},{"category":"public-order","location_type":"Force","location":{"latitude":"51.552230","street":{"id":969190,"name":"On or near Devonshire Close"},"longitude":"0.010067"},"context":"","outcome_status":{"category":"Status update unavailable","date":"2017-07"},"persistent_id":"80a3d246b40c33205c93f6fe646b089506d555e19325f76d52c61e72c1220c9f","id":55564632,"location_subtype":"","month":"2017-03"},{"category":"public-order","location_type":"Force","location":{"latitude":"51.557962","street":{"id":971329,"name":"On or near Cobbold Road"},"longitude":"0.016638"},"context":"","outcome_status":{"category":"Status update unavailable","date":"2017-07"},"persistent_id":"083ec7067344c0651b80f8177ec5726df000ee5660a43a2fb723c634e3a14b85","id":55605401,"location_subtype":"","month":"2017-03"},{"category":"robbery","location_type":"Force","location":{"latitude":"51.558605","street":{"id":971279,"name":"On or near Neville Close"},"longitude":"0.015325"},"context":"","outcome_status":{"category":"Status update unavailable","date":"2017-07"},"persistent_id":"3346db00897d3b99fd376d248c422f5f4e73d3e1b654c54de1d6da1540f0d73f","id":55545631,"location_subtype":"","month":"2017-03"},{"category":"robbery","location_type":"Force","location":{"latitude":"51.554931","street":{"id":969092,"name":"On or near Huddlestone Road"},"longitude":"0.017197"},"context":"","outcome_status":{"category":"Investigation complete; no suspect identified","date":"2017-04"},"persistent_id":"bd692c847290565c475a03e4913c5af5da5b78ec3c441e9cf4ed030d483d2007","id":55546760,"location_subtype":"","month":"2017-03"},{"category":"robbery","location_type":"Force","location":{"latitude":"51.560907","street":{"id":971250,"name":"On or near Cobden Road"},"longitude":"0.009555"},"context":"","outcome_status":{"category":"Investigation complete; no suspect identified","date":"2017-05"},"persistent_id":"d6cf19e15d60977200fbc4360e19dce09cddcd1de2a716897958fa2080121190","id":55581635,"location_subtype":"","month":"2017-03"},{"category":"shoplifting","location_type":"Force","location":{"latitude":"51.557900","street":{"id":971342,"name":"On or near Harrow Green"},"longitude":"0.007129"},"context":"","outcome_status":{"category":"Status update unavailable","date":"2017-07"},"persistent_id":"23fbe44d5a1fdc0f3ad4d225308b3f92f9e400a635efef4dd86d89cdf4df75fb","id":55548417,"location_subtype":"","month":"2017-03"},{"category":"shoplifting","location_type":"Force","location":{"latitude":"51.560907","street":{"id":971250,"name":"On or near Cobden Road"},"longitude":"0.009555"},"context":"","outcome_status":{"category":"Status update unavailable","date":"2017-07"},"persistent_id":"a9edcc4e97a96e190263bc21a8689fdff509af92dd9d4484a807af80b0378477","id":55548433,"location_subtype":"","month":"2017-03"},{"category":"vehicle-crime","location_type":"Force","location":{"latitude":"51.563330","street":{"id":971287,"name":"On or near Ferndale Road"},"longitude":"0.011956"},"context":"","outcome_status":{"category":"Status update unavailable","date":"2017-07"},"persistent_id":"3d84a4a35426d0403f9b4a92b221f66a6b46468f26668d8d719662b24d6712b6","id":55598914,"location_subtype":"","month":"2017-03"},{"category":"vehicle-crime","location_type":"Force","location":{"latitude":"51.559362","street":{"id":971286,"name":"On or near Harrow Road"},"longitude":"0.013180"},"context":"","outcome_status":{"category":"Investigation complete; no suspect identified","date":"2017-05"},"persistent_id":"0fa361c040016786f196d8365a2018d081db905b978cfe4920f8066b0097b34e","id":55600950,"location_subtype":"","month":"2017-03"},{"category":"vehicle-crime","location_type":"Force","location":{"latitude":"51.564140","street":{"id":971288,"name":"On or near Davies Lane"},"longitude":"0.012987"},"context":"","outcome_status":{"category":"Status update unavailable","date":"2017-07"},"persistent_id":"cb6dd6c80605dae59eb1c0a7d422cdd61e92c797e76ee8fae40162fad4dafd56","id":55603010,"location_subtype":"","month":"2017-03"},{"category":"vehicle-crime","location_type":"Force","location":{"latitude":"51.555726","street":{"id":969080,"name":"On or near Thorpe Road"},"longitude":"0.017535"},"context":"","outcome_status":{"category":"Status update unavailable","date":"2017-07"},"persistent_id":"9a1c7a36b71249dcc7da91744d9add5d0cc626532018d8a818643b5a5245e7aa","id":55588092,"location_subtype":"","month":"2017-03"},{"category":"vehicle-crime","location_type":"Force","location":{"latitude":"51.562167","street":{"id":971240,"name":"On or near Lancaster Road"},"longitude":"0.010577"},"context":"","outcome_status":{"category":"Status update unavailable","date":"2017-07"},"persistent_id":"8eb4fcdd9108ea818aa03f9a3f9bee6bd89d285c19d9cc05123fd46848a24f5d","id":55577147,"location_subtype":"","month":"2017-03"},{"category":"vehicle-crime","location_type":"Force","location":{"latitude":"51.557097","street":{"id":971345,"name":"On or near Chichester Road"},"longitude":"0.010440"},"context":"","outcome_status":{"category":"Status update unavailable","date":"2017-07"},"persistent_id":"a818bf118b966ec3503bfbcccd3e46637efa09cfcbb81485a9b30b6b2d06f855","id":55566467,"location_subtype":"","month":"2017-03"},{"category":"vehicle-crime","location_type":"Force","location":{"latitude":"51.560150","street":{"id":971292,"name":"On or near Briscoe Close"},"longitude":"0.013345"},"context":"","outcome_status":{"category":"Status update unavailable","date":"2017-07"},"persistent_id":"8d97f79ecd3c48e76203428444a8f0a16ec24915a0fd616ab814f90517b36422","id":55561813,"location_subtype":"","month":"2017-03"},{"category":"vehicle-crime","location_type":"Force","location":{"latitude":"51.557962","street":{"id":971329,"name":"On or near Cobbold Road"},"longitude":"0.016638"},"context":"","outcome_status":{"category":"Status update unavailable","date":"2017-07"},"persistent_id":"faba31d6be996e16bfd1350c5c8316d4375c84accdd04caeffabea1003b7fbc6","id":55559914,"location_subtype":"","month":"2017-03"},{"category":"vehicle-crime","location_type":"Force","location":{"latitude":"51.556255","street":{"id":971321,"name":"On or near Tilston Close"},"longitude":"0.012884"},"context":"","outcome_status":{"category":"Status update unavailable","date":"2017-07"},"persistent_id":"9b18cb92b71f87bd2f74df7043c5d6b5f7557c8a86cc57157210cc8a046402aa","id":55555778,"location_subtype":"","month":"2017-03"},{"category":"vehicle-crime","location_type":"Force","location":{"latitude":"51.555726","street":{"id":969080,"name":"On or near Thorpe Road"},"longitude":"0.017535"},"context":"","outcome_status":{"category":"Status update unavailable","date":"2017-07"},"persistent_id":"ffa49e83e7ea0197db798526df4302b030abfc0b8b872d8403fd57942894e8af","id":55548649,"location_subtype":"","month":"2017-03"},{"category":"vehicle-crime","location_type":"Force","location":{"latitude":"51.554671","street":{"id":969081,"name":"On or near Tavistock Road"},"longitude":"0.011372"},"context":"","outcome_status":{"category":"Investigation complete; no suspect identified","date":"2017-03"},"persistent_id":"73d19ca7a8ec0e93443645d0c6293562822c2cc313f398c54ec19b237438a1b9","id":55548608,"location_subtype":"","month":"2017-03"},{"category":"vehicle-crime","location_type":"Force","location":{"latitude":"51.554671","street":{"id":969081,"name":"On or near Tavistock Road"},"longitude":"0.011372"},"context":"","outcome_status":{"category":"Status update unavailable","date":"2017-07"},"persistent_id":"66935dabbbbf93c42558fde6cde57bd90f231f0bc5a4c58f1cb7cf384486637d","id":55547816,"location_subtype":"","month":"2017-03"},{"category":"vehicle-crime","location_type":"Force","location":{"latitude":"51.555612","street":{"id":969085,"name":"On or near Ramsay Road"},"longitude":"0.013707"},"context":"","outcome_status":{"category":"Status update unavailable","date":"2017-07"},"persistent_id":"11911b65dc34216c2cd443996371b6bde5086f3cfc911d082df33d03fce064ea","id":55547958,"location_subtype":"","month":"2017-03"},{"category":"vehicle-crime","location_type":"Force","location":{"latitude":"51.562167","street":{"id":971240,"name":"On or near Lancaster Road"},"longitude":"0.010577"},"context":"","outcome_status":{"category":"Investigation complete; no suspect identified","date":"2017-03"},"persistent_id":"23b3058b5bda79438c37f622441559b8cabbf08a741b26135feea313e434025c","id":55548287,"location_subtype":"","month":"2017-03"},{"category":"vehicle-crime","location_type":"Force","location":{"latitude":"51.557783","street":{"id":971320,"name":"On or near Woodhouse Road"},"longitude":"0.012389"},"context":"","outcome_status":{"category":"Investigation complete; no suspect identified","date":"2017-09"},"persistent_id":"3706436d3169bc9aac605f6bb67316f3cae0695396c857b32b93299d0ec6bba4","id":55600759,"location_subtype":"","month":"2017-03"},{"category":"violent-crime","location_type":"Force","location":{"latitude":"51.561324","street":{"id":971280,"name":"On or near Montague Road"},"longitude":"0.013599"},"context":"","outcome_status":{"category":"Investigation complete; no suspect identified","date":"2017-03"},"persistent_id":"4b78d7928be310eb87f4d696dfc5c5e0a9e8158dd72363479eae5aa426797d52","id":55565199,"location_subtype":"","month":"2017-03"},{"category":"violent-crime","location_type":"Force","location":{"latitude":"51.555324","street":{"id":969077,"name":"On or near Trumpington Road"},"longitude":"0.014762"},"context":"","outcome_status":{"category":"Investigation complete; no suspect identified","date":"2017-06"},"persistent_id":"b7660cc6eedc1a0034ed17ee82568fcfc1ebb0a4b64014e2d8e3e1fad2d6e910","id":55548444,"location_subtype":"","month":"2017-03"},{"category":"violent-crime","location_type":"Force","location":{"latitude":"51.564169","street":{"id":971249,"name":"On or near Cotton Close"},"longitude":"0.010752"},"context":"","outcome_status":{"category":"Status update unavailable","date":"2017-07"},"persistent_id":"afa4405a7d9162e903678e684786447e8154b23b36fef70e3083bb63f2f4cc89","id":55547450,"location_subtype":"","month":"2017-03"},{"category":"violent-crime","location_type":"Force","location":{"latitude":"51.558656","street":{"id":971277,"name":"On or near Robinson Close"},"longitude":"0.010769"},"context":"","outcome_status":{"category":"Status update unavailable","date":"2017-07"},"persistent_id":"10160d816e646338cf7f5ba60ac13818c4c21ee57f93d3e9b05c9c55a68aa662","id":55578959,"location_subtype":"","month":"2017-03"},{"category":"violent-crime","location_type":"Force","location":{"latitude":"51.556379","street":{"id":971325,"name":"On or near Sheridan Road"},"longitude":"0.017737"},"context":"","outcome_status":{"category":"Investigation complete; no suspect identified","date":"2017-04"},"persistent_id":"cc0465de6c098c8c5e99ac02f8b7b1c34217bf203d3fbd65e09a4e0fd03ac269","id":55580659,"location_subtype":"","month":"2017-03"},{"category":"violent-crime","location_type":"Force","location":{"latitude":"51.557900","street":{"id":971342,"name":"On or near Harrow Green"},"longitude":"0.007129"},"context":"","outcome_status":{"category":"Status update unavailable","date":"2017-07"},"persistent_id":"3d6100db74529979abcf85a48a8012ccb51456c003a105fffa2223cd4660fc94","id":55585917,"location_subtype":"","month":"2017-03"},{"category":"violent-crime","location_type":"Force","location":{"latitude":"51.564169","street":{"id":971249,"name":"On or near Cotton Close"},"longitude":"0.010752"},"context":"","outcome_status":{"category":"Investigation complete; no suspect identified","date":"2017-05"},"persistent_id":"afa4405a7d9162e903678e684786447e8154b23b36fef70e3083bb63f2f4cc89","id":55548763,"location_subtype":"","month":"2017-03"},{"category":"violent-crime","location_type":"Force","location":{"latitude":"51.564169","street":{"id":971249,"name":"On or near Cotton Close"},"longitude":"0.010752"},"context":"","outcome_status":{"category":"Court case unable to proceed","date":"2017-12"},"persistent_id":"a8282f7461378925e70dec652ccfcf88aea34f5a119b31476317546677fa61d5","id":55546757,"location_subtype":"","month":"2017-03"},{"category":"violent-crime","location_type":"Force","location":{"latitude":"51.554671","street":{"id":969081,"name":"On or near Tavistock Road"},"longitude":"0.011372"},"context":"","outcome_status":{"category":"Offender sent to prison","date":"2017-10"},"persistent_id":"50691cfa611ef66345ea918d890376174f81ec2998e23da98e8bc14787d489a4","id":55562172,"location_subtype":"","month":"2017-03"},{"category":"violent-crime","location_type":"Force","location":{"latitude":"51.556511","street":{"id":971339,"name":"On or near Kingsdown Road"},"longitude":"0.008957"},"context":"","outcome_status":{"category":"Investigation complete; no suspect identified","date":"2017-04"},"persistent_id":"49ff099a7feab178b8938e21a5b9683146ce69a57f694a136aea91383226d984","id":55598775,"location_subtype":"","month":"2017-03"},{"category":"violent-crime","location_type":"Force","location":{"latitude":"51.558799","street":{"id":971285,"name":"On or near Harrow Road"},"longitude":"0.017137"},"context":"","outcome_status":{"category":"Status update unavailable","date":"2017-07"},"persistent_id":"f603ddd5ebc7d61e6ccc606c1d7b9775512c14ebb930c1a6f3e170bab07f8579","id":55607328,"location_subtype":"","month":"2017-03"},{"category":"violent-crime","location_type":"Force","location":{"latitude":"51.553089","street":{"id":969200,"name":"On or near Blenheim Road"},"longitude":"0.009283"},"context":"","outcome_status":{"category":"Investigation complete; no suspect identified","date":"2018-03"},"persistent_id":"a121744fe92a957f71d23561fedce2cf3e414ee2f36de1e2f6a0e26ab3abc1b2","id":55553936,"location_subtype":"","month":"2017-03"},{"category":"violent-crime","location_type":"Force","location":{"latitude":"51.560150","street":{"id":971292,"name":"On or near Briscoe Close"},"longitude":"0.013345"},"context":"","outcome_status":{"category":"Offender given a caution","date":"2017-03"},"persistent_id":"c5226703d242a0dcade30367edf911894084456a5a8df7fb38e55e0f3679725f","id":55547456,"location_subtype":"","month":"2017-03"},{"category":"violent-crime","location_type":"Force","location":{"latitude":"51.555324","street":{"id":969077,"name":"On or near Trumpington Road"},"longitude":"0.014762"},"context":"","outcome_status":{"category":"Investigation complete; no suspect identified","date":"2017-03"},"persistent_id":"6813e62b0b626ae369ac0af7caf731414524324121dc0e8ed519b566b35f4094","id":55549037,"location_subtype":"","month":"2017-03"},{"category":"violent-crime","location_type":"Force","location":{"latitude":"51.562024","street":{"id":923791,"name":"On or near Cookes Close"},"longitude":"0.013125"},"context":"","outcome_status":{"category":"Investigation complete; no suspect identified","date":"2017-03"},"persistent_id":"7f1dd275665c833659c85756a65e1d85acad251acb9c5ad36208b028f705e579","id":55565330,"location_subtype":"","month":"2017-03"},{"category":"violent-crime","location_type":"Force","location":{"latitude":"51.555612","street":{"id":969085,"name":"On or near Ramsay Road"},"longitude":"0.013707"},"context":"","outcome_status":{"category":"Investigation complete; no suspect identified","date":"2017-04"},"persistent_id":"67c35ba2aa624667cb891da0d2658dd0f0615b3908ea263903076c3da217f017","id":55548689,"location_subtype":"","month":"2017-03"},{"category":"violent-crime","location_type":"Force","location":{"latitude":"51.562167","street":{"id":971240,"name":"On or near Lancaster Road"},"longitude":"0.010577"},"context":"","outcome_status":{"category":"Offender given suspended prison sentence","date":"2017-03"},"persistent_id":"d5c8e0bad2d4fd28af577b10859b4b2fca2e47811652cd75c2ea41e5aac21d82","id":55583119,"location_subtype":"","month":"2017-03"},{"category":"violent-crime","location_type":"Force","location":{"latitude":"51.560249","street":{"id":971293,"name":"On or near Acacia Road"},"longitude":"0.010738"},"context":"","outcome_status":{"category":"Defendant found not guilty","date":"2017-05"},"persistent_id":"a303cf0b9c3a7e6b81757c38a04c66d71ea3bca67b27a9d65eba485a6c69739d","id":55547661,"location_subtype":"","month":"2017-03"},{"category":"violent-crime","location_type":"Force","location":{"latitude":"51.557006","street":{"id":971334,"name":"On or near Napier Road"},"longitude":"0.007392"},"context":"","outcome_status":{"category":"Investigation complete; no suspect identified","date":"2017-07"},"persistent_id":"1f92db493dffb07cf9e5d5c061de3a198cfe515ae71f7e2790eba6627d4b9814","id":55537953,"location_subtype":"","month":"2017-03"},{"category":"violent-crime","location_type":"Force","location":{"latitude":"51.556255","street":{"id":971321,"name":"On or near Tilston Close"},"longitude":"0.012884"},"context":"","outcome_status":{"category":"Defendant found not guilty","date":"2017-05"},"persistent_id":"64a68ed0f37c98f9275668e59a8a0ff66dd89d6e321f162be2036b5178f20ba1","id":55537332,"location_subtype":"","month":"2017-03"},{"category":"violent-crime","location_type":"Force","location":{"latitude":"51.558890","street":{"id":971284,"name":"On or near Jenny Hammond Close"},"longitude":"0.013419"},"context":"","outcome_status":{"category":"Investigation complete; no suspect identified","date":"2017-07"},"persistent_id":"4ec45fe1f299b38f800b2a2dfe52e0730adc74055cd4b3d7bb3ba0b01d31fbad","id":55551622,"location_subtype":"","month":"2017-03"},{"category":"violent-crime","location_type":"Force","location":{"latitude":"51.551418","street":{"id":969205,"name":"On or near Argyle Road"},"longitude":"0.006540"},"context":"","outcome_status":{"category":"Investigation complete; no suspect identified","date":"2017-03"},"persistent_id":"56c3ed1674aed107d82ab33842171cda1bd386f6061b04a6e0ceb9a1a319f6a2","id":55549246,"location_subtype":"","month":"2017-03"},{"category":"violent-crime","location_type":"Force","location":{"latitude":"51.560907","street":{"id":971250,"name":"On or near Cobden Road"},"longitude":"0.009555"},"context":"","outcome_status":{"category":"Court result unavailable","date":"2018-01"},"persistent_id":"a9edcc4e97a96e190263bc21a8689fdff509af92dd9d4484a807af80b0378477","id":55549660,"location_subtype":"","month":"2017-03"},{"category":"other-crime","location_type":"Force","location":{"latitude":"51.554671","street":{"id":969081,"name":"On or near Tavistock Road"},"longitude":"0.011372"},"context":"","outcome_status":{"category":"Investigation complete; no suspect identified","date":"2017-03"},"persistent_id":"9b4e1c248bbf204b8c235f52f440d00f7da0d8e9426ab3073675652fe15d8ffc","id":55590943,"location_subtype":"","month":"2017-03"},{"category":"other-crime","location_type":"Force","location":{"latitude":"51.562167","street":{"id":971240,"name":"On or near Lancaster Road"},"longitude":"0.010577"},"context":"","outcome_status":{"category":"Offender sent to prison","date":"2017-07"},"persistent_id":"9158b28d123622521c3f21412d752dc453831d4a41ecf00e971daf65f6e20e93","id":55548879,"location_subtype":"","month":"2017-03"}]