[{"category":"anti-social-behaviour","location_type":"Force","location":{"latitude":"51.649362","street":{"id":986666,"name":"On or near Parking Area"},"longitude":"-0.192639"},"context":"","outcome_status":null,"persistent_id":"","id":55515726,"location_subtype":"","month":"2017-03"},{"category":"anti-social-behaviour","location_type":"Force","location":{"latitude":"51.652336","street":{"id":986802,"name":"On or near Sports\/recreation Area"},"longitude":"-0.248234"},"context":"","outcome_status":null,"persistent_id":"","id":55516319,"location_subtype":"","month":"2017-03"},{"category":"anti-social-behaviour","location_type":"Force","location":{"latitude":"51.657504","street":{"id":986818,"name":"On or near Sebright Road"},"longitude":"-0.208695"},"context":"","outcome_status":null,"persistent_id":"","id":55516001,"location_subtype":"","month":"2017-03"},{"category":"anti-social-behaviour","location_type":"Force","location":{"latitude":"51.658891","street":{"id":986831,"name":"On or near Calvert Road"},"longitude":"-0.209422"},"context":"","outcome_status":null,"persistent_id":"","id":55516000,"location_subtype":"","month":"2017-03"},{"category":"anti-social-behaviour","location_type":"Force","location":{"latitude":"51.648855","street":{"id":986696,"name":"On or near Quinta Drive"},"longitude":"-0.226006"},"context":"","outcome_status":null,"persistent_id":"","id":55516271,"location_subtype":"","month":"2017-03"},{"category":"anti-social-behaviour","location_type":"Force","location":{"latitude":"51.648855","street":{"id":986696,"name":"On or near Quinta Drive"},"longitude":"-0.226006"},"context":"","outcome_status":null,"persistent_id":"","id":55516270,"location_subtype":"","month":"2017-03"},{"category":"anti-social-behaviour","location_type":"Force","location":{"latitude":"51.650866","street":{"id":986627,"name":"On or near Bedford Avenue"},"longitude":"-0.196280"},"context":"","outcome_status":null,"persistent_id":"","id":55515756,"location_subtype":"","month":"2017-03"},{"category":"anti-social-behaviour","location_type":"Force","location":{"latitude":"51.653167","street":{"id":986888,"name":"On or near Park Road"},"longitude":"-0.196795"},"context":"","outcome_status":null,"persistent_id":"","id":55515755,"location_subtype":"","month":"2017-03"},{"category":"anti-social-behaviour","location_type":"Force","location":{"latitude":"51.651047","street":{"id":986648,"name":"On or near King Edward Road"},"longitude":"-0.187006"},"context":"","outcome_status":null,"persistent_id":"","id":55515703,"location_subtype":"","month":"2017-03"},{"category":"anti-social-behaviour","location_type":"Force","location":{"latitude":"51.651047","street":{"id":986648,"name":"On or near King Edward Road"},"longitude":"-0.187006"},"context":"","outcome_status":null,"persistent_id":"","id":55515702,"location_subtype":"","month":"2017-03"},{"category":"anti-social-behaviour","location_type":"Force","location":{"latitude":"51.650281","street":{"id":986502,"name":"On or near Plantagenet Road"},"longitude":"-0.178740"},"context":"","outcome_status":null,"persistent_id":"","id":55515679,"location_subtype":"","month":"2017-03"},{"category":"anti-social-behaviour","location_type":"Force","location":{"latitude":"51.657150","street":{"id":986896,"name":"On or near High Street"},"longitude":"-0.201452"},"context":"","outcome_status":null,"persistent_id":"","id":55515958,"location_subtype":"","month":"2017-03"},{"category":"anti-social-behaviour","location_type":"Force","location":{"latitude":"51.657150","street":{"id":986896,"name":"On or near High Street"},"longitude":"-0.201452"},"context":"","outcome_status":null,"persistent_id":"","id":55515957,"location_subtype":"","month":"2017-03"},{"category":"anti-social-behaviour","location_type":"Force","location":{"latitude":"51.653575","street":{"id":986881,"name":"On or near Victors Way"},"longitude":"-0.199324"},"context":"","outcome_status":null,"persistent_id":"","id":55515947,"location_subtype":"","month":"2017-03"},{"category":"anti-social-behaviour","location_type":"Force","location":{"latitude":"51.653575","street":{"id":986881,"name":"On or near Victors Way"},"longitude":"-0.199324"},"context":"","outcome_status":null,"persistent_id":"","id":55515940,"location_subtype":"","month":"2017-03"},{"category":"anti-social-behaviour","location_type":"Force","location":{"latitude":"51.662022","street":{"id":986904,"name":"On or near Convent Close"},"longitude":"-0.196617"},"context":"","outcome_status":null,"persistent_id":"","id":55515920,"location_subtype":"","month":"2017-03"},{"category":"anti-social-behaviour","location_type":"Force","location":{"latitude":"51.655469","street":{"id":986804,"name":"On or near Rowley Lane"},"longitude":"-0.249689"},"context":"","outcome_status":null,"persistent_id":"b0967c75a06b494bbd9e85bb4d2741cd4172d35891be4c279c18b08c0ee42844","id":55788130,"location_subtype":"","month":"2017-03"},{"category":"anti-social-behaviour","location_type":"Force","location":{"latitude":"51.654263","street":{"id":986891,"name":"On or near Moxon Street"},"longitude":"-0.199051"},"context":"","outcome_status":null,"persistent_id":"","id":55515936,"location_subtype":"","month":"2017-03"},{"category":"anti-social-behaviour","location_type":"Force","location":{"latitude":"51.654263","street":{"id":986891,"name":"On or near Moxon Street"},"longitude":"-0.199051"},"context":"","outcome_status":null,"persistent_id":"","id":55515935,"location_subtype":"","month":"2017-03"},{"category":"anti-social-behaviour","location_type":"Force","location":{"latitude":"51.657150","street":{"id":986896,"name":"On or near High Street"},"longitude":"-0.201452"},"context":"","outcome_status":null,"persistent_id":"","id":55515961,"location_subtype":"","month":"2017-03"},{"category":"anti-social-behaviour","location_type":"Force","location":{"latitude":"51.657150","street":{"id":986896,"name":"On or near High Street"},"longitude":"-0.201452"},"context":"","outcome_status":null,"persistent_id":"","id":55515960,"location_subtype":"","month":"2017-03"},{"category":"anti-social-behaviour","location_type":"Force","location":{"latitude":"51.657150","street":{"id":986896,"name":"On or near High Street"},"longitude":"-0.201452"},"context":"","outcome_status":null,"persistent_id":"","id":55515959,"location_subtype":"","month":"2017-03"},{"category":"anti-social-behaviour","location_type":"Force","location":{"latitude":"51.654425","street":{"id":986963,"name":"On or near Boleyn Way"},"longitude":"-0.177489"},"context":"","outcome_status":null,"persistent_id":"","id":55515673,"location_subtype":"","month":"2017-03"},{"category":"anti-social-behaviour","location_type":"Force","location":{"latitude":"51.653006","street":{"id":986810,"name":"On or near Coe's Alley"},"longitude":"-0.205649"},"context":"","outcome_status":null,"persistent_id":"","id":55515984,"location_subtype":"","month":"2017-03"},{"category":"anti-social-behaviour","location_type":"Force","location":{"latitude":"51.653006","street":{"id":986810,"name":"On or near Coe's Alley"},"longitude":"-0.205649"},"context":"","outcome_status":null,"persistent_id":"","id":55515983,"location_subtype":"","month":"2017-03"},{"category":"anti-social-behaviour","location_type":"Force","location":{"latitude":"51.657530","street":{"id":986829,"name":"On or near Cecil Court"},"longitude":"-0.211600"},"context":"","outcome_status":null,"persistent_id":"","id":55516021,"location_subtype":"","month":"2017-03"},{"category":"burglary","location_type":"Force","location":{"latitude":"51.648714","street":{"id":986642,"name":"On or near The Highlands"},"longitude":"-0.186709"},"context":"","outcome_status":{"category":"Status update unavailable","date":"2017-07"},"persistent_id":"8a6aff308187278aafe99bc9b2dd07922e50c18cffb77215df28a31425dc829e","id":55553760,"location_subtype":"","month":"2017-03"},{"category":"burglary","location_type":"Force","location":{"latitude":"51.657504","street":{"id":986818,"name":"On or near Sebright Road"},"longitude":"-0.208695"},"context":"","outcome_status":{"category":"Status update unavailable","date":"2017-07"},"persistent_id":"6e0169e46374604fd00586b59d6310678e68a6d825d2cb202982ddd73f74b441","id":55590996,"location_subtype":"","month":"2017-03"},{"category":"burglary","location_type":"Force","location":{"latitude":"51.656152","street":{"id":986910,"name":"On or near Bath Place"},"longitude":"-0.201448"},"context":"","outcome_status":{"category":"Status update unavailable","date":"2017-07"},"persistent_id":"e4b7f4cbb9b374bd74f502cee209c4da94b97c7cd706c1cadf13b8681034e72a","id":55592675,"location_subtype":"","month":"2017-03"},{"category":"burglary","location_type":"Force","location":{"latitude":"51.652451","street":{"id":986922,"name":"On or near Fitzjohn Avenue"},"longitude":"-0.198747"},"context":"","outcome_status":{"category":"Investigation complete; no suspect identified","date":"2017-04"},"persistent_id":"d658c5f05bac9cf0d35dd4632d7be40b27b5432152a73a9b34d16ce945aa9fb7","id":55587667,"location_subtype":"","month":"2017-03"},{"category":"burglary","location_type":"Force","location":{"latitude":"51.649570","street":{"id":986519,"name":"On or near Duncan Close"},"longitude":"-0.178161"},"context":"","outcome_status":{"category":"Status update unavailable","date":"2017-07"},"persistent_id":"77953201f1bf0ec3cba72feded1a5efacc0095f9447ecb0468c68712f18abd65","id":55587138,"location_subtype":"","month":"2017-03"},{"category":"burglary","location_type":"Force","location":{"latitude":"51.647390","street":{"id":986778,"name":"On or near Rowley Green Road"},"longitude":"-0.235604"},"context":"","outcome_status":{"category":"Investigation complete; no suspect identified","date":"2017-03"},"persistent_id":"e810562e9c17290f0811df31bb18e12a1c455e71ccbf2b24b43e173c722e1d68","id":55558915,"location_subtype":"","month":"2017-03"},{"category":"criminal-damage-arson","location_type":"Force","location":{"latitude":"51.651672","street":{"id":986966,"name":"On or near Stockton Close"},"longitude":"-0.175663"},"context":"","outcome_status":{"category":"Status update unavailable","date":"2017-07"},"persistent_id":"946ecba0fe502f5e90944b89be86f03273d9fbfdfb1681ae3ff72c711e1f98ca","id":55587278,"location_subtype":"","month":"2017-03"},{"category":"criminal-damage-arson","location_type":"Force","location":{"latitude":"51.658891","street":{"id":986831,"name":"On or near Calvert Road"},"longitude":"-0.209422"},"context":"","outcome_status":{"category":"Status update unavailable","date":"2017-07"},"persistent_id":"262cf519c82b4f454cbd13936ba5c1967f6320c15e8e1eb642bbcdb4848eab66","id":55587888,"location_subtype":"","month":"2017-03"},{"category":"criminal-damage-arson","location_type":"Force","location":{"latitude":"51.652557","street":{"id":986924,"name":"On or near Police Station"},"longitude":"-0.198063"},"context":"","outcome_status":{"category":"Court result unavailable","date":"2017-09"},"persistent_id":"29f997ad182290537f53528767d2a0dc7a0e1d32a71699c3277946e2b42235d5","id":55574077,"location_subtype":"","month":"2017-03"},{"category":"criminal-damage-arson","location_type":"Force","location":{"latitude":"51.656578","street":{"id":986817,"name":"On or near Strafford Road"},"longitude":"-0.205204"},"context":"","outcome_status":{"category":"Investigation complete; no suspect identified","date":"2017-05"},"persistent_id":"f29bb04a51cfef76b6461978e0fa5cfc50fa3fd977377d0b06a114914ac2db40","id":55556580,"location_subtype":"","month":"2017-03"},{"category":"criminal-damage-arson","location_type":"Force","location":{"latitude":"51.658569","street":{"id":986827,"name":"On or near Falkland Road"},"longitude":"-0.206037"},"context":"","outcome_status":{"category":"Investigation complete; no suspect identified","date":"2017-04"},"persistent_id":"0706aee653e5ebbee6e0a98fc791dab5bc888b80ed3010d5a7c147a2a989eae8","id":55556653,"location_subtype":"","month":"2017-03"},{"category":"criminal-damage-arson","location_type":"Force","location":{"latitude":"51.657214","street":{"id":986825,"name":"On or near Lucan Road"},"longitude":"-0.205064"},"context":"","outcome_status":{"category":"Status update unavailable","date":"2017-07"},"persistent_id":"8ac6b04e8fb3ac4acdf2b54b8ec175174a2f19896ae756c9742b0727847b349f","id":55607408,"location_subtype":"","month":"2017-03"},{"category":"criminal-damage-arson","location_type":"Force","location":{"latitude":"51.654068","street":{"id":986842,"name":"On or near Grimsdyke Crescent"},"longitude":"-0.220483"},"context":"","outcome_status":{"category":"Status update unavailable","date":"2017-07"},"persistent_id":"94a28f437fe216b1e4b3a11a1ef1611e43e6ca5b1c47ce72fc4dd074f169f976","id":55559457,"location_subtype":"","month":"2017-03"},{"category":"criminal-damage-arson","location_type":"Force","location":{"latitude":"51.655469","street":{"id":986804,"name":"On or near Rowley Lane"},"longitude":"-0.249689"},"context":"","outcome_status":{"category":"Unable to prosecute suspect","date":"2017-03"},"persistent_id":"abecc4619a252aadadd9cd24358d67ead1cec243564f985f097795149eb786f8","id":55789961,"location_subtype":"","month":"2017-03"},{"category":"drugs","location_type":"Force","location":{"latitude":"51.654263","street":{"id":986891,"name":"On or near Moxon Street"},"longitude":"-0.199051"},"context":"","outcome_status":{"category":"Offender given a drugs possession warning","date":"2017-05"},"persistent_id":"d3cbcca201cd1cf1139b80d24d7180b5b8f20afff72a4ec84f1048b57b6d4a86","id":55580545,"location_subtype":"","month":"2017-03"},{"category":"other-theft","location_type":"Force","location":{"latitude":"51.651726","street":{"id":986701,"name":"On or near Kerri Close"},"longitude":"-0.221413"},"context":"","outcome_status":{"category":"Status update unavailable","date":"2017-07"},"persistent_id":"bf91282d047984632b07ea5e1066b5ddaa028fc1a8ed240a3c296d8a71a67687","id":55599382,"location_subtype":"","month":"2017-03"},{"category":"other-theft","location_type":"Force","location":{"latitude":"51.655423","street":{"id":986864,"name":"On or near Hurst Rise"},"longitude":"-0.189145"},"context":"","outcome_status":{"category":"Investigation complete; no suspect identified","date":"2017-03"},"persistent_id":"a098afaea4144c77ecc438b3259aa2b25ced06bb5a7f75b40f0ca0f4b757bb66","id":55588308,"location_subtype":"","month":"2017-03"},{"category":"other-theft","location_type":"Force","location":{"latitude":"51.653813","street":{"id":986884,"name":"On or near Tapster Street"},"longitude":"-0.200225"},"context":"","outcome_status":{"category":"Investigation complete; no suspect identified","date":"2017-03"},"persistent_id":"bf08b7b7bd781f7d4b66875b288056ff52edd2e56fa3b874a647cfdc23a41e3d","id":55583689,"location_subtype":"","month":"2017-03"},{"category":"other-theft","location_type":"Force","location":{"latitude":"51.654545","street":{"id":986895,"name":"On or near High Street"},"longitude":"-0.201642"},"context":"","outcome_status":{"category":"Status update unavailable","date":"2017-07"},"persistent_id":"8c0721d2c7e528d0cbf594a0790cd877159273c7b7ff69423df60ded9b0b41d9","id":55567694,"location_subtype":"","month":"2017-03"},{"category":"other-theft","location_type":"Force","location":{"latitude":"51.656742","street":{"id":986909,"name":"On or near Belgravia Close"},"longitude":"-0.200629"},"context":"","outcome_status":{"category":"Investigation complete; no suspect identified","date":"2017-05"},"persistent_id":"f4597b694c4b3911656edf795cf16570cdab891b1521cb909fe9106edcdaf15b","id":55552107,"location_subtype":"","month":"2017-03"},{"category":"other-theft","location_type":"Force","location":{"latitude":"51.649701","street":{"id":986501,"name":"On or near Preston Court"},"longitude":"-0.176710"},"context":"","outcome_status":{"category":"Investigation complete; no suspect identified","date":"2017-03"},"persistent_id":"5092458d5b6df24b7e71fd990a6bc9420a5f772164521ef053d48d2250984749","id":55538356,"location_subtype":"","month":"2017-03"},{"category":"other-theft","location_type":"Force","location":{"latitude":"51.653053","street":{"id":986960,"name":"On or near Cromer Road"},"longitude":"-0.178339"},"context":"","outcome_status":{"category":"Investigation complete; no suspect identified","date":"2017-03"},"persistent_id":"8ef0b984f64eb94812ff89a45444b2cf38088f3e67b5d7d0845ab32f88380672","id":55586889,"location_subtype":"","month":"2017-03"},{"category":"other-theft","location_type":"Force","location":{"latitude":"51.650281","street":{"id":986502,"name":"On or near Plantagenet Road"},"longitude":"-0.178740"},"context":"","outcome_status":{"category":"Offender given suspended prison sentence","date":"2017-10"},"persistent_id":"bf313ad50898813d7dcaf062fe0ff49a5a66846eb15abcf42b887eddb6534868","id":55597790,"location_subtype":"","month":"2017-03"},{"category":"other-theft","location_type":"Force","location":{"latitude":"51.655735","street":{"id":986913,"name":"On or near Shopping Area"},"longitude":"-0.203575"},"context":"","outcome_status":{"category":"Offender given a caution","date":"2017-11"},"persistent_id":"0f127dc988422ba88743d265c7b873f60b85d995ce5b2cd9d0c420a9c31d0481","id":55606076,"location_subtype":"","month":"2017-03"},{"category":"public-order","location_type":"BTP","location":{"latitude":"51.650440","street":{"id":1489762,"name":"High Barnet (lu Station)"},"longitude":"-0.193131"},"context":"","outcome_status":{"category":"Status update unavailable","date":"2017-07"},"persistent_id":"","id":66364995,"location_subtype":"LU STATION","month":"2017-03"},{"category":"public-order","location_type":"Force","location":{"latitude":"51.652057","street":{"id":986921,"name":"On or near Gordon Way"},"longitude":"-0.197085"},"context":"","outcome_status":{"category":"Investigation complete; no suspect identified","date":"2017-04"},"persistent_id":"94d484cb8f0f9863191e2228e0afd4a0bc363814a61bf832a1104d2ca5ae4989","id":55607182,"location_subtype":"","month":"2017-03"},{"category":"public-order","location_type":"Force","location":{"latitude":"51.654782","street":{"id":986914,"name":"On or near Supermarket"},"longitude":"-0.201227"},"context":"","outcome_status":{"category":"Investigation complete; no suspect identified","date":"2017-04"},"persistent_id":"697c04b91eb91856b201eb2667379a50dde49a9e8a80208589f45a3af01a8a0e","id":55564668,"location_subtype":"","month":"2017-03"},{"category":"public-order","location_type":"Force","location":{"latitude":"51.653813","street":{"id":986884,"name":"On or near Tapster Street"},"longitude":"-0.200225"},"context":"","outcome_status":{"category":"Investigation complete; no suspect identified","date":"2017-04"},"persistent_id":"1b5a2d7ab74a8ff250f141e9fe62dadd1821adf1d81dca9ce8b4284ac4ed6836","id":55588001,"location_subtype":"","month":"2017-03"},{"category":"public-order","location_type":"Force","location":{"latitude":"51.653575","street":{"id":986881,"name":"On or near Victors Way"},"longitude":"-0.199324"},"context":"","outcome_status":{"category":"Investigation complete; no suspect identified","date":"2017-03"},"persistent_id":"169d42c2cf6797b7e2e31945d092e7f7785a2e6609f316f8a20749b9adcfcd7d","id":55583492,"location_subtype":"","month":"2017-03"},{"category":"robbery","location_type":"Force","location":{"latitude":"51.649571","street":{"id":986510,"name":"On or near Leicester Road"},"longitude":"-0.181702"},"context":"","outcome_status":{"category":"Investigation complete; no suspect identified","date":"2017-04"},"persistent_id":"4c754c2047574a1ce2f1d41e873a3efcdffb75f0f948354d2cca1f6159586f48","id":55604321,"location_subtype":"","month":"2017-03"},{"category":"robbery","location_type":"Force","location":{"latitude":"51.652811","street":{"id":986853,"name":"On or near Meadway Close"},"longitude":"-0.192357"},"context":"","outcome_status":{"category":"Investigation complete; no suspect identified","date":"2017-04"},"persistent_id":"a3e314e47ece78b7083c5fd87b6789d45fc92a59467a99b797ebe1564558dc96","id":55596487,"location_subtype":"","month":"2017-03"},{"category":"shoplifting","location_type":"Force","location":{"latitude":"51.656152","street":{"id":986910,"name":"On or near Bath Place"},"longitude":"-0.201448"},"context":"","outcome_status":{"category":"Court result unavailable","date":"2017-10"},"persistent_id":"3f6b8de7939475cf046709075f90cfd88f2f63bdf2debdaff444e9a444257e2e","id":55565715,"location_subtype":"","month":"2017-03"},{"category":"shoplifting","location_type":"Force","location":{"latitude":"51.654782","street":{"id":986914,"name":"On or near Supermarket"},"longitude":"-0.201227"},"context":"","outcome_status":{"category":"Court result unavailable","date":"2017-10"},"persistent_id":"df04d30fd70569ac61992024d00b374cc56b8ea539a675f5c286ae9b4cfe085e","id":55595203,"location_subtype":"","month":"2017-03"},{"category":"shoplifting","location_type":"Force","location":{"latitude":"51.656152","street":{"id":986910,"name":"On or near Bath Place"},"longitude":"-0.201448"},"context":"","outcome_status":{"category":"Investigation complete; no suspect identified","date":"2017-04"},"persistent_id":"47b8d0ff8b2734099e1d754ad13f7571bb3365904182b7a2dd1a23c51e97798e","id":55567110,"location_subtype":"","month":"2017-03"},{"category":"shoplifting","location_type":"Force","location":{"latitude":"51.656152","street":{"id":986910,"name":"On or near Bath Place"},"longitude":"-0.201448"},"context":"","outcome_status":{"category":"Investigation complete; no suspect identified","date":"2017-05"},"persistent_id":"5e703fcbb4e074c6929b3ab56a7c440af16a275490fe524c0ec57093fab3a654","id":55583349,"location_subtype":"","month":"2017-03"},{"category":"shoplifting","location_type":"Force","location":{"latitude":"51.656152","street":{"id":986910,"name":"On or near Bath Place"},"longitude":"-0.201448"},"context":"","outcome_status":{"category":"Investigation complete; no suspect identified","date":"2017-05"},"persistent_id":"82e6e01be5f6656342837602e22f72d818e81fc3ac53816cc2a5783659612e4e","id":55580570,"location_subtype":"","month":"2017-03"},{"category":"shoplifting","location_type":"Force","location":{"latitude":"51.656152","street":{"id":986910,"name":"On or near Bath Place"},"longitude":"-0.201448"},"context":"","outcome_status":{"category":"Status update unavailable","date":"2017-07"},"persistent_id":"e7986f729093c101af03cdab74b3a8e7dac3918c0f3b34047d29427ede0ca398","id":55591289,"location_subtype":"","month":"2017-03"},{"category":"shoplifting","location_type":"Force","location":{"latitude":"51.655735","street":{"id":986913,"name":"On or near Shopping Area"},"longitude":"-0.203575"},"context":"","outcome_status":{"category":"Investigation complete; no suspect identified","date":"2017-04"},"persistent_id":"2f4471aa8681a0cbc79fb0d427b0dcd528a0cc33e112bb06eaeb1b798fa71a26","id":55600135,"location_subtype":"","month":"2017-03"},{"category":"shoplifting","location_type":"Force","location":{"latitude":"51.654545","street":{"id":986895,"name":"On or near High Street"},"longitude":"-0.201642"},"context":"","outcome_status":{"category":"Investigation complete; no suspect identified","date":"2017-04"},"persistent_id":"c6f19191e563de309539a51f54d74627028ed6221c472c5ce547ae523077db92","id":55588536,"location_subtype":"","month":"2017-03"},{"category":"shoplifting","location_type":"Force","location":{"latitude":"51.653225","street":{"id":986911,"name":"On or near Theatre\/concert Hall"},"longitude":"-0.200002"},"context":"","outcome_status":{"category":"Investigation complete; no suspect identified","date":"2017-03"},"persistent_id":"47fd10f393dd13f1a28af1fe0d6fad88e2cb1b29036b755892aa9f0d52675993","id":55532192,"location_subtype":"","month":"2017-03"},{"category":"shoplifting","location_type":"Force","location":{"latitude":"51.654782","street":{"id":986914,"name":"On or near Supermarket"},"longitude":"-0.201227"},"context":"","outcome_status":{"category":"Status update unavailable","date":"2017-07"},"persistent_id":"697c04b91eb91856b201eb2667379a50dde49a9e8a80208589f45a3af01a8a0e","id":55562000,"location_subtype":"","month":"2017-03"},{"category":"shoplifting","location_type":"Force","location":{"latitude":"51.656152","street":{"id":986910,"name":"On or near Bath Place"},"longitude":"-0.201448"},"context":"","outcome_status":{"category":"Investigation complete; no suspect identified","date":"2017-03"},"persistent_id":"5d8c4e751466efffd695602ce4945cbe849be6a25352d8e4077665a90a206f40","id":55587554,"location_subtype":"","month":"2017-03"},{"category":"theft-from-the-person","location_type":"Force","location":{"latitude":"51.650866","street":{"id":986627,"name":"On or near Bedford Avenue"},"longitude":"-0.196280"},"context":"","outcome_status":{"category":"Investigation complete; no suspect identified","date":"2017-04"},"persistent_id":"02da3178a0995d569a8808d113713f2fdc212a1ae70bc0d0147921c46a901c5a","id":55601717,"location_subtype":"","month":"2017-03"},{"category":"theft-from-the-person","location_type":"Force","location":{"latitude":"51.650866","street":{"id":986627,"name":"On or near Bedford Avenue"},"longitude":"-0.196280"},"context":"","outcome_status":{"category":"Status update unavailable","date":"2017-07"},"persistent_id":"08ddc69a186d1d0db47dae1ceae68e03765bcdb7f2ef79e18625d133d93c7c41","id":55587001,"location_subtype":"","month":"2017-03"},{"category":"theft-from-the-person","location_type":"Force","location":{"latitude":"51.655735","street":{"id":986913,"name":"On or near Shopping Area"},"longitude":"-0.203575"},"context":"","outcome_status":{"category":"Investigation complete; no suspect identified","date":"2017-03"},"persistent_id":"137bc64b38d71c699edd172bbefd37ddae563b467d154daba307c8a6659f8929","id":55583971,"location_subtype":"","month":"2017-03"},{"category":"theft-from-the-person","location_type":"BTP","location":{"latitude":"51.650440","street":{"id":1489762,"name":"High Barnet (lu Station)"},"longitude":"-0.193131"},"context":"","outcome_status":{"category":"Status update unavailable","date":"2017-07"},"persistent_id":"","id":66364996,"location_subtype":"LU STATION","month":"2017-03"},{"category":"vehicle-crime","location_type":"Force","location":{"latitude":"51.658891","street":{"id":986831,"name":"On or near Calvert Road"},"longitude":"-0.209422"},"context":"","outcome_status":{"category":"Status update unavailable","date":"2017-07"},"persistent_id":"61a49d374a7f95ae76c597c0911a385fb0add2cba83f9dfef8d769343c32f380","id":55583720,"location_subtype":"","month":"2017-03"},{"category":"vehicle-crime","location_type":"Force","location":{"latitude":"51.652831","street":{"id":986964,"name":"On or near Sports\/recreation Area"},"longitude":"-0.180242"},"context":"","outcome_status":{"category":"Status update unavailable","date":"2017-07"},"persistent_id":"f3d154c3cf07ecf0a490891e377c0fecd9df495a9d9ddbb399e721b6dd40ef6d","id":55587357,"location_subtype":"","month":"2017-03"},{"category":"vehicle-crime","location_type":"Force","location":{"latitude":"51.650866","street":{"id":986627,"name":"On or near Bedford Avenue"},"longitude":"-0.196280"},"context":"","outcome_status":{"category":"Investigation complete; no suspect identified","date":"2017-03"},"persistent_id":"1f8701154b211883f2f30904f7a3f5311a92040584382ba75e827a7c6cd3ea06","id":55560611,"location_subtype":"","month":"2017-03"},{"category":"vehicle-crime","location_type":"Force","location":{"latitude":"51.654225","street":{"id":986869,"name":"On or near Bosworth Road"},"longitude":"-0.187227"},"context":"","outcome_status":{"category":"Status update unavailable","date":"2017-07"},"persistent_id":"12254783c2e0b559fdee15737013750df72230cbd7b24985417d2620745bde45","id":55553543,"location_subtype":"","month":"2017-03"},{"category":"vehicle-crime","location_type":"Force","location":{"latitude":"51.650936","street":{"id":986513,"name":"On or near Hastings Close"},"longitude":"-0.176950"},"context":"","outcome_status":{"category":"Investigation complete; no suspect identified","date":"2017-04"},"persistent_id":"1455b7faf3b76df74ad7f53e12951525b4d4b4a0f7f88e15fef3ae29632fab48","id":55593902,"location_subtype":"","month":"2017-03"},{"category":"vehicle-crime","location_type":"Force","location":{"latitude":"51.657267","street":{"id":986862,"name":"On or near Latimer Road"},"longitude":"-0.185067"},"context":"","outcome_status":{"category":"Status update unavailable","date":"2017-07"},"persistent_id":"a3db207e77c56ec8768f61e361290df6d4aa1b0a8d1f65ca2ab29997f82317ca","id":55590248,"location_subtype":"","month":"2017-03"},{"category":"vehicle-crime","location_type":"Force","location":{"latitude":"51.653813","street":{"id":986884,"name":"On or near Tapster Street"},"longitude":"-0.200225"},"context":"","outcome_status":{"category":"Status update unavailable","date":"2017-07"},"persistent_id":"abf6c431a7a5ed246ddae562ce3eb92cb30847680c6ae47d28a1cd0f766cd6d1","id":55598919,"location_subtype":"","month":"2017-03"},{"category":"vehicle-crime","location_type":"Force","location":{"latitude":"51.654768","street":{"id":986815,"name":"On or near The Drive"},"longitude":"-0.206779"},"context":"","outcome_status":{"category":"Status update unavailable","date":"2017-07"},"persistent_id":"c13e8591acf754ecea138c0d9bbbb2b18f14938817c3aa5ea773999b87dff187","id":55597729,"location_subtype":"","month":"2017-03"},{"category":"vehicle-crime","location_type":"Force","location":{"latitude":"51.649362","street":{"id":986666,"name":"On or near Parking Area"},"longitude":"-0.192639"},"context":"","outcome_status":{"category":"Investigation complete; no suspect identified","date":"2017-03"},"persistent_id":"a5044ca0f64abb96970031f42a46ec65e31972ae1126434c20571de2984ac899","id":55602345,"location_subtype":"","month":"2017-03"},{"category":"vehicle-crime","location_type":"Force","location":{"latitude":"51.654966","street":{"id":986835,"name":"On or near Sports\/recreation Area"},"longitude":"-0.211542"},"context":"","outcome_status":{"category":"Status update unavailable","date":"2017-07"},"persistent_id":"7bbbab3ef2b9277e279230b7a5b68fdc7a8cb1405b61473d1bae72894af310de","id":55584311,"location_subtype":"","month":"2017-03"},{"category":"violent-crime","location_type":"Force","location":{"latitude":"51.656003","street":{"id":986856,"name":"On or near Vincent Close"},"longitude":"-0.185898"},"context":"","outcome_status":{"category":"Investigation complete; no suspect identified","date":"2017-05"},"persistent_id":"e23954060dbb5e06e1e44c813fd4d83743fc272e5969faf8a82866d945fe9e36","id":55588758,"location_subtype":"","month":"2017-03"},{"category":"violent-crime","location_type":"Force","location":{"latitude":"51.652777","street":{"id":986950,"name":"On or near Shaftesbury Avenue"},"longitude":"-0.177367"},"context":"","outcome_status":{"category":"Investigation complete; no suspect identified","date":"2017-05"},"persistent_id":"b3ed44e3f78fd2b402a29026f5849f56a60785b38205ec5240d12a96acdb3e4b","id":55597995,"location_subtype":"","month":"2017-03"},{"category":"violent-crime","location_type":"Force","location":{"latitude":"51.652057","street":{"id":986921,"name":"On or near Gordon Way"},"longitude":"-0.197085"},"context":"","outcome_status":{"category":"Status update unavailable","date":"2017-07"},"persistent_id":"d6a010ef1ebeddc9e72ec587f5fc91e77451f42231e56faba6abf95d8e2285c8","id":55560212,"location_subtype":"","month":"2017-03"},{"category":"violent-crime","location_type":"Force","location":{"latitude":"51.658227","street":{"id":986949,"name":"On or near The Spinney"},"longitude":"-0.182064"},"context":"","outcome_status":{"category":"Status update unavailable","date":"2017-07"},"persistent_id":"29d985eb46625bdaaa8b7db0cf70808d07643aea7eb6f473ecb528528a385416","id":55605525,"location_subtype":"","month":"2017-03"},{"category":"violent-crime","location_type":"Force","location":{"latitude":"51.650284","street":{"id":986639,"name":"On or near Warwick Road"},"longitude":"-0.184189"},"context":"","outcome_status":{"category":"Investigation complete; no suspect identified","date":"2018-02"},"persistent_id":"07d17d97a25878abb8631edde672efcf6b4b7ae79071b08428a6e8ba151dbd4b","id":55559157,"location_subtype":"","month":"2017-03"},{"category":"violent-crime","location_type":"Force","location":{"latitude":"51.654392","street":{"id":986844,"name":"On or near Kings Road"},"longitude":"-0.217536"},"context":"","outcome_status":{"category":"Status update unavailable","date":"2017-07"},"persistent_id":"72208655b1da0f06ea65c2d802665fd15457b99e99e182cd234709e2509d7347","id":55556719,"location_subtype":"","month":"2017-03"},{"category":"violent-crime","location_type":"Force","location":{"latitude":"51.655304","street":{"id":986915,"name":"On or near Supermarket"},"longitude":"-0.203057"},"context":"","outcome_status":{"category":"Investigation complete; no suspect identified","date":"2017-04"},"persistent_id":"c5401b082710adbae6bba3c45f27c05cd9c80aa079a42cece831405db5896807","id":55603724,"location_subtype":"","month":"2017-03"},{"category":"violent-crime","location_type":"Force","location":{"latitude":"51.653813","street":{"id":986884,"name":"On or near Tapster Street"},"longitude":"-0.200225"},"context":"","outcome_status":{"category":"Investigation complete; no suspect identified","date":"2017-05"},"persistent_id":"3607834180fd3867b92981a169e281ce573e18bbb403b271d34a90700c96c4cf","id":55608118,"location_subtype":"","month":"2017-03"},{"category":"violent-crime","location_type":"Force","location":{"latitude":"51.658569","street":{"id":986827,"name":"On or near Falkland Road"},"longitude":"-0.206037"},"context":"","outcome_status":{"category":"Investigation complete; no suspect identified","date":"2017-04"},"persistent_id":"1ffcc0df73a3793a0ad417e2658bbec6b50d1b8f3e63423df608b4a0fef86548","id":55556772,"location_subtype":"","month":"2017-03"},{"category":"violent-crime","location_type":"Force","location":{"latitude":"51.655293","street":{"id":986820,"name":"On or near Regina Close"},"longitude":"-0.213525"},"context":"","outcome_status":{"category":"Investigation complete; no suspect identified","date":"2017-05"},"persistent_id":"b80ed7416e68835171d5f805e057b255bcd8e524dbb8aa9f1d084bee181e8ad5","id":55591672,"location_subtype":"","month":"2017-03"},{"category":"violent-crime","location_type":"Force","location":{"latitude":"51.652875","street":{"id":986861,"name":"On or near Martins Mount"},"longitude":"-0.187136"},"context":"","outcome_status":{"category":"Investigation complete; no suspect identified","date":"2017-04"},"persistent_id":"5b22a9ef3c1d763e918291c105a3529e9146e150b5fc195273af5ebfc711e6da","id":55598652,"location_subtype":"","month":"2017-03"},{"category":"violent-crime","location_type":"Force","location":{"latitude":"51.651813","street":{"id":986967,"name":"On or near Hexham Road"},"longitude":"-0.181295"},"context":"","outcome_status":{"category":"Investigation complete; no suspect identified","date":"2017-08"},"persistent_id":"ccb2dee285fe5219b51877e80af5125e0fd197d4f72d10f8779d139215a1d5b0","id":55574312,"location_subtype":"","month":"2017-03"},{"category":"violent-crime","location_type":"Force","location":{"latitude":"51.649571","street":{"id":986510,"name":"On or near Leicester Road"},"longitude":"-0.181702"},"context":"","outcome_status":{"category":"Investigation complete; no suspect identified","date":"2017-04"},"persistent_id":"ae53200f29a0d3493541e7e8745372d93ca20212946d8de15cfb17bcbe9ac047","id":55552467,"location_subtype":"","month":"2017-03"},{"category":"violent-crime","location_type":"Force","location":{"latitude":"51.650745","street":{"id":986707,"name":"On or near Field End"},"longitude":"-0.223735"},"context":"","outcome_status":{"category":"Court result unavailable","date":"2017-09"},"persistent_id":"900d91ee928e16156e656ad81c695fa8f327e5946c5f102ee9f810bd4478583b","id":55538522,"location_subtype":"","month":"2017-03"},{"category":"violent-crime","location_type":"Force","location":{"latitude":"51.652777","street":{"id":986950,"name":"On or near Shaftesbury Avenue"},"longitude":"-0.177367"},"context":"","outcome_status":{"category":"Investigation complete; no suspect identified","date":"2018-02"},"persistent_id":"14ef79a4bc692a0bc3ee4b83c004c4aadc77dd6f0aa49575de49f3b028a4e519","id":55581487,"location_subtype":"","month":"2017-03"},{"category":"violent-crime","location_type":"Force","location":{"latitude":"51.657150","street":{"id":986896,"name":"On or near High Street"},"longitude":"-0.201452"},"context":"","outcome_status":{"category":"Investigation complete; no suspect identified","date":"2017-04"},"persistent_id":"03c6bce46b24b0539871b30b5da2d54ec1016328a04e04da02b253983056d17f","id":55536981,"location_subtype":"","month":"2017-03"},{"category":"violent-crime","location_type":"Force","location":{"latitude":"51.653885","street":{"id":986876,"name":"On or near Parking Area"},"longitude":"-0.199615"},"context":"","outcome_status":{"category":"Investigation complete; no suspect identified","date":"2017-05"},"persistent_id":"cf2a9ffbaa0a51a628c0bd34cda1b8a7aaefbfca9b06dae82d251c0c6e605a6a","id":55587699,"location_subtype":"","month":"2017-03"},{"category":"violent-crime","location_type":"Force","location":{"latitude":"51.651813","street":{"id":986967,"name":"On or near Hexham Road"},"longitude":"-0.181295"},"context":"","outcome_status":{"category":"Investigation complete; no suspect identified","date":"2017-03"},"persistent_id":"83909f233917deebb95448baf729d2370bc25150978067c5b07b88013ef3995c","id":55598615,"location_subtype":"","month":"2017-03"},{"category":"violent-crime","location_type":"Force","location":{"latitude":"51.653885","street":{"id":986876,"name":"On or near Parking Area"},"longitude":"-0.199615"},"context":"","outcome_status":{"category":"Status update unavailable","date":"2017-07"},"persistent_id":"cf2a9ffbaa0a51a628c0bd34cda1b8a7aaefbfca9b06dae82d251c0c6e605a6a","id":55587698,"location_subtype":"","month":"2017-03"},{"category":"violent-crime","location_type":"Force","location":{"latitude":"51.657214","street":{"id":986825,"name":"On or near Lucan Road"},"longitude":"-0.205064"},"context":"","outcome_status":{"category":"Status update unavailable","date":"2017-07"},"persistent_id":"971e90422b7040aa7b1fe302a02998684da5136fcbb95070ba8c2a49c2db1b89","id":55602088,"location_subtype":"","month":"2017-03"},{"category":"violent-crime","location_type":"Force","location":{"latitude":"51.650284","street":{"id":986639,"name":"On or near Warwick Road"},"longitude":"-0.184189"},"context":"","outcome_status":{"category":"Investigation complete; no suspect identified","date":"2017-09"},"persistent_id":"7244a4aee28f5847f34e943d06ed59b1f8910b0e8d3bcb29a0537112c2558f08","id":55563047,"location_subtype":"","month":"2017-03"},{"category":"violent-crime","location_type":"Force","location":{"latitude":"51.653901","street":{"id":986912,"name":"On or near Shopping Area"},"longitude":"-0.197186"},"context":"","outcome_status":{"category":"Status update unavailable","date":"2017-07"},"persistent_id":"50a3f51bf5dc14a8a39faa77474c3049bfae327ab253e1d9d438070dd836deac","id":55584802,"location_subtype":"","month":"2017-03"},{"category":"violent-crime","location_type":"Force","location":{"latitude":"51.653885","street":{"id":986876,"name":"On or near Parking Area"},"longitude":"-0.199615"},"context":"","outcome_status":{"category":"Status update unavailable","date":"2017-07"},"persistent_id":"cf2a9ffbaa0a51a628c0bd34cda1b8a7aaefbfca9b06dae82d251c0c6e605a6a","id":55587650,"location_subtype":"","month":"2017-03"},{"category":"violent-crime","location_type":"Force","location":{"latitude":"51.655304","street":{"id":986915,"name":"On or near Supermarket"},"longitude":"-0.203057"},"context":"","outcome_status":{"category":"Investigation complete; no suspect identified","date":"2017-09"},"persistent_id":"89caaa451a421e67b81d2b50ef28d3992f09235ee59629fa6622419bdef811ae","id":55576940,"location_subtype":"","month":"2017-03"},{"category":"violent-crime","location_type":"Force","location":{"latitude":"51.654833","street":{"id":986959,"name":"On or near Galdana Avenue"},"longitude":"-0.176591"},"context":"","outcome_status":{"category":"Investigation complete; no suspect identified","date":"2017-03"},"persistent_id":"fe97b1b92f61ec4317c103bf20cec852d2b935f9e982de4d6dbeab26c4afb121","id":55569793,"location_subtype":"","month":"2017-03"},{"category":"violent-crime","location_type":"Force","location":{"latitude":"51.650936","street":{"id":986513,"name":"On or near Hastings Close"},"longitude":"-0.176950"},"context":"","outcome_status":{"category":"Investigation complete; no suspect identified","date":"2017-03"},"persistent_id":"b382964c275397889dd068db79ae465eb81aa227fc18339c4c0ed17ebb9adc43","id":55568379,"location_subtype":"","month":"2017-03"},{"category":"violent-crime","location_type":"Force","location":{"latitude":"51.662397","street":{"id":986903,"name":"On or near Dury Road"},"longitude":"-0.197615"},"context":"","outcome_status":{"category":"Investigation complete; no suspect identified","date":"2017-04"},"persistent_id":"fc263c36e31447eb334b160974804785c6cbccc0c8426fbebba66a759fbed8e6","id":55567716,"location_subtype":"","month":"2017-03"},{"category":"violent-crime","location_type":"Force","location":{"latitude":"51.658569","street":{"id":986827,"name":"On or near Falkland Road"},"longitude":"-0.206037"},"context":"","outcome_status":{"category":"Investigation complete; no suspect identified","date":"2017-04"},"persistent_id":"636b234a6aab20b115479cd230a42f71ebcd01c8fa77f17752cc3863f73d2b6d","id":55602739,"location_subtype":"","month":"2017-03"},{"category":"violent-crime","location_type":"Force","location":{"latitude":"51.653813","street":{"id":986884,"name":"On or near Tapster Street"},"longitude":"-0.200225"},"context":"","outcome_status":{"category":"Investigation complete; no suspect identified","date":"2017-04"},"persistent_id":"7982bb902b03f8e6a362a0728a506e891d977438a117843038017a1da3d63f81","id":55604503,"location_subtype":"","month":"2017-03"},{"category":"other-crime","location_type":"Force","location":{"latitude":"51.654545","street":{"id":986895,"name":"On or near High Street"},"longitude":"-0.201642"},"context":"","outcome_status":{"category":"Investigation complete; no suspect identified","date":"2017-05"},"persistent_id":"0555601ce99e8371320c05272bed92a61cc2d79139eec7a5027d55b0d5acdfec","id":55605479,"location_subtype":"","month":"2017-03"}]