[{"category":"anti-social-behaviour","location_type":"Force","location":{"latitude":"51.465712","street":{"id":943917,"name":"On or near Dalmeny Crescent"},"longitude":"-0.350682"},"context":"","outcome_status":null,"persistent_id":"","id":60207103,"location_subtype":"","month":"2017-09"},{"category":"anti-social-behaviour","location_type":"Force","location":{"latitude":"51.465712","street":{"id":943917,"name":"On or near Dalmeny Crescent"},"longitude":"-0.350682"},"context":"","outcome_status":null,"persistent_id":"","id":60207104,"location_subtype":"","month":"2017-09"},{"category":"anti-social-behaviour","location_type":"Force","location":{"latitude":"51.468189","street":{"id":943936,"name":"On or near Gibson Close"},"longitude":"-0.345899"},"context":"","outcome_status":null,"persistent_id":"","id":60207093,"location_subtype":"","month":"2017-09"},{"category":"anti-social-behaviour","location_type":"Force","location":{"latitude":"51.460520","street":{"id":944057,"name":"On or near Lanigan Drive"},"longitude":"-0.363983"},"context":"","outcome_status":null,"persistent_id":"","id":60207158,"location_subtype":"","month":"2017-09"},{"category":"anti-social-behaviour","location_type":"Force","location":{"latitude":"51.460412","street":{"id":943896,"name":"On or near Park Road"},"longitude":"-0.358157"},"context":"","outcome_status":null,"persistent_id":"","id":60207133,"location_subtype":"","month":"2017-09"},{"category":"anti-social-behaviour","location_type":"Force","location":{"latitude":"51.464924","street":{"id":943908,"name":"On or near Heath Road"},"longitude":"-0.352841"},"context":"","outcome_status":null,"persistent_id":"","id":60207113,"location_subtype":"","month":"2017-09"},{"category":"anti-social-behaviour","location_type":"Force","location":{"latitude":"51.460257","street":{"id":943892,"name":"On or near Rosebery Road"},"longitude":"-0.353499"},"context":"","outcome_status":null,"persistent_id":"","id":60207114,"location_subtype":"","month":"2017-09"},{"category":"anti-social-behaviour","location_type":"Force","location":{"latitude":"51.464924","street":{"id":943908,"name":"On or near Heath Road"},"longitude":"-0.352841"},"context":"","outcome_status":null,"persistent_id":"","id":60207112,"location_subtype":"","month":"2017-09"},{"category":"anti-social-behaviour","location_type":"Force","location":{"latitude":"51.464924","street":{"id":943908,"name":"On or near Heath Road"},"longitude":"-0.352841"},"context":"","outcome_status":null,"persistent_id":"","id":60207111,"location_subtype":"","month":"2017-09"},{"category":"anti-social-behaviour","location_type":"Force","location":{"latitude":"51.462648","street":{"id":923956,"name":"On or near Norbury Avenue"},"longitude":"-0.351556"},"context":"","outcome_status":null,"persistent_id":"","id":60207106,"location_subtype":"","month":"2017-09"},{"category":"anti-social-behaviour","location_type":"Force","location":{"latitude":"51.460882","street":{"id":943891,"name":"On or near Southland Way"},"longitude":"-0.351288"},"context":"","outcome_status":null,"persistent_id":"","id":60207105,"location_subtype":"","month":"2017-09"},{"category":"bicycle-theft","location_type":"Force","location":{"latitude":"51.457448","street":{"id":943964,"name":"On or near Kneller Gardens"},"longitude":"-0.350088"},"context":"","outcome_status":{"category":"Status update unavailable","date":"2018-01"},"persistent_id":"aec408c214198f01c9a366493d2739bbf7f9d992c1bcce8de554cac58201269f","id":60266168,"location_subtype":"","month":"2017-09"},{"category":"bicycle-theft","location_type":"Force","location":{"latitude":"51.470502","street":{"id":944678,"name":"On or near Woodland Gardens"},"longitude":"-0.342879"},"context":"","outcome_status":{"category":"Status update unavailable","date":"2018-01"},"persistent_id":"98e38bff488afcd3567d3dd4dd24ed9646eee6f188ccc961ccf00c4669585c5e","id":60252442,"location_subtype":"","month":"2017-09"},{"category":"bicycle-theft","location_type":"Force","location":{"latitude":"51.457448","street":{"id":943964,"name":"On or near Kneller Gardens"},"longitude":"-0.350088"},"context":"","outcome_status":{"category":"Status update unavailable","date":"2018-01"},"persistent_id":"1da5f0471772aa56321d753d64a0c904da3d0cf0fcc2ca396e385c040a5d50d7","id":60270442,"location_subtype":"","month":"2017-09"},{"category":"bicycle-theft","location_type":"Force","location":{"latitude":"51.457448","street":{"id":943964,"name":"On or near Kneller Gardens"},"longitude":"-0.350088"},"context":"","outcome_status":{"category":"Investigation complete; no suspect identified","date":"2017-12"},"persistent_id":"aec408c214198f01c9a366493d2739bbf7f9d992c1bcce8de554cac58201269f","id":60266169,"location_subtype":"","month":"2017-09"},{"category":"burglary","location_type":"Force","location":{"latitude":"51.459221","street":{"id":943957,"name":"On or near Shirley Drive"},"longitude":"-0.359783"},"context":"","outcome_status":{"category":"Defendant found not guilty","date":"2018-03"},"persistent_id":"20aede1a0ebe4a0dc88decc9b136a43001caad6cda43dc2103586f65aad45d97","id":60247042,"location_subtype":"","month":"2017-09"},{"category":"burglary","location_type":"Force","location":{"latitude":"51.462648","street":{"id":923956,"name":"On or near Norbury Avenue"},"longitude":"-0.351556"},"context":"","outcome_status":{"category":"Status update unavailable","date":"2018-01"},"persistent_id":"5f3428262048db01ce380985e6d1c154b2fac38359ec40afab6bebeddef17419","id":60260733,"location_subtype":"","month":"2017-09"},{"category":"burglary","location_type":"Force","location":{"latitude":"51.458124","street":{"id":943954,"name":"On or near Whitton Dene"},"longitude":"-0.351460"},"context":"","outcome_status":{"category":"Investigation complete; no suspect identified","date":"2018-03"},"persistent_id":"4f4567387d51add31931edf5e54488f371182c3484057abbe383b760ba1042bd","id":60270348,"location_subtype":"","month":"2017-09"},{"category":"burglary","location_type":"Force","location":{"latitude":"51.460412","street":{"id":943896,"name":"On or near Park Road"},"longitude":"-0.358157"},"context":"","outcome_status":{"category":"Status update unavailable","date":"2018-01"},"persistent_id":"0ce202ef4dc62a2855de6eb99ade364ac0c7d67579a401437910f97a35dc6540","id":60247516,"location_subtype":"","month":"2017-09"},{"category":"burglary","location_type":"Force","location":{"latitude":"51.470502","street":{"id":944678,"name":"On or near Woodland Gardens"},"longitude":"-0.342879"},"context":"","outcome_status":{"category":"Status update unavailable","date":"2018-01"},"persistent_id":"4091a20c0c3ef454e9aee90890322ee0ded247937e9289d71d9ec2ad0a5e253e","id":60229565,"location_subtype":"","month":"2017-09"},{"category":"burglary","location_type":"Force","location":{"latitude":"51.459382","street":{"id":943948,"name":"On or near Arnold Crescent"},"longitude":"-0.347585"},"context":"","outcome_status":{"category":"Status update unavailable","date":"2018-01"},"persistent_id":"5cf6c1294ba80516b02a6d5ba90845a87e21574dcf7685677edd30cef16b295f","id":60250664,"location_subtype":"","month":"2017-09"},{"category":"burglary","location_type":"Force","location":{"latitude":"51.467222","street":{"id":943933,"name":"On or near Paget Lane"},"longitude":"-0.345574"},"context":"","outcome_status":{"category":"Status update unavailable","date":"2018-01"},"persistent_id":"b9a66bf0d1a28cc6f735e3d6096770e09235b523ea0508a1d1655eba33f6b415","id":60276694,"location_subtype":"","month":"2017-09"},{"category":"burglary","location_type":"Force","location":{"latitude":"51.457840","street":{"id":944100,"name":"On or near Park Avenue"},"longitude":"-0.365202"},"context":"","outcome_status":{"category":"Status update unavailable","date":"2018-01"},"persistent_id":"ad2be96eb6cfa2c316e991c997ab80a5cfcd36aa1620e0c2ef9a6a5b55c72ea7","id":60241449,"location_subtype":"","month":"2017-09"},{"category":"burglary","location_type":"Force","location":{"latitude":"51.459221","street":{"id":943957,"name":"On or near Shirley Drive"},"longitude":"-0.359783"},"context":"","outcome_status":{"category":"Status update unavailable","date":"2018-01"},"persistent_id":"5ed07322fbf57f33512ffb003de5d478cf332c373c30d4e32405dfecb76f03a8","id":60255520,"location_subtype":"","month":"2017-09"},{"category":"burglary","location_type":"Force","location":{"latitude":"51.459382","street":{"id":943948,"name":"On or near Arnold Crescent"},"longitude":"-0.347585"},"context":"","outcome_status":{"category":"Status update unavailable","date":"2018-01"},"persistent_id":"2a0eff4ec28b428537d3c468470cce42a14d1e33b28735bda06fd332b30c9666","id":60239430,"location_subtype":"","month":"2017-09"},{"category":"burglary","location_type":"Force","location":{"latitude":"51.459221","street":{"id":943957,"name":"On or near Shirley Drive"},"longitude":"-0.359783"},"context":"","outcome_status":{"category":"Status update unavailable","date":"2018-01"},"persistent_id":"b4c23df7574cfda2ed4d79aa1f8f29fe4f54c376379038626a2b470d86425ab1","id":60245372,"location_subtype":"","month":"2017-09"},{"category":"burglary","location_type":"Force","location":{"latitude":"51.462866","street":{"id":943930,"name":"On or near Wainwright Grove"},"longitude":"-0.347186"},"context":"","outcome_status":{"category":"Status update unavailable","date":"2018-01"},"persistent_id":"88e718f5fe0eeb9ecddbdedec15fbdd59d7314a1331f4b998600f7198acb5d93","id":60265626,"location_subtype":"","month":"2017-09"},{"category":"burglary","location_type":"Force","location":{"latitude":"51.460520","street":{"id":944057,"name":"On or near Lanigan Drive"},"longitude":"-0.363983"},"context":"","outcome_status":{"category":"Status update unavailable","date":"2018-01"},"persistent_id":"f6fe4dc611b2669f9d50a3671e82dd9a24b844810d5e0a1db4de9fc1a1c1372a","id":60286104,"location_subtype":"","month":"2017-09"},{"category":"criminal-damage-arson","location_type":"Force","location":{"latitude":"51.462890","street":{"id":943887,"name":"On or near Wolsey Close"},"longitude":"-0.357248"},"context":"","outcome_status":{"category":"Status update unavailable","date":"2018-01"},"persistent_id":"2260e4adcbcfe5c6756c5bdb8473d48b1e4b04606195b69922b6bb174661e606","id":60287223,"location_subtype":"","month":"2017-09"},{"category":"drugs","location_type":"Force","location":{"latitude":"51.463398","street":{"id":943923,"name":"On or near Catherine Gardens"},"longitude":"-0.351154"},"context":"","outcome_status":{"category":"Defendant found not guilty","date":"2018-03"},"persistent_id":"8680db24ef825441edfd4d1599542902501e52d62c476024246375522d2a8e73","id":60287669,"location_subtype":"","month":"2017-09"},{"category":"drugs","location_type":"Force","location":{"latitude":"51.462398","street":{"id":943898,"name":"On or near Maswell Park Road"},"longitude":"-0.360001"},"context":"","outcome_status":{"category":"Investigation complete; no suspect identified","date":"2017-10"},"persistent_id":"923637d7601ba92b48b904564e0dabd4b839db7d55e41c175481fecc834f0d87","id":60254403,"location_subtype":"","month":"2017-09"},{"category":"other-theft","location_type":"Force","location":{"latitude":"51.461431","street":{"id":944090,"name":"On or near Hounslow Gardens"},"longitude":"-0.360913"},"context":"","outcome_status":{"category":"Investigation complete; no suspect identified","date":"2017-10"},"persistent_id":"e9a93d151c7f6452ffc464da1f16c5ac3195ec90a63bebb02f7fdc87137f4c62","id":60277571,"location_subtype":"","month":"2017-09"},{"category":"other-theft","location_type":"Force","location":{"latitude":"51.470502","street":{"id":944678,"name":"On or near Woodland Gardens"},"longitude":"-0.342879"},"context":"","outcome_status":{"category":"Status update unavailable","date":"2018-01"},"persistent_id":"8b8a635ed7aa009627079a49fb93d45d2176dc1574ffef58e0b5a87247452a82","id":60283516,"location_subtype":"","month":"2017-09"},{"category":"public-order","location_type":"Force","location":{"latitude":"51.460257","street":{"id":943892,"name":"On or near Rosebery Road"},"longitude":"-0.353499"},"context":"","outcome_status":{"category":"Investigation complete; no suspect identified","date":"2017-09"},"persistent_id":"9be09f8178ef52985a489fe5bf417a4a9e63f2ca53d6a4f651b4e14c548eeb93","id":60248198,"location_subtype":"","month":"2017-09"},{"category":"public-order","location_type":"Force","location":{"latitude":"51.460412","street":{"id":943896,"name":"On or near Park Road"},"longitude":"-0.358157"},"context":"","outcome_status":{"category":"Status update unavailable","date":"2018-01"},"persistent_id":"cd068a8ff73439cc93d718a7b33b228f28381c838c96c521aebeee482844b808","id":60284258,"location_subtype":"","month":"2017-09"},{"category":"public-order","location_type":"Force","location":{"latitude":"51.460412","street":{"id":943896,"name":"On or near Park Road"},"longitude":"-0.358157"},"context":"","outcome_status":{"category":"Status update unavailable","date":"2018-01"},"persistent_id":"cd068a8ff73439cc93d718a7b33b228f28381c838c96c521aebeee482844b808","id":60284257,"location_subtype":"","month":"2017-09"},{"category":"public-order","location_type":"Force","location":{"latitude":"51.464427","street":{"id":943926,"name":"On or near Atcham Road"},"longitude":"-0.353334"},"context":"","outcome_status":{"category":"Status update unavailable","date":"2018-01"},"persistent_id":"5fae97d90c523a660d326602845629c723318488f6d4fc769227fc34b0a1490a","id":60250416,"location_subtype":"","month":"2017-09"},{"category":"public-order","location_type":"Force","location":{"latitude":"51.460882","street":{"id":943891,"name":"On or near Southland Way"},"longitude":"-0.351288"},"context":"","outcome_status":{"category":"Status update unavailable","date":"2018-01"},"persistent_id":"26dacb6c5a787c7aa6507e603027cab923735c8bcb97f3fcf55468cf3f874c60","id":60274685,"location_subtype":"","month":"2017-09"},{"category":"public-order","location_type":"Force","location":{"latitude":"51.464427","street":{"id":943926,"name":"On or near Atcham Road"},"longitude":"-0.353334"},"context":"","outcome_status":{"category":"Investigation complete; no suspect identified","date":"2018-01"},"persistent_id":"5fae97d90c523a660d326602845629c723318488f6d4fc769227fc34b0a1490a","id":60253282,"location_subtype":"","month":"2017-09"},{"category":"robbery","location_type":"Force","location":{"latitude":"51.461431","street":{"id":944090,"name":"On or near Hounslow Gardens"},"longitude":"-0.360913"},"context":"","outcome_status":{"category":"Investigation complete; no suspect identified","date":"2017-10"},"persistent_id":"8d01347bc1b56b32f69b5baee18610267e071bfe120ed0d8f66ed339f47ac2b2","id":60273248,"location_subtype":"","month":"2017-09"},{"category":"vehicle-crime","location_type":"Force","location":{"latitude":"51.460669","street":{"id":943894,"name":"On or near Priory Road"},"longitude":"-0.354650"},"context":"","outcome_status":{"category":"Status update unavailable","date":"2018-01"},"persistent_id":"86e05dc7786671b1c377b44487f2ae4d93ef09e8e6414815e3d270496a9789b3","id":60263307,"location_subtype":"","month":"2017-09"},{"category":"vehicle-crime","location_type":"Force","location":{"latitude":"51.458726","street":{"id":944099,"name":"On or near Sandra Close"},"longitude":"-0.363630"},"context":"","outcome_status":{"category":"Status update unavailable","date":"2018-01"},"persistent_id":"887795afc1df9d3f34e04334331f0ebfb3af7296a1e5d8e2a699341610eebd6b","id":60244588,"location_subtype":"","month":"2017-09"},{"category":"vehicle-crime","location_type":"Force","location":{"latitude":"51.462890","street":{"id":943887,"name":"On or near Wolsey Close"},"longitude":"-0.357248"},"context":"","outcome_status":{"category":"Status update unavailable","date":"2018-01"},"persistent_id":"a75e610201e0900495cf34f45593b570252afafb3dc454843312b7ce2cb02ac9","id":60270577,"location_subtype":"","month":"2017-09"},{"category":"vehicle-crime","location_type":"Force","location":{"latitude":"51.466940","street":{"id":943928,"name":"On or near Worton Road"},"longitude":"-0.344663"},"context":"","outcome_status":{"category":"Investigation complete; no suspect identified","date":"2017-10"},"persistent_id":"0cc77254d246a8dff1b948f549d69c27cebae460061c34a134ab77e0ea1531af","id":60270973,"location_subtype":"","month":"2017-09"},{"category":"vehicle-crime","location_type":"Force","location":{"latitude":"51.463242","street":{"id":943916,"name":"On or near Eaton Road"},"longitude":"-0.348396"},"context":"","outcome_status":{"category":"Investigation complete; no suspect identified","date":"2017-11"},"persistent_id":"66fd6376766367ddbd94a54b258f42f76f5e35bf4b29155ed431228dcf44aece","id":60261848,"location_subtype":"","month":"2017-09"},{"category":"vehicle-crime","location_type":"Force","location":{"latitude":"51.461851","street":{"id":943900,"name":"On or near Lyncroft Gardens"},"longitude":"-0.355615"},"context":"","outcome_status":{"category":"Status update unavailable","date":"2018-01"},"persistent_id":"26a4a428e67ad037ee0003dda6aad706fd9f9d798211db9a0f79efe3e66216ad","id":60247317,"location_subtype":"","month":"2017-09"},{"category":"vehicle-crime","location_type":"Force","location":{"latitude":"51.459382","street":{"id":943948,"name":"On or near Arnold Crescent"},"longitude":"-0.347585"},"context":"","outcome_status":{"category":"Investigation complete; no suspect identified","date":"2017-10"},"persistent_id":"39ec0d4028203d663e7747e2b67d1fd73f6eb37b834233efc828f9e994d3db3c","id":60273026,"location_subtype":"","month":"2017-09"},{"category":"vehicle-crime","location_type":"Force","location":{"latitude":"51.459710","street":{"id":943897,"name":"On or near Park Close"},"longitude":"-0.356829"},"context":"","outcome_status":{"category":"Status update unavailable","date":"2018-01"},"persistent_id":"b9f20a2ccd91b2189b01b5de23387125b1c37709387d683f8ad8af1f504a3a7a","id":60266045,"location_subtype":"","month":"2017-09"},{"category":"vehicle-crime","location_type":"Force","location":{"latitude":"51.458124","street":{"id":943954,"name":"On or near Whitton Dene"},"longitude":"-0.351460"},"context":"","outcome_status":{"category":"Status update unavailable","date":"2018-01"},"persistent_id":"832b79f90b2c1d0a027da116d1575f122b1214086cb6f4127c7d14a2c1dd2942","id":60259361,"location_subtype":"","month":"2017-09"},{"category":"violent-crime","location_type":"Force","location":{"latitude":"51.458432","street":{"id":943966,"name":"On or near Constable Gardens"},"longitude":"-0.352874"},"context":"","outcome_status":{"category":"Defendant found not guilty","date":"2018-03"},"persistent_id":"a6a49e0674bb6dbb89b00b79ac0b96426214b737bd9ad1759342f4e2ef1b6f36","id":60245652,"location_subtype":"","month":"2017-09"},{"category":"violent-crime","location_type":"Force","location":{"latitude":"51.458432","street":{"id":943966,"name":"On or near Constable Gardens"},"longitude":"-0.352874"},"context":"","outcome_status":{"category":"Status update unavailable","date":"2018-01"},"persistent_id":"24e996dce8118648016ba027ae1532b7cd6b8db147879a002881e2320da537aa","id":60223694,"location_subtype":"","month":"2017-09"},{"category":"violent-crime","location_type":"Force","location":{"latitude":"51.464107","street":{"id":943902,"name":"On or near Leigh Road"},"longitude":"-0.351057"},"context":"","outcome_status":{"category":"Status update unavailable","date":"2018-01"},"persistent_id":"527ccb5d616aacdf888e7113ef2385d172c33d3c32bf1e9011220f8867c5a172","id":60267641,"location_subtype":"","month":"2017-09"},{"category":"violent-crime","location_type":"Force","location":{"latitude":"51.456928","street":{"id":943959,"name":"On or near Old Manor Drive"},"longitude":"-0.352769"},"context":"","outcome_status":{"category":"Status update unavailable","date":"2018-01"},"persistent_id":"3af46e75e52c4dea933cd1e92409a948c85ce1f591735b3f59af0324522efa17","id":60244129,"location_subtype":"","month":"2017-09"},{"category":"violent-crime","location_type":"Force","location":{"latitude":"51.456928","street":{"id":943959,"name":"On or near Old Manor Drive"},"longitude":"-0.352769"},"context":"","outcome_status":{"category":"Investigation complete; no suspect identified","date":"2017-09"},"persistent_id":"3af46e75e52c4dea933cd1e92409a948c85ce1f591735b3f59af0324522efa17","id":60244811,"location_subtype":"","month":"2017-09"},{"category":"violent-crime","location_type":"Force","location":{"latitude":"51.473662","street":{"id":944749,"name":"On or near St John's Road"},"longitude":"-0.338012"},"context":"","outcome_status":{"category":"Investigation complete; no suspect identified","date":"2017-09"},"persistent_id":"e0bf03a16527425382581168a83b698f3f499588f7126b1fc564cfd796a0698c","id":60259050,"location_subtype":"","month":"2017-09"},{"category":"violent-crime","location_type":"Force","location":{"latitude":"51.467039","street":{"id":943937,"name":"On or near Farnell Road"},"longitude":"-0.346589"},"context":"","outcome_status":{"category":"Investigation complete; no suspect identified","date":"2017-10"},"persistent_id":"067c90b139c778241cc3c24982063a269b5c7de910b9a9767f9903ec21c7c38f","id":60262994,"location_subtype":"","month":"2017-09"},{"category":"violent-crime","location_type":"Force","location":{"latitude":"51.468203","street":{"id":943931,"name":"On or near Sussex Avenue"},"longitude":"-0.343696"},"context":"","outcome_status":{"category":"Investigation complete; no suspect identified","date":"2017-09"},"persistent_id":"3858f2a35d163e97ff69d73076f2f69813762ac0baaecbe4e97a38329c26ae11","id":60248197,"location_subtype":"","month":"2017-09"},{"category":"violent-crime","location_type":"Force","location":{"latitude":"51.467039","street":{"id":943937,"name":"On or near Farnell Road"},"longitude":"-0.346589"},"context":"","outcome_status":{"category":"Investigation complete; no suspect identified","date":"2017-09"},"persistent_id":"e3c40c0abfafe40a7b9b5cb81a0e5171a84c1b5da375191a52ba83e4df7aa004","id":60247968,"location_subtype":"","month":"2017-09"},{"category":"violent-crime","location_type":"Force","location":{"latitude":"51.458626","street":{"id":943946,"name":"On or near Harlequin Close"},"longitude":"-0.343712"},"context":"","outcome_status":{"category":"Investigation complete; no suspect identified","date":"2017-11"},"persistent_id":"02326d69670588367040e0dcf440e63d7243d9e760a3b768c0310c8228640427","id":60276449,"location_subtype":"","month":"2017-09"},{"category":"violent-crime","location_type":"Force","location":{"latitude":"51.473662","street":{"id":944749,"name":"On or near St John's Road"},"longitude":"-0.338012"},"context":"","outcome_status":{"category":"Status update unavailable","date":"2018-01"},"persistent_id":"8971b9a36e683236619f48283a2a580b71c8069bc43f2bda5268dd7c31a10eb9","id":60244813,"location_subtype":"","month":"2017-09"},{"category":"other-crime","location_type":"Force","location":{"latitude":"51.460373","street":{"id":943893,"name":"On or near Reapers Way"},"longitude":"-0.349637"},"context":"","outcome_status":{"category":"Investigation complete; no suspect identified","date":"2017-10"},"persistent_id":"aa639a8167b047f404f569f2ede433900f9ca38f571e12bb189153a5c9c22cdc","id":60251529,"location_subtype":"","month":"2017-09"}]