[{"category":"anti-social-behaviour","location_type":"Force","location":{"latitude":"51.558573","street":{"id":966602,"name":"On or near Milverton Drive"},"longitude":"-0.438641"},"context":"","outcome_status":null,"persistent_id":"","id":65144855,"location_subtype":"","month":"2018-05"},{"category":"anti-social-behaviour","location_type":"Force","location":{"latitude":"51.561703","street":{"id":966585,"name":"On or near Parking Area"},"longitude":"-0.441362"},"context":"","outcome_status":null,"persistent_id":"","id":65144868,"location_subtype":"","month":"2018-05"},{"category":"anti-social-behaviour","location_type":"Force","location":{"latitude":"51.563919","street":{"id":973427,"name":"On or near Almond Avenue"},"longitude":"-0.445788"},"context":"","outcome_status":null,"persistent_id":"","id":65144885,"location_subtype":"","month":"2018-05"},{"category":"anti-social-behaviour","location_type":"Force","location":{"latitude":"51.562226","street":{"id":966540,"name":"On or near Milton Road"},"longitude":"-0.448269"},"context":"","outcome_status":null,"persistent_id":"","id":65144894,"location_subtype":"","month":"2018-05"},{"category":"anti-social-behaviour","location_type":"Force","location":{"latitude":"51.575526","street":{"id":973447,"name":"On or near Skip Lane"},"longitude":"-0.471642"},"context":"","outcome_status":null,"persistent_id":"","id":65145191,"location_subtype":"","month":"2018-05"},{"category":"burglary","location_type":"Force","location":{"latitude":"51.564554","street":{"id":973435,"name":"On or near Stedman Close"},"longitude":"-0.453643"},"context":"","outcome_status":{"category":"Under investigation","date":"2018-05"},"persistent_id":"8cb5ddc08d9b0e7f6bf492d80a59b6651eb437fc94617fec8c1663e1d6ca0bb8","id":65186397,"location_subtype":"","month":"2018-05"},{"category":"burglary","location_type":"Force","location":{"latitude":"51.566711","street":{"id":973389,"name":"On or near Wallasey Crescent"},"longitude":"-0.452185"},"context":"","outcome_status":{"category":"Under investigation","date":"2018-05"},"persistent_id":"5bf63c7b07220e038ca435d2dc282843375cba20f6c95aa0257e409c34c20434","id":65219536,"location_subtype":"","month":"2018-05"},{"category":"burglary","location_type":"Force","location":{"latitude":"51.565607","street":{"id":973396,"name":"On or near Irwin Close"},"longitude":"-0.453059"},"context":"","outcome_status":{"category":"Under investigation","date":"2018-05"},"persistent_id":"1aafa0fbe203d38de53e8d791589fbcab1a346abd06ebeeecd029edee2197e18","id":65219784,"location_subtype":"","month":"2018-05"},{"category":"burglary","location_type":"Force","location":{"latitude":"51.561772","street":{"id":966560,"name":"On or near The Woods"},"longitude":"-0.449309"},"context":"","outcome_status":{"category":"Under investigation","date":"2018-05"},"persistent_id":"f8ad68bd365185e46b252cb413bb9e376f61fbe56f2446de5a0e110c2a99528d","id":65226399,"location_subtype":"","month":"2018-05"},{"category":"burglary","location_type":"Force","location":{"latitude":"51.564180","street":{"id":973431,"name":"On or near Vinlake Avenue"},"longitude":"-0.456700"},"context":"","outcome_status":{"category":"Under investigation","date":"2018-05"},"persistent_id":"7a1efb1ed3a5be4cb44586f66528c10badeadaa21a5bd46081b979814118f09e","id":65189546,"location_subtype":"","month":"2018-05"},{"category":"burglary","location_type":"Force","location":{"latitude":"51.563655","street":{"id":973422,"name":"On or near Parking Area"},"longitude":"-0.443445"},"context":"","outcome_status":{"category":"Under investigation","date":"2018-05"},"persistent_id":"70c43f4373eeaf75e1e0ae628d47d92987d033f50696ccaff45cf725346c53d9","id":65230003,"location_subtype":"","month":"2018-05"},{"category":"burglary","location_type":"Force","location":{"latitude":"51.565607","street":{"id":973396,"name":"On or near Irwin Close"},"longitude":"-0.453059"},"context":"","outcome_status":{"category":"Under investigation","date":"2018-05"},"persistent_id":"f6912f85f4f414f134aa105d39b36a97745a35f2daa42272a98fd7bc7c764824","id":65224536,"location_subtype":"","month":"2018-05"},{"category":"burglary","location_type":"Force","location":{"latitude":"51.563824","street":{"id":973424,"name":"On or near Ivyhouse Road"},"longitude":"-0.448070"},"context":"","outcome_status":{"category":"Under investigation","date":"2018-05"},"persistent_id":"9d9da5581ab0d05b8cf0158eb0a22f7c6f2b4cf89f9accc644c7fd0c6d66ff51","id":65222777,"location_subtype":"","month":"2018-05"},{"category":"criminal-damage-arson","location_type":"Force","location":{"latitude":"51.566118","street":{"id":973398,"name":"On or near Greenacres Avenue"},"longitude":"-0.457674"},"context":"","outcome_status":{"category":"Under investigation","date":"2018-05"},"persistent_id":"06bd4f08919e7134adc576f14712b1fbcd34461d0ff98cadba2e9d143ccd91f6","id":65222431,"location_subtype":"","month":"2018-05"},{"category":"criminal-damage-arson","location_type":"Force","location":{"latitude":"51.560395","street":{"id":966545,"name":"On or near Edinburgh Close"},"longitude":"-0.444494"},"context":"","outcome_status":{"category":"Under investigation","date":"2018-05"},"persistent_id":"0d118403705087265c36156c0713ec46f436a883638dd7ce4fc4482145d0bf57","id":65230635,"location_subtype":"","month":"2018-05"},{"category":"criminal-damage-arson","location_type":"Force","location":{"latitude":"51.567772","street":{"id":973410,"name":"On or near Parkfield Road"},"longitude":"-0.444689"},"context":"","outcome_status":{"category":"Awaiting court outcome","date":"2018-05"},"persistent_id":"e1e25d3e886c6ab031caa9f684f566b44d2888dd567c1edfb38043936bd415c0","id":65181208,"location_subtype":"","month":"2018-05"},{"category":"criminal-damage-arson","location_type":"Force","location":{"latitude":"51.561393","street":{"id":966484,"name":"On or near Hetherington Way"},"longitude":"-0.468351"},"context":"","outcome_status":{"category":"Investigation complete; no suspect identified","date":"2018-05"},"persistent_id":"e90552e8e3e3d54bbefa85e6aed63ba9b6a64b2a3397f38901682660bf775de4","id":65218756,"location_subtype":"","month":"2018-05"},{"category":"criminal-damage-arson","location_type":"Force","location":{"latitude":"51.554163","street":{"id":966535,"name":"On or near A40"},"longitude":"-0.448500"},"context":"","outcome_status":{"category":"Under investigation","date":"2018-05"},"persistent_id":"ca850c169d23bcd341ed953d2bc07cbcf1c0b3bbf3d2a02e310f772a238b14f0","id":65186514,"location_subtype":"","month":"2018-05"},{"category":"criminal-damage-arson","location_type":"Force","location":{"latitude":"51.575526","street":{"id":973447,"name":"On or near Skip Lane"},"longitude":"-0.471642"},"context":"","outcome_status":{"category":"Under investigation","date":"2018-05"},"persistent_id":"1a0075dc7b71ea1af4566fe805f7179e97450189bd6733aaf90f605cb25c3a38","id":65177008,"location_subtype":"","month":"2018-05"},{"category":"drugs","location_type":"Force","location":{"latitude":"51.565120","street":{"id":973434,"name":"On or near Swakeleys Road"},"longitude":"-0.457015"},"context":"","outcome_status":{"category":"Awaiting court outcome","date":"2018-05"},"persistent_id":"6b3cccac44d68b35a5c748325504fb8855261e9a92b1f831494928f903bb0459","id":65189824,"location_subtype":"","month":"2018-05"},{"category":"other-theft","location_type":"Force","location":{"latitude":"51.554163","street":{"id":966535,"name":"On or near A40"},"longitude":"-0.448500"},"context":"","outcome_status":{"category":"Under investigation","date":"2018-05"},"persistent_id":"998beb1db4796cdd6a7f9d5814e98a25acd18867085fbcb350f08d14181fec16","id":65164869,"location_subtype":"","month":"2018-05"},{"category":"other-theft","location_type":"Force","location":{"latitude":"51.570360","street":{"id":973399,"name":"On or near Field Close"},"longitude":"-0.449377"},"context":"","outcome_status":{"category":"Under investigation","date":"2018-05"},"persistent_id":"98d975e408976fc3153573ba439ae608cdcee1b198dad44fa91af1bebf3f5fc8","id":65225807,"location_subtype":"","month":"2018-05"},{"category":"other-theft","location_type":"Force","location":{"latitude":"51.563998","street":{"id":973428,"name":"On or near Petrol Station"},"longitude":"-0.444270"},"context":"","outcome_status":{"category":"Under investigation","date":"2018-05"},"persistent_id":"53c11f699551afc06a5558ac004fce32b77e7eea6b39f4c5debe0cda3b663c2d","id":65187936,"location_subtype":"","month":"2018-05"},{"category":"other-theft","location_type":"Force","location":{"latitude":"51.564477","street":{"id":973429,"name":"On or near Supermarket"},"longitude":"-0.445090"},"context":"","outcome_status":{"category":"Under investigation","date":"2018-05"},"persistent_id":"aa63295e4af3d7cd3ee9894c1201986c6bccacefeca9199caa0ec3999327b393","id":65173968,"location_subtype":"","month":"2018-05"},{"category":"other-theft","location_type":"Force","location":{"latitude":"51.561446","street":{"id":966567,"name":"On or near Malcolm Road"},"longitude":"-0.460760"},"context":"","outcome_status":{"category":"Under investigation","date":"2018-05"},"persistent_id":"5e07d2460bec5b343ff5838abb39a63de70c45106900170441cf9f23f42ab29b","id":65194755,"location_subtype":"","month":"2018-05"},{"category":"other-theft","location_type":"Force","location":{"latitude":"51.561703","street":{"id":966585,"name":"On or near Parking Area"},"longitude":"-0.441362"},"context":"","outcome_status":{"category":"Under investigation","date":"2018-05"},"persistent_id":"f4abddfbd4677102baf26c3d490d6753c9d16cdefa88242452d4383bd91d1e7e","id":65193980,"location_subtype":"","month":"2018-05"},{"category":"public-order","location_type":"Force","location":{"latitude":"51.566450","street":{"id":973416,"name":"On or near Broadacre Close"},"longitude":"-0.448111"},"context":"","outcome_status":{"category":"Under investigation","date":"2018-05"},"persistent_id":"3931e05224e2492db042c83d9bc54f7f7685d0344f20aff66fce7c050bfc9052","id":65207563,"location_subtype":"","month":"2018-05"},{"category":"public-order","location_type":"Force","location":{"latitude":"51.564463","street":{"id":973425,"name":"On or near High Road, Ickenham"},"longitude":"-0.443403"},"context":"","outcome_status":{"category":"Under investigation","date":"2018-05"},"persistent_id":"c5bd14d7a256ac769daa98428b8ea621132ee78da70043253d166a7e1fac0c1d","id":65219785,"location_subtype":"","month":"2018-05"},{"category":"public-order","location_type":"Force","location":{"latitude":"51.566450","street":{"id":973416,"name":"On or near Broadacre Close"},"longitude":"-0.448111"},"context":"","outcome_status":{"category":"Under investigation","date":"2018-05"},"persistent_id":"3931e05224e2492db042c83d9bc54f7f7685d0344f20aff66fce7c050bfc9052","id":65207564,"location_subtype":"","month":"2018-05"},{"category":"public-order","location_type":"Force","location":{"latitude":"51.566450","street":{"id":973416,"name":"On or near Broadacre Close"},"longitude":"-0.448111"},"context":"","outcome_status":{"category":"Under investigation","date":"2018-05"},"persistent_id":"3931e05224e2492db042c83d9bc54f7f7685d0344f20aff66fce7c050bfc9052","id":65207562,"location_subtype":"","month":"2018-05"},{"category":"public-order","location_type":"Force","location":{"latitude":"51.564463","street":{"id":973425,"name":"On or near High Road, Ickenham"},"longitude":"-0.443403"},"context":"","outcome_status":{"category":"Under investigation","date":"2018-05"},"persistent_id":"730995079762b099eb58f11d2efb5394e8043dc8fb3717f21f078a29be93b362","id":65186854,"location_subtype":"","month":"2018-05"},{"category":"robbery","location_type":"Force","location":{"latitude":"51.563655","street":{"id":973422,"name":"On or near Parking Area"},"longitude":"-0.443445"},"context":"","outcome_status":{"category":"Under investigation","date":"2018-05"},"persistent_id":"d05bdfb1c4f71e21863c76abad5fd7cbb7fb1cca70739152b84f7fe19245c578","id":65228380,"location_subtype":"","month":"2018-05"},{"category":"shoplifting","location_type":"Force","location":{"latitude":"51.564477","street":{"id":973429,"name":"On or near Supermarket"},"longitude":"-0.445090"},"context":"","outcome_status":{"category":"Awaiting court outcome","date":"2018-05"},"persistent_id":"8a1ac3ef758ab59f1c8c8160296d631f9a6ee6dafc1dd661b3600c62a5f4c8fd","id":65174088,"location_subtype":"","month":"2018-05"},{"category":"shoplifting","location_type":"Force","location":{"latitude":"51.564477","street":{"id":973429,"name":"On or near Supermarket"},"longitude":"-0.445090"},"context":"","outcome_status":{"category":"Under investigation","date":"2018-05"},"persistent_id":"47d19b268cefe9a7287c69765b2ee04674d976cd0d191abab20597c310249c1b","id":65227621,"location_subtype":"","month":"2018-05"},{"category":"shoplifting","location_type":"Force","location":{"latitude":"51.564477","street":{"id":973429,"name":"On or near Supermarket"},"longitude":"-0.445090"},"context":"","outcome_status":{"category":"Investigation complete; no suspect identified","date":"2018-05"},"persistent_id":"a838c337d3c83f4aa2066a5d66b075c10a11fe6410ee3b122fac96df86b640a2","id":65200866,"location_subtype":"","month":"2018-05"},{"category":"shoplifting","location_type":"Force","location":{"latitude":"51.564477","street":{"id":973429,"name":"On or near Supermarket"},"longitude":"-0.445090"},"context":"","outcome_status":{"category":"Investigation complete; no suspect identified","date":"2018-05"},"persistent_id":"cc96230a921e4daa76dac503c8189f5873660b8395d7917e6b1251b7d4df5b69","id":65197415,"location_subtype":"","month":"2018-05"},{"category":"vehicle-crime","location_type":"Force","location":{"latitude":"51.556758","street":{"id":966561,"name":"On or near The Grove"},"longitude":"-0.454384"},"context":"","outcome_status":{"category":"Under investigation","date":"2018-05"},"persistent_id":"4a7610ecc55922b876d7ce46cfd670a22b35d63340795034e46e66d660dcce6e","id":65229515,"location_subtype":"","month":"2018-05"},{"category":"vehicle-crime","location_type":"Force","location":{"latitude":"51.567206","street":{"id":973400,"name":"On or near Farm Close"},"longitude":"-0.448821"},"context":"","outcome_status":{"category":"Under investigation","date":"2018-05"},"persistent_id":"a9975dfe27fa65c63643f29390117ea46fb302ca5714b18c9a54684a3b572bbd","id":65169576,"location_subtype":"","month":"2018-05"},{"category":"vehicle-crime","location_type":"Force","location":{"latitude":"51.569172","street":{"id":973441,"name":"On or near Breakspear Road South"},"longitude":"-0.458162"},"context":"","outcome_status":{"category":"Under investigation","date":"2018-05"},"persistent_id":"c71d8881e36d57ebd4456866b85cde875ab5b9649bbdde9855a117c5032312f8","id":65171079,"location_subtype":"","month":"2018-05"},{"category":"vehicle-crime","location_type":"Force","location":{"latitude":"51.569794","street":{"id":973403,"name":"On or near Copthall Road West"},"longitude":"-0.455529"},"context":"","outcome_status":{"category":"Investigation complete; no suspect identified","date":"2018-06"},"persistent_id":"2e1684d228baa060b3d7382cabb3d78ecbfff130498829c1d51566d07dac06c4","id":65203397,"location_subtype":"","month":"2018-05"},{"category":"violent-crime","location_type":"Force","location":{"latitude":"51.565108","street":{"id":973413,"name":"On or near High Road, Ickenham"},"longitude":"-0.443193"},"context":"","outcome_status":{"category":"Under investigation","date":"2018-05"},"persistent_id":"b3f5520a1f03b07dd99f438ca6a61a3ee8a2e11043249ae974c189917f6acd1b","id":65227317,"location_subtype":"","month":"2018-05"},{"category":"violent-crime","location_type":"Force","location":{"latitude":"51.559422","street":{"id":966491,"name":"On or near Warren Road"},"longitude":"-0.464118"},"context":"","outcome_status":{"category":"Under investigation","date":"2018-05"},"persistent_id":"97a92a3a561d56b0e81331b2576a8a814a40b36c090913cc1292acf4805f806e","id":65230277,"location_subtype":"","month":"2018-05"},{"category":"violent-crime","location_type":"Force","location":{"latitude":"51.559763","street":{"id":966593,"name":"On or near Glebe Close"},"longitude":"-0.438211"},"context":"","outcome_status":{"category":"Offender given a caution","date":"2018-05"},"persistent_id":"de044bd5a21ae7f282769ad7e90d649f2d7b3f776bdbea2a95c186b0d8020b0a","id":65167574,"location_subtype":"","month":"2018-05"},{"category":"violent-crime","location_type":"Force","location":{"latitude":"51.567772","street":{"id":973410,"name":"On or near Parkfield Road"},"longitude":"-0.444689"},"context":"","outcome_status":{"category":"Under investigation","date":"2018-05"},"persistent_id":"e1e25d3e886c6ab031caa9f684f566b44d2888dd567c1edfb38043936bd415c0","id":65179835,"location_subtype":"","month":"2018-05"},{"category":"violent-crime","location_type":"Force","location":{"latitude":"51.567772","street":{"id":973410,"name":"On or near Parkfield Road"},"longitude":"-0.444689"},"context":"","outcome_status":{"category":"Under investigation","date":"2018-05"},"persistent_id":"e1e25d3e886c6ab031caa9f684f566b44d2888dd567c1edfb38043936bd415c0","id":65179834,"location_subtype":"","month":"2018-05"},{"category":"violent-crime","location_type":"Force","location":{"latitude":"51.558731","street":{"id":966546,"name":"On or near Court Road"},"longitude":"-0.448489"},"context":"","outcome_status":{"category":"Under investigation","date":"2018-05"},"persistent_id":"5f454a61dfb8ddb3f7e7ed8da3314eda5751dbfb9537ac61e4c9763d66a65435","id":65183398,"location_subtype":"","month":"2018-05"},{"category":"violent-crime","location_type":"Force","location":{"latitude":"51.563213","street":{"id":973440,"name":"On or near Charlbury Road"},"longitude":"-0.459070"},"context":"","outcome_status":{"category":"Investigation complete; no suspect identified","date":"2018-06"},"persistent_id":"b4b6e2cb6a41cba63b4910f91ab11ac765e8552503f57eddd0be125f7cae27a6","id":65168153,"location_subtype":"","month":"2018-05"},{"category":"violent-crime","location_type":"Force","location":{"latitude":"51.557335","street":{"id":966589,"name":"On or near Sussex Road"},"longitude":"-0.436794"},"context":"","outcome_status":{"category":"Under investigation","date":"2018-05"},"persistent_id":"de78e5e23715cae8ae65e16fa8aad4acee139fe2b6bdabf60369d179b088fd13","id":65212963,"location_subtype":"","month":"2018-05"},{"category":"violent-crime","location_type":"Force","location":{"latitude":"51.560816","street":{"id":966590,"name":"On or near St Giles Avenue"},"longitude":"-0.437584"},"context":"","outcome_status":{"category":"Under investigation","date":"2018-05"},"persistent_id":"58d32d33f47292ff938912fe35c7b9ba87748303dc68ef148a3048ca81e4a07c","id":65183259,"location_subtype":"","month":"2018-05"},{"category":"violent-crime","location_type":"Force","location":{"latitude":"51.569700","street":{"id":973406,"name":"On or near Bushey Close"},"longitude":"-0.450453"},"context":"","outcome_status":{"category":"Under investigation","date":"2018-05"},"persistent_id":"5966dacb8f42764bbe1eb0d015163ae5a93b16f580dfc2ae46d8eeb1bf3a7cb9","id":65222223,"location_subtype":"","month":"2018-05"},{"category":"violent-crime","location_type":"Force","location":{"latitude":"51.568119","street":{"id":973392,"name":"On or near St Georges Drive"},"longitude":"-0.457404"},"context":"","outcome_status":{"category":"Under investigation","date":"2018-05"},"persistent_id":"91edb325356fd83ba4f7c3dfeab48df9ba3b726de759194d25861492d88a31af","id":65164198,"location_subtype":"","month":"2018-05"}]