[{"category":"anti-social-behaviour","location_type":"Force","location":{"latitude":"51.417616","street":{"id":934330,"name":"On or near Crieff Court"},"longitude":"-0.316848"},"context":"","outcome_status":null,"persistent_id":"","id":49927484,"location_subtype":"","month":"2016-07"},{"category":"anti-social-behaviour","location_type":"Force","location":{"latitude":"51.417616","street":{"id":934330,"name":"On or near Crieff Court"},"longitude":"-0.316848"},"context":"","outcome_status":null,"persistent_id":"","id":49927485,"location_subtype":"","month":"2016-07"},{"category":"anti-social-behaviour","location_type":"Force","location":{"latitude":"51.412166","street":{"id":933768,"name":"On or near Church Grove"},"longitude":"-0.313655"},"context":"","outcome_status":null,"persistent_id":"","id":49927457,"location_subtype":"","month":"2016-07"},{"category":"anti-social-behaviour","location_type":"Force","location":{"latitude":"51.417720","street":{"id":934324,"name":"On or near School House Lane"},"longitude":"-0.318441"},"context":"","outcome_status":null,"persistent_id":"","id":49927492,"location_subtype":"","month":"2016-07"},{"category":"anti-social-behaviour","location_type":"Force","location":{"latitude":"51.418095","street":{"id":934334,"name":"On or near Wick Road"},"longitude":"-0.318269"},"context":"","outcome_status":null,"persistent_id":"","id":49927496,"location_subtype":"","month":"2016-07"},{"category":"anti-social-behaviour","location_type":"Force","location":{"latitude":"51.420538","street":{"id":934165,"name":"On or near Fairfax Road"},"longitude":"-0.323731"},"context":"","outcome_status":null,"persistent_id":"","id":49927513,"location_subtype":"","month":"2016-07"},{"category":"anti-social-behaviour","location_type":"Force","location":{"latitude":"51.424920","street":{"id":934302,"name":"On or near Broom Road"},"longitude":"-0.315142"},"context":"","outcome_status":null,"persistent_id":"","id":49927468,"location_subtype":"","month":"2016-07"},{"category":"anti-social-behaviour","location_type":"Force","location":{"latitude":"51.427104","street":{"id":934158,"name":"On or near Kingston Lane"},"longitude":"-0.326943"},"context":"","outcome_status":null,"persistent_id":"","id":49927522,"location_subtype":"","month":"2016-07"},{"category":"anti-social-behaviour","location_type":"Force","location":{"latitude":"51.417602","street":{"id":934329,"name":"On or near Elton Close"},"longitude":"-0.314634"},"context":"","outcome_status":null,"persistent_id":"","id":49927469,"location_subtype":"","month":"2016-07"},{"category":"anti-social-behaviour","location_type":"Force","location":{"latitude":"51.410946","street":{"id":933771,"name":"On or near Sports\/recreation Area"},"longitude":"-0.315123"},"context":"","outcome_status":null,"persistent_id":"","id":49927506,"location_subtype":"","month":"2016-07"},{"category":"anti-social-behaviour","location_type":"Force","location":{"latitude":"51.416443","street":{"id":934321,"name":"On or near Woffington Close"},"longitude":"-0.315353"},"context":"","outcome_status":null,"persistent_id":"","id":49927472,"location_subtype":"","month":"2016-07"},{"category":"anti-social-behaviour","location_type":"Force","location":{"latitude":"51.420021","street":{"id":934337,"name":"On or near Conifers Close"},"longitude":"-0.318414"},"context":"","outcome_status":null,"persistent_id":"","id":49927476,"location_subtype":"","month":"2016-07"},{"category":"anti-social-behaviour","location_type":"Force","location":{"latitude":"51.420021","street":{"id":934337,"name":"On or near Conifers Close"},"longitude":"-0.318414"},"context":"","outcome_status":null,"persistent_id":"","id":49927477,"location_subtype":"","month":"2016-07"},{"category":"anti-social-behaviour","location_type":"Force","location":{"latitude":"51.420021","street":{"id":934337,"name":"On or near Conifers Close"},"longitude":"-0.318414"},"context":"","outcome_status":null,"persistent_id":"","id":49927478,"location_subtype":"","month":"2016-07"},{"category":"anti-social-behaviour","location_type":"Force","location":{"latitude":"51.420021","street":{"id":934337,"name":"On or near Conifers Close"},"longitude":"-0.318414"},"context":"","outcome_status":null,"persistent_id":"","id":49927479,"location_subtype":"","month":"2016-07"},{"category":"anti-social-behaviour","location_type":"Force","location":{"latitude":"51.423830","street":{"id":934317,"name":"On or near Ferry Terminal"},"longitude":"-0.308767"},"context":"","outcome_status":null,"persistent_id":"","id":49927445,"location_subtype":"","month":"2016-07"},{"category":"anti-social-behaviour","location_type":"Force","location":{"latitude":"51.420021","street":{"id":934337,"name":"On or near Conifers Close"},"longitude":"-0.318414"},"context":"","outcome_status":null,"persistent_id":"","id":49927480,"location_subtype":"","month":"2016-07"},{"category":"anti-social-behaviour","location_type":"Force","location":{"latitude":"51.420021","street":{"id":934337,"name":"On or near Conifers Close"},"longitude":"-0.318414"},"context":"","outcome_status":null,"persistent_id":"","id":49927481,"location_subtype":"","month":"2016-07"},{"category":"anti-social-behaviour","location_type":"Force","location":{"latitude":"51.420021","street":{"id":934337,"name":"On or near Conifers Close"},"longitude":"-0.318414"},"context":"","outcome_status":null,"persistent_id":"","id":49927482,"location_subtype":"","month":"2016-07"},{"category":"anti-social-behaviour","location_type":"Force","location":{"latitude":"51.411515","street":{"id":933755,"name":"On or near Parking Area"},"longitude":"-0.310343"},"context":"","outcome_status":null,"persistent_id":"","id":49927454,"location_subtype":"","month":"2016-07"},{"category":"anti-social-behaviour","location_type":"Force","location":{"latitude":"51.425261","street":{"id":934285,"name":"On or near St Winifred's Road"},"longitude":"-0.319459"},"context":"","outcome_status":null,"persistent_id":"","id":49927505,"location_subtype":"","month":"2016-07"},{"category":"anti-social-behaviour","location_type":"Force","location":{"latitude":"51.420021","street":{"id":934337,"name":"On or near Conifers Close"},"longitude":"-0.318414"},"context":"","outcome_status":null,"persistent_id":"","id":49927483,"location_subtype":"","month":"2016-07"},{"category":"anti-social-behaviour","location_type":"Force","location":{"latitude":"51.415608","street":{"id":934320,"name":"On or near Lower Teddington Road"},"longitude":"-0.309818"},"context":"","outcome_status":null,"persistent_id":"","id":49927453,"location_subtype":"","month":"2016-07"},{"category":"bicycle-theft","location_type":"Force","location":{"latitude":"51.420364","street":{"id":934283,"name":"On or near Trematon Place"},"longitude":"-0.312231"},"context":"","outcome_status":{"category":"Status update unavailable","date":"2016-11"},"persistent_id":"72345bd6b2dfcd3923a3015fe1b45e6d04ece5f88cbe9d31208da9125bcf8ca4","id":49994465,"location_subtype":"","month":"2016-07"},{"category":"bicycle-theft","location_type":"Force","location":{"latitude":"51.420750","street":{"id":934313,"name":"On or near Marina Way"},"longitude":"-0.309700"},"context":"","outcome_status":{"category":"Investigation complete; no suspect identified","date":"2016-09"},"persistent_id":"42ce6484218942c94fa999eb4f939151d0c1c649612bf6ddbfcd0df1a610e1cd","id":49982631,"location_subtype":"","month":"2016-07"},{"category":"bicycle-theft","location_type":"Force","location":{"latitude":"51.426116","street":{"id":934147,"name":"On or near Marston Road"},"longitude":"-0.322649"},"context":"","outcome_status":{"category":"Status update unavailable","date":"2016-11"},"persistent_id":"e25983ea4a4f8631ad3ed629257fae539597b353ccfabf8b7bd23045113d6b1d","id":49990109,"location_subtype":"","month":"2016-07"},{"category":"bicycle-theft","location_type":"Force","location":{"latitude":"51.421066","street":{"id":934315,"name":"On or near Fairways"},"longitude":"-0.309128"},"context":"","outcome_status":{"category":"Investigation complete; no suspect identified","date":"2016-08"},"persistent_id":"e9aa1c14d8f2c31936626974f86b92944f563ffa4d3d3f129308be2dcaf2d495","id":49988609,"location_subtype":"","month":"2016-07"},{"category":"bicycle-theft","location_type":"Force","location":{"latitude":"51.423109","street":{"id":934288,"name":"On or near Munster Road"},"longitude":"-0.316776"},"context":"","outcome_status":{"category":"Status update unavailable","date":"2016-11"},"persistent_id":"97eaf736dcf603baa35afda24b318259cc4392715087ad07c8a59b10ad507e1e","id":50017088,"location_subtype":"","month":"2016-07"},{"category":"bicycle-theft","location_type":"Force","location":{"latitude":"51.413929","street":{"id":933754,"name":"On or near Parking Area"},"longitude":"-0.313734"},"context":"","outcome_status":{"category":"Investigation complete; no suspect identified","date":"2016-10"},"persistent_id":"f54fca469ecb33b344b09a5ed2e20ffdb1d810a5a70a7d1bbf64c939f8faa13e","id":49963860,"location_subtype":"","month":"2016-07"},{"category":"bicycle-theft","location_type":"Force","location":{"latitude":"51.414745","street":{"id":933753,"name":"On or near Pedestrian Subway"},"longitude":"-0.312309"},"context":"","outcome_status":{"category":"Status update unavailable","date":"2016-11"},"persistent_id":"cc332ea70f1c5b58e63fd3b2cbc5fac8dea05f0e50d2f6554f706a7c1b6fd4c3","id":50000495,"location_subtype":"","month":"2016-07"},{"category":"bicycle-theft","location_type":"Force","location":{"latitude":"51.417602","street":{"id":934329,"name":"On or near Elton Close"},"longitude":"-0.314634"},"context":"","outcome_status":{"category":"Status update unavailable","date":"2016-11"},"persistent_id":"0540d030aa31876ed8fc32fe3dd6303619495a25f4817f8d5db05bcd4a94056a","id":49999987,"location_subtype":"","month":"2016-07"},{"category":"bicycle-theft","location_type":"Force","location":{"latitude":"51.414745","street":{"id":933753,"name":"On or near Pedestrian Subway"},"longitude":"-0.312309"},"context":"","outcome_status":{"category":"Status update unavailable","date":"2016-11"},"persistent_id":"a6b7b0ebc32c8254593134e010233cc41969ea586d9d1384f530fe5d7a4ced90","id":49955635,"location_subtype":"","month":"2016-07"},{"category":"bicycle-theft","location_type":"Force","location":{"latitude":"51.416630","street":{"id":934327,"name":"On or near Lexington Place"},"longitude":"-0.310830"},"context":"","outcome_status":{"category":"Investigation complete; no suspect identified","date":"2016-09"},"persistent_id":"a8eaef5a2d0239018914a300244c1e679bcbc6703daf4705b69c2a8f518fa2c6","id":49973621,"location_subtype":"","month":"2016-07"},{"category":"burglary","location_type":"Force","location":{"latitude":"51.427104","street":{"id":934158,"name":"On or near Kingston Lane"},"longitude":"-0.326943"},"context":"","outcome_status":{"category":"Investigation complete; no suspect identified","date":"2016-09"},"persistent_id":"06e917b6b5bc8fdb9aa400d1dc73923c5f4a0ef31987c1d00bebd012f47df09a","id":50001698,"location_subtype":"","month":"2016-07"},{"category":"burglary","location_type":"Force","location":{"latitude":"51.423990","street":{"id":934293,"name":"On or near Keepers Mews"},"longitude":"-0.315463"},"context":"","outcome_status":{"category":"Investigation complete; no suspect identified","date":"2016-08"},"persistent_id":"8a5c966bbb5b8833e6f20791176f13ac0b6d691dd5f21f1e537f240000c91907","id":50008195,"location_subtype":"","month":"2016-07"},{"category":"burglary","location_type":"Force","location":{"latitude":"51.424694","street":{"id":934282,"name":"On or near Trowlock Avenue"},"longitude":"-0.312532"},"context":"","outcome_status":{"category":"Investigation complete; no suspect identified","date":"2016-08"},"persistent_id":"3ad4a26ba9483fad29254dcd556f937aaceedcb9998523c0df4d188a9cac9eca","id":50006225,"location_subtype":"","month":"2016-07"},{"category":"burglary","location_type":"Force","location":{"latitude":"51.423969","street":{"id":934299,"name":"On or near Broomfield Road"},"longitude":"-0.312746"},"context":"","outcome_status":{"category":"Investigation complete; no suspect identified","date":"2016-10"},"persistent_id":"d6d2baaf50aa0175eb61361abb4a49616ba41e960fb3dfcff36aabb77e982d1d","id":49993389,"location_subtype":"","month":"2016-07"},{"category":"burglary","location_type":"Force","location":{"latitude":"51.411515","street":{"id":933755,"name":"On or near Parking Area"},"longitude":"-0.310343"},"context":"","outcome_status":{"category":"Status update unavailable","date":"2016-11"},"persistent_id":"0491f50d8c0c101103d8251f8dce1a0ae71e34154fa35dbb0638f9ef155aeb05","id":49983471,"location_subtype":"","month":"2016-07"},{"category":"burglary","location_type":"Force","location":{"latitude":"51.421585","street":{"id":934167,"name":"On or near Down Road"},"longitude":"-0.320845"},"context":"","outcome_status":{"category":"Status update unavailable","date":"2016-11"},"persistent_id":"578b9d3378f32e828a75003f908372bb62932ea63a032c4c71bc045a12936123","id":49978780,"location_subtype":"","month":"2016-07"},{"category":"burglary","location_type":"Force","location":{"latitude":"51.420291","street":{"id":934316,"name":"On or near Broom Close"},"longitude":"-0.309616"},"context":"","outcome_status":{"category":"Investigation complete; no suspect identified","date":"2016-07"},"persistent_id":"bc383a60bcf9026a32245ad37c2209a5f9238ec123576e0fdaa9f737d881e2e5","id":49977536,"location_subtype":"","month":"2016-07"},{"category":"criminal-damage-arson","location_type":"Force","location":{"latitude":"51.423990","street":{"id":934293,"name":"On or near Keepers Mews"},"longitude":"-0.315463"},"context":"","outcome_status":{"category":"Status update unavailable","date":"2016-11"},"persistent_id":"d548f2873a1c6d500b948faa681c048d8e2a4a08bccef952cbf08af43082efb6","id":49978787,"location_subtype":"","month":"2016-07"},{"category":"criminal-damage-arson","location_type":"Force","location":{"latitude":"51.417602","street":{"id":934329,"name":"On or near Elton Close"},"longitude":"-0.314634"},"context":"","outcome_status":{"category":"Investigation complete; no suspect identified","date":"2016-09"},"persistent_id":"9848c5f7119276925c9a64d6c793eaa509375408c7161460316c5584d0ab810c","id":49977721,"location_subtype":"","month":"2016-07"},{"category":"criminal-damage-arson","location_type":"Force","location":{"latitude":"51.410946","street":{"id":933771,"name":"On or near Sports\/recreation Area"},"longitude":"-0.315123"},"context":"","outcome_status":{"category":"Status update unavailable","date":"2016-11"},"persistent_id":"b41b5a45cc844123ca34bc7d00740b0b19412628cdc52fccd6a938933cd3b41a","id":49989114,"location_subtype":"","month":"2016-07"},{"category":"criminal-damage-arson","location_type":"Force","location":{"latitude":"51.421585","street":{"id":934167,"name":"On or near Down Road"},"longitude":"-0.320845"},"context":"","outcome_status":{"category":"Investigation complete; no suspect identified","date":"2016-09"},"persistent_id":"630170b41f298d0638149a0209684aa13b7fb41e4a94001803c05c1c563026c7","id":49988608,"location_subtype":"","month":"2016-07"},{"category":"criminal-damage-arson","location_type":"Force","location":{"latitude":"51.413332","street":{"id":933766,"name":"On or near High Street"},"longitude":"-0.311599"},"context":"","outcome_status":{"category":"Investigation complete; no suspect identified","date":"2016-07"},"persistent_id":"320a0efb5dfe12b6eceea9cdcc8af9e7f70d7acb162e1713d6c6e7395ef7d032","id":49959530,"location_subtype":"","month":"2016-07"},{"category":"criminal-damage-arson","location_type":"Force","location":{"latitude":"51.422404","street":{"id":934153,"name":"On or near Rosebank Close"},"longitude":"-0.327215"},"context":"","outcome_status":{"category":"Status update unavailable","date":"2016-11"},"persistent_id":"385dd677a9070899353fdc52ce4cf128dacf62f10a6a1dff11643de79def1ddb","id":50001600,"location_subtype":"","month":"2016-07"},{"category":"criminal-damage-arson","location_type":"Force","location":{"latitude":"51.423174","street":{"id":934304,"name":"On or near Blagdon Walk"},"longitude":"-0.315652"},"context":"","outcome_status":{"category":"Status update unavailable","date":"2016-11"},"persistent_id":"8d4054f0d72e77e175527a6461ae37cc540e1654b83521efe9fa898d79bbfc76","id":50002363,"location_subtype":"","month":"2016-07"},{"category":"criminal-damage-arson","location_type":"Force","location":{"latitude":"51.423830","street":{"id":934317,"name":"On or near Ferry Terminal"},"longitude":"-0.308767"},"context":"","outcome_status":{"category":"Investigation complete; no suspect identified","date":"2016-07"},"persistent_id":"8f72e18a2658cf4e4d82ddc625eb371dbdc8f49b377abfbb3d968df5eb597c9a","id":49990992,"location_subtype":"","month":"2016-07"},{"category":"drugs","location_type":"Force","location":{"latitude":"51.411132","street":{"id":933767,"name":"On or near Hampton Court Road"},"longitude":"-0.311838"},"context":"","outcome_status":{"category":"Offender given a drugs possession warning","date":"2016-07"},"persistent_id":"10fd3e29a7edebcb0952802400c4ea97fed2f4f7ce989ab1af8c030987e966bf","id":49997807,"location_subtype":"","month":"2016-07"},{"category":"drugs","location_type":"Force","location":{"latitude":"51.411132","street":{"id":933767,"name":"On or near Hampton Court Road"},"longitude":"-0.311838"},"context":"","outcome_status":{"category":"Offender given a drugs possession warning","date":"2016-07"},"persistent_id":"fa465f3b5b482f918399b702db572d0e73c3d617cd1d896f16ef978bf447360b","id":49963598,"location_subtype":"","month":"2016-07"},{"category":"drugs","location_type":"Force","location":{"latitude":"51.423830","street":{"id":934317,"name":"On or near Ferry Terminal"},"longitude":"-0.308767"},"context":"","outcome_status":{"category":"Offender given a drugs possession warning","date":"2016-07"},"persistent_id":"c0cb2dce92ce9cd7e4c307f4958a7ecdc8fb71917443a780097ec30b3faf5bb8","id":49984673,"location_subtype":"","month":"2016-07"},{"category":"drugs","location_type":"Force","location":{"latitude":"51.413190","street":{"id":933764,"name":"On or near Park Road"},"longitude":"-0.312970"},"context":"","outcome_status":{"category":"Court result unavailable","date":"2017-04"},"persistent_id":"86ebc9052805607b377113a66be079f80c88f530983b5f49fc843bbbb2e3c12f","id":50000285,"location_subtype":"","month":"2016-07"},{"category":"other-theft","location_type":"Force","location":{"latitude":"51.416097","street":{"id":934325,"name":"On or near Sandy Lane"},"longitude":"-0.318788"},"context":"","outcome_status":{"category":"Investigation complete; no suspect identified","date":"2016-08"},"persistent_id":"9717933066af2971eb2f87cf49582f0d6fd28c825e5e2e77f089eb5ad608444b","id":49998957,"location_subtype":"","month":"2016-07"},{"category":"other-theft","location_type":"Force","location":{"latitude":"51.421585","street":{"id":934167,"name":"On or near Down Road"},"longitude":"-0.320845"},"context":"","outcome_status":{"category":"Investigation complete; no suspect identified","date":"2016-09"},"persistent_id":"578b9d3378f32e828a75003f908372bb62932ea63a032c4c71bc045a12936123","id":49978781,"location_subtype":"","month":"2016-07"},{"category":"other-theft","location_type":"Force","location":{"latitude":"51.420457","street":{"id":934306,"name":"On or near Petrol Station"},"longitude":"-0.318686"},"context":"","outcome_status":{"category":"Investigation complete; no suspect identified","date":"2016-09"},"persistent_id":"9cca6c42b033e939cd1360e32ae767d566f2fbea72ff7760053d76585feb44e4","id":49994488,"location_subtype":"","month":"2016-07"},{"category":"other-theft","location_type":"Force","location":{"latitude":"51.425145","street":{"id":934155,"name":"On or near Langham Road"},"longitude":"-0.323951"},"context":"","outcome_status":{"category":"Status update unavailable","date":"2016-11"},"persistent_id":"6ea926aa2f75a4502ed4ab204870b8a13c3d8e8a70e23048c504396813d23606","id":49973622,"location_subtype":"","month":"2016-07"},{"category":"other-theft","location_type":"Force","location":{"latitude":"51.414745","street":{"id":933753,"name":"On or near Pedestrian Subway"},"longitude":"-0.312309"},"context":"","outcome_status":{"category":"Investigation complete; no suspect identified","date":"2016-08"},"persistent_id":"b19dfe5e2488c89c9492b25cd904f0646045928d2a81ee125d50cf8b6cc5eeb0","id":49957785,"location_subtype":"","month":"2016-07"},{"category":"other-theft","location_type":"BTP","location":{"latitude":"51.414600","street":{"id":1487969,"name":"Hampton Wick (station)"},"longitude":"-0.312384"},"context":"","outcome_status":{"category":"Status update unavailable","date":"2016-11"},"persistent_id":"","id":66269321,"location_subtype":"STATION","month":"2016-07"},{"category":"other-theft","location_type":"Force","location":{"latitude":"51.427104","street":{"id":934158,"name":"On or near Kingston Lane"},"longitude":"-0.326943"},"context":"","outcome_status":{"category":"Status update unavailable","date":"2016-11"},"persistent_id":"9101184abbbb2e9eec9d337547f81dd3d12e9bde50dad1fc9d2b08b6cba27770","id":50012385,"location_subtype":"","month":"2016-07"},{"category":"public-order","location_type":"Force","location":{"latitude":"51.417602","street":{"id":934329,"name":"On or near Elton Close"},"longitude":"-0.314634"},"context":"","outcome_status":{"category":"Status update unavailable","date":"2016-11"},"persistent_id":"cf28d726e54f87f587eb0f48328179f1d8cfe2e216a84b946e3f63f5e75c8ca7","id":49979602,"location_subtype":"","month":"2016-07"},{"category":"public-order","location_type":"Force","location":{"latitude":"51.420413","street":{"id":934291,"name":"On or near Langdon Park"},"longitude":"-0.313740"},"context":"","outcome_status":{"category":"Investigation complete; no suspect identified","date":"2016-07"},"persistent_id":"b74cd7c92ca1d2b8d5df479ebd3e030a7a5c00d81f56a1b8077d66b78c1c241a","id":49993501,"location_subtype":"","month":"2016-07"},{"category":"public-order","location_type":"Force","location":{"latitude":"51.413446","street":{"id":933762,"name":"On or near School Lane"},"longitude":"-0.312659"},"context":"","outcome_status":{"category":"Investigation complete; no suspect identified","date":"2016-07"},"persistent_id":"09f696938463d1dc841b8b66f1acc2aa85d9be16f28a79159db14d9d076dfc46","id":50015717,"location_subtype":"","month":"2016-07"},{"category":"public-order","location_type":"Force","location":{"latitude":"51.427933","street":{"id":934308,"name":"On or near Conference\/exhibition Centre"},"longitude":"-0.318943"},"context":"","outcome_status":{"category":"Investigation complete; no suspect identified","date":"2016-08"},"persistent_id":"c9fe658c09b396cf8f45f760f8c9b5aa7577d652a749ca3833cef700a46f2ee3","id":49970430,"location_subtype":"","month":"2016-07"},{"category":"shoplifting","location_type":"Force","location":{"latitude":"51.427104","street":{"id":934158,"name":"On or near Kingston Lane"},"longitude":"-0.326943"},"context":"","outcome_status":{"category":"Investigation complete; no suspect identified","date":"2016-09"},"persistent_id":"478c7779fc5cc7a7be0b52839ad8691eba91c31f43b350c769f29137c43050b3","id":49978382,"location_subtype":"","month":"2016-07"},{"category":"vehicle-crime","location_type":"Force","location":{"latitude":"51.414898","street":{"id":933758,"name":"On or near Station Road"},"longitude":"-0.311038"},"context":"","outcome_status":{"category":"Status update unavailable","date":"2016-11"},"persistent_id":"7345041b4875755425662e3e31ab195c52ad3cc8c90d6307144fb4744c900a56","id":50001598,"location_subtype":"","month":"2016-07"},{"category":"vehicle-crime","location_type":"Force","location":{"latitude":"51.427933","street":{"id":934308,"name":"On or near Conference\/exhibition Centre"},"longitude":"-0.318943"},"context":"","outcome_status":{"category":"Status update unavailable","date":"2016-11"},"persistent_id":"877c2d81b21933fb5db178143880e949d6902ae87833114700c4e992f57daa53","id":49978790,"location_subtype":"","month":"2016-07"},{"category":"vehicle-crime","location_type":"Force","location":{"latitude":"51.412938","street":{"id":933752,"name":"On or near Becketts Place"},"longitude":"-0.309859"},"context":"","outcome_status":{"category":"Investigation complete; no suspect identified","date":"2016-10"},"persistent_id":"a0260f1029d49926a2743d58a0062ab0a2d459fa3070d3e4b576bcb94d43cdd9","id":49999861,"location_subtype":"","month":"2016-07"},{"category":"vehicle-crime","location_type":"Force","location":{"latitude":"51.422888","street":{"id":934172,"name":"On or near Addison Road"},"longitude":"-0.322696"},"context":"","outcome_status":{"category":"Status update unavailable","date":"2016-11"},"persistent_id":"a1e3937252cf7728b2756de29a9e9484c23c13645d07028583f44567c9be024d","id":49988432,"location_subtype":"","month":"2016-07"},{"category":"vehicle-crime","location_type":"Force","location":{"latitude":"51.422404","street":{"id":934153,"name":"On or near Rosebank Close"},"longitude":"-0.327215"},"context":"","outcome_status":{"category":"Status update unavailable","date":"2016-11"},"persistent_id":"f4c4bfce1308fc49b04ba4014c4c77356483904e7dca228012834ac70719c9b4","id":49993511,"location_subtype":"","month":"2016-07"},{"category":"vehicle-crime","location_type":"Force","location":{"latitude":"51.421585","street":{"id":934167,"name":"On or near Down Road"},"longitude":"-0.320845"},"context":"","outcome_status":{"category":"Investigation complete; no suspect identified","date":"2016-08"},"persistent_id":"d3d311cb559187ae3dd9ee267c27a29c17dcbb2db1fbb8126eafef63ac4a1348","id":50019529,"location_subtype":"","month":"2016-07"},{"category":"vehicle-crime","location_type":"Force","location":{"latitude":"51.415608","street":{"id":934320,"name":"On or near Lower Teddington Road"},"longitude":"-0.309818"},"context":"","outcome_status":{"category":"Status update unavailable","date":"2016-11"},"persistent_id":"5e991788df743542c906be9b64b35e27e2624d4d427bac6a9b54c8fd23ce2aba","id":49977112,"location_subtype":"","month":"2016-07"},{"category":"vehicle-crime","location_type":"Force","location":{"latitude":"51.418095","street":{"id":934334,"name":"On or near Wick Road"},"longitude":"-0.318269"},"context":"","outcome_status":{"category":"Status update unavailable","date":"2016-11"},"persistent_id":"db129ca33a89378063a3a5cde90be21d8d95e070d88ac8d7db0fa3773b46e40c","id":49982628,"location_subtype":"","month":"2016-07"},{"category":"vehicle-crime","location_type":"Force","location":{"latitude":"51.426320","street":{"id":934355,"name":"On or near Rivermead Close"},"longitude":"-0.318715"},"context":"","outcome_status":{"category":"Investigation complete; no suspect identified","date":"2016-07"},"persistent_id":"53e19c304890d214219151a3b4734d4ccee5f92f4399f0683006d15bd796c4e5","id":49974719,"location_subtype":"","month":"2016-07"},{"category":"vehicle-crime","location_type":"Force","location":{"latitude":"51.423830","street":{"id":934317,"name":"On or near Ferry Terminal"},"longitude":"-0.308767"},"context":"","outcome_status":{"category":"Status update unavailable","date":"2016-11"},"persistent_id":"c5aa7c98096eab695fd4c14e67ea0dd82dcd8d6ceddc8e3aa6c6d5fb21814d2e","id":49976797,"location_subtype":"","month":"2016-07"},{"category":"vehicle-crime","location_type":"Force","location":{"latitude":"51.411792","street":{"id":933765,"name":"On or near Old Bridge Street"},"longitude":"-0.310217"},"context":"","outcome_status":{"category":"Status update unavailable","date":"2016-11"},"persistent_id":"2b46c39d138d075f5a689c674a9b63a62648d82344cc5d07db6cd06d35ac7f91","id":49991167,"location_subtype":"","month":"2016-07"},{"category":"vehicle-crime","location_type":"Force","location":{"latitude":"51.420413","street":{"id":934291,"name":"On or near Langdon Park"},"longitude":"-0.313740"},"context":"","outcome_status":{"category":"Status update unavailable","date":"2016-11"},"persistent_id":"363e6666614b619f8e80b483650ab5ec7c8302929152e6c8548ffef7076f8de0","id":49986744,"location_subtype":"","month":"2016-07"},{"category":"vehicle-crime","location_type":"Force","location":{"latitude":"51.422034","street":{"id":934290,"name":"On or near Langwood Chase"},"longitude":"-0.312659"},"context":"","outcome_status":{"category":"Offender given conditional discharge","date":"2017-01"},"persistent_id":"2049b706823f6747396770f722ce190a3a659744ce2f1a4eb64da27bd920bc6c","id":50000279,"location_subtype":"","month":"2016-07"},{"category":"violent-crime","location_type":"Force","location":{"latitude":"51.417616","street":{"id":934330,"name":"On or near Crieff Court"},"longitude":"-0.316848"},"context":"","outcome_status":{"category":"Investigation complete; no suspect identified","date":"2016-11"},"persistent_id":"9d37f9aca28e3586ec6828cc349a6613100368a76e0e19782bf23aa542afc9e4","id":49968026,"location_subtype":"","month":"2016-07"},{"category":"violent-crime","location_type":"Force","location":{"latitude":"51.417616","street":{"id":934330,"name":"On or near Crieff Court"},"longitude":"-0.316848"},"context":"","outcome_status":{"category":"Status update unavailable","date":"2016-11"},"persistent_id":"43b20565a22ebd6f137bc7738c92dac79a50170d234c529da33b6f7b12aebfc2","id":49970434,"location_subtype":"","month":"2016-07"},{"category":"violent-crime","location_type":"Force","location":{"latitude":"51.417616","street":{"id":934330,"name":"On or near Crieff Court"},"longitude":"-0.316848"},"context":"","outcome_status":{"category":"Investigation complete; no suspect identified","date":"2016-07"},"persistent_id":"43b20565a22ebd6f137bc7738c92dac79a50170d234c529da33b6f7b12aebfc2","id":49970435,"location_subtype":"","month":"2016-07"},{"category":"violent-crime","location_type":"Force","location":{"latitude":"51.416443","street":{"id":934321,"name":"On or near Woffington Close"},"longitude":"-0.315353"},"context":"","outcome_status":{"category":"Investigation complete; no suspect identified","date":"2017-01"},"persistent_id":"7d74a588d8133bfc46ce1f3952f6bb92db72f37d809677fb7b19508471d5da8c","id":50008597,"location_subtype":"","month":"2016-07"},{"category":"violent-crime","location_type":"Force","location":{"latitude":"51.420696","street":{"id":934150,"name":"On or near St Mark's Road"},"longitude":"-0.320906"},"context":"","outcome_status":{"category":"Investigation complete; no suspect identified","date":"2016-08"},"persistent_id":"6dafcd12b0568e2427e2df9bd2020225922967b6adaed6ae9e2d3a5711550b08","id":50009398,"location_subtype":"","month":"2016-07"},{"category":"violent-crime","location_type":"Force","location":{"latitude":"51.417616","street":{"id":934330,"name":"On or near Crieff Court"},"longitude":"-0.316848"},"context":"","outcome_status":{"category":"Investigation complete; no suspect identified","date":"2016-08"},"persistent_id":"3e9c7dfbb3f2026c87b4ac938cd794c0ef961c44ba0855ddb8e3a5ee9da955fa","id":50001603,"location_subtype":"","month":"2016-07"},{"category":"violent-crime","location_type":"Force","location":{"latitude":"51.418369","street":{"id":934335,"name":"On or near Normansfield Avenue"},"longitude":"-0.312909"},"context":"","outcome_status":{"category":"Status update unavailable","date":"2016-11"},"persistent_id":"2d8a9caaf73e3519d6c8e8504b7d46fda6b2d02fd8677d2ccf4de87cc8825bc8","id":49988275,"location_subtype":"","month":"2016-07"},{"category":"violent-crime","location_type":"Force","location":{"latitude":"51.423830","street":{"id":934317,"name":"On or near Ferry Terminal"},"longitude":"-0.308767"},"context":"","outcome_status":{"category":"Investigation complete; no suspect identified","date":"2016-10"},"persistent_id":"b98eb23fd089822e6029175779ef0beba62fbc6d5ce69708e6a42fb65a166dd5","id":49980254,"location_subtype":"","month":"2016-07"},{"category":"violent-crime","location_type":"Force","location":{"latitude":"51.417720","street":{"id":934324,"name":"On or near School House Lane"},"longitude":"-0.318441"},"context":"","outcome_status":{"category":"Status update unavailable","date":"2016-11"},"persistent_id":"5c420d317dcc9ed6b322cff90b662a5e580c58c39c0a0a70917936bcd58f34bd","id":49970163,"location_subtype":"","month":"2016-07"},{"category":"violent-crime","location_type":"Force","location":{"latitude":"51.417616","street":{"id":934330,"name":"On or near Crieff Court"},"longitude":"-0.316848"},"context":"","outcome_status":{"category":"Investigation complete; no suspect identified","date":"2016-08"},"persistent_id":"3ede0696afaf88177bdd5b9c3d8d9ed8c420c710c62c2bd18c70ffa416c597e0","id":49965570,"location_subtype":"","month":"2016-07"},{"category":"violent-crime","location_type":"Force","location":{"latitude":"51.425294","street":{"id":934298,"name":"On or near Bucklands Road"},"longitude":"-0.313603"},"context":"","outcome_status":{"category":"Investigation complete; no suspect identified","date":"2016-07"},"persistent_id":"3c66b7a35cbaffcb7e53b69530627f23e018a0cb183f9d07097188116945389a","id":50004597,"location_subtype":"","month":"2016-07"},{"category":"violent-crime","location_type":"Force","location":{"latitude":"51.416097","street":{"id":934325,"name":"On or near Sandy Lane"},"longitude":"-0.318788"},"context":"","outcome_status":{"category":"Investigation complete; no suspect identified","date":"2016-07"},"persistent_id":"fb8e4e3ecb74552ee00663a27712fe355003d759f33bffc7891120fe0e8fc83f","id":50017320,"location_subtype":"","month":"2016-07"},{"category":"violent-crime","location_type":"Force","location":{"latitude":"51.417616","street":{"id":934330,"name":"On or near Crieff Court"},"longitude":"-0.316848"},"context":"","outcome_status":{"category":"Status update unavailable","date":"2016-11"},"persistent_id":"3ede0696afaf88177bdd5b9c3d8d9ed8c420c710c62c2bd18c70ffa416c597e0","id":49965569,"location_subtype":"","month":"2016-07"},{"category":"violent-crime","location_type":"Force","location":{"latitude":"51.411792","street":{"id":933765,"name":"On or near Old Bridge Street"},"longitude":"-0.310217"},"context":"","outcome_status":{"category":"Investigation complete; no suspect identified","date":"2016-07"},"persistent_id":"de58c0a12a7f3bf16c5884568b35f22573edf3293c77f7541f0d56c9bfd3a1e6","id":49999577,"location_subtype":"","month":"2016-07"}]