[{"category":"anti-social-behaviour","location_type":"Force","location":{"latitude":"51.476696","street":{"id":944537,"name":"On or near Great West Road"},"longitude":"-0.380080"},"context":"","outcome_status":null,"persistent_id":"","id":49939058,"location_subtype":"","month":"2016-07"},{"category":"anti-social-behaviour","location_type":"Force","location":{"latitude":"51.483211","street":{"id":951069,"name":"On or near Westbrook Road"},"longitude":"-0.376508"},"context":"","outcome_status":null,"persistent_id":"","id":49939021,"location_subtype":"","month":"2016-07"},{"category":"anti-social-behaviour","location_type":"Force","location":{"latitude":"51.479825","street":{"id":944518,"name":"On or near Sutton Way"},"longitude":"-0.374151"},"context":"","outcome_status":null,"persistent_id":"","id":49938957,"location_subtype":"","month":"2016-07"},{"category":"anti-social-behaviour","location_type":"Force","location":{"latitude":"51.475220","street":{"id":944396,"name":"On or near John Street"},"longitude":"-0.383257"},"context":"","outcome_status":null,"persistent_id":"","id":49939114,"location_subtype":"","month":"2016-07"},{"category":"anti-social-behaviour","location_type":"Force","location":{"latitude":"51.485115","street":{"id":951080,"name":"On or near Banksyard"},"longitude":"-0.378889"},"context":"","outcome_status":null,"persistent_id":"","id":49939065,"location_subtype":"","month":"2016-07"},{"category":"anti-social-behaviour","location_type":"Force","location":{"latitude":"51.475371","street":{"id":944389,"name":"On or near Scott Trimmer Way"},"longitude":"-0.383741"},"context":"","outcome_status":null,"persistent_id":"","id":49939115,"location_subtype":"","month":"2016-07"},{"category":"anti-social-behaviour","location_type":"Force","location":{"latitude":"51.475002","street":{"id":944434,"name":"On or near Bath Road"},"longitude":"-0.393503"},"context":"","outcome_status":null,"persistent_id":"","id":49939238,"location_subtype":"","month":"2016-07"},{"category":"anti-social-behaviour","location_type":"Force","location":{"latitude":"51.472603","street":{"id":944476,"name":"On or near Bath Road"},"longitude":"-0.385178"},"context":"","outcome_status":null,"persistent_id":"","id":49939127,"location_subtype":"","month":"2016-07"},{"category":"anti-social-behaviour","location_type":"Force","location":{"latitude":"51.472603","street":{"id":944476,"name":"On or near Bath Road"},"longitude":"-0.385178"},"context":"","outcome_status":null,"persistent_id":"","id":49939129,"location_subtype":"","month":"2016-07"},{"category":"anti-social-behaviour","location_type":"Force","location":{"latitude":"51.474385","street":{"id":944520,"name":"On or near Sutton Lane"},"longitude":"-0.376159"},"context":"","outcome_status":null,"persistent_id":"","id":49939025,"location_subtype":"","month":"2016-07"},{"category":"anti-social-behaviour","location_type":"Force","location":{"latitude":"51.477935","street":{"id":944388,"name":"On or near Shenley Road"},"longitude":"-0.384500"},"context":"","outcome_status":null,"persistent_id":"","id":49939131,"location_subtype":"","month":"2016-07"},{"category":"anti-social-behaviour","location_type":"Force","location":{"latitude":"51.475002","street":{"id":944434,"name":"On or near Bath Road"},"longitude":"-0.393503"},"context":"","outcome_status":null,"persistent_id":"","id":49939240,"location_subtype":"","month":"2016-07"},{"category":"anti-social-behaviour","location_type":"Force","location":{"latitude":"51.479741","street":{"id":944384,"name":"On or near Summerhouse Avenue"},"longitude":"-0.385704"},"context":"","outcome_status":null,"persistent_id":"","id":49939137,"location_subtype":"","month":"2016-07"},{"category":"anti-social-behaviour","location_type":"Force","location":{"latitude":"51.473476","street":{"id":944407,"name":"On or near Bath Road"},"longitude":"-0.387811"},"context":"","outcome_status":null,"persistent_id":"","id":49939149,"location_subtype":"","month":"2016-07"},{"category":"anti-social-behaviour","location_type":"Force","location":{"latitude":"51.477091","street":{"id":944512,"name":"On or near Willow Gardens"},"longitude":"-0.372880"},"context":"","outcome_status":null,"persistent_id":"","id":49938950,"location_subtype":"","month":"2016-07"},{"category":"anti-social-behaviour","location_type":"Force","location":{"latitude":"51.477656","street":{"id":944534,"name":"On or near Harris Close"},"longitude":"-0.372126"},"context":"","outcome_status":null,"persistent_id":"","id":49938946,"location_subtype":"","month":"2016-07"},{"category":"anti-social-behaviour","location_type":"Force","location":{"latitude":"51.475002","street":{"id":944434,"name":"On or near Bath Road"},"longitude":"-0.393503"},"context":"","outcome_status":null,"persistent_id":"","id":49939241,"location_subtype":"","month":"2016-07"},{"category":"anti-social-behaviour","location_type":"Force","location":{"latitude":"51.480075","street":{"id":944516,"name":"On or near Upper Sutton Lane"},"longitude":"-0.372789"},"context":"","outcome_status":null,"persistent_id":"","id":49938935,"location_subtype":"","month":"2016-07"},{"category":"anti-social-behaviour","location_type":"Force","location":{"latitude":"51.473895","street":{"id":944533,"name":"On or near Harte Road"},"longitude":"-0.375183"},"context":"","outcome_status":null,"persistent_id":"","id":49938924,"location_subtype":"","month":"2016-07"},{"category":"anti-social-behaviour","location_type":"Force","location":{"latitude":"51.481266","street":{"id":944529,"name":"On or near Old Park Mews"},"longitude":"-0.374978"},"context":"","outcome_status":null,"persistent_id":"","id":49939006,"location_subtype":"","month":"2016-07"},{"category":"anti-social-behaviour","location_type":"Force","location":{"latitude":"51.481086","street":{"id":944517,"name":"On or near The Crossways"},"longitude":"-0.377577"},"context":"","outcome_status":null,"persistent_id":"","id":49939056,"location_subtype":"","month":"2016-07"},{"category":"anti-social-behaviour","location_type":"Force","location":{"latitude":"51.477091","street":{"id":944512,"name":"On or near Willow Gardens"},"longitude":"-0.372880"},"context":"","outcome_status":null,"persistent_id":"","id":49938967,"location_subtype":"","month":"2016-07"},{"category":"anti-social-behaviour","location_type":"Force","location":{"latitude":"51.479398","street":{"id":944571,"name":"On or near West Way"},"longitude":"-0.379034"},"context":"","outcome_status":null,"persistent_id":"","id":49939067,"location_subtype":"","month":"2016-07"},{"category":"anti-social-behaviour","location_type":"Force","location":{"latitude":"51.479825","street":{"id":944518,"name":"On or near Sutton Way"},"longitude":"-0.374151"},"context":"","outcome_status":null,"persistent_id":"","id":49938961,"location_subtype":"","month":"2016-07"},{"category":"anti-social-behaviour","location_type":"Force","location":{"latitude":"51.475220","street":{"id":944396,"name":"On or near John Street"},"longitude":"-0.383257"},"context":"","outcome_status":null,"persistent_id":"","id":49939093,"location_subtype":"","month":"2016-07"},{"category":"anti-social-behaviour","location_type":"Force","location":{"latitude":"51.478572","street":{"id":944383,"name":"On or near Vicarage Farm Road"},"longitude":"-0.383095"},"context":"","outcome_status":null,"persistent_id":"","id":49939101,"location_subtype":"","month":"2016-07"},{"category":"anti-social-behaviour","location_type":"Force","location":{"latitude":"51.482601","street":{"id":944394,"name":"On or near Orchard Avenue"},"longitude":"-0.383082"},"context":"","outcome_status":null,"persistent_id":"","id":49939104,"location_subtype":"","month":"2016-07"},{"category":"anti-social-behaviour","location_type":"Force","location":{"latitude":"51.482601","street":{"id":944394,"name":"On or near Orchard Avenue"},"longitude":"-0.383082"},"context":"","outcome_status":null,"persistent_id":"","id":49939106,"location_subtype":"","month":"2016-07"},{"category":"anti-social-behaviour","location_type":"Force","location":{"latitude":"51.479825","street":{"id":944518,"name":"On or near Sutton Way"},"longitude":"-0.374151"},"context":"","outcome_status":null,"persistent_id":"","id":49938959,"location_subtype":"","month":"2016-07"},{"category":"bicycle-theft","location_type":"Force","location":{"latitude":"51.472603","street":{"id":944476,"name":"On or near Bath Road"},"longitude":"-0.385178"},"context":"","outcome_status":{"category":"Investigation complete; no suspect identified","date":"2016-08"},"persistent_id":"99ef9598465a3bf477627d0c5be7623a0503b00cf73abf2e696176c4845f7925","id":50001997,"location_subtype":"","month":"2016-07"},{"category":"bicycle-theft","location_type":"Force","location":{"latitude":"51.485228","street":{"id":951081,"name":"On or near Further\/higher Educational Building"},"longitude":"-0.375370"},"context":"","outcome_status":{"category":"Status update unavailable","date":"2016-11"},"persistent_id":"79ca8f3b1e874a0c16cb0c4b09000103722a263507237ef084a657730673e4ab","id":49989823,"location_subtype":"","month":"2016-07"},{"category":"burglary","location_type":"Force","location":{"latitude":"51.481266","street":{"id":944529,"name":"On or near Old Park Mews"},"longitude":"-0.374978"},"context":"","outcome_status":{"category":"Status update unavailable","date":"2016-11"},"persistent_id":"c7d07f86ce1a4ecd58d3c6e94ac53d4eb744a37a420d50445c6590a6b26b0134","id":49982381,"location_subtype":"","month":"2016-07"},{"category":"burglary","location_type":"Force","location":{"latitude":"51.481266","street":{"id":944529,"name":"On or near Old Park Mews"},"longitude":"-0.374978"},"context":"","outcome_status":{"category":"Status update unavailable","date":"2016-11"},"persistent_id":"c7d07f86ce1a4ecd58d3c6e94ac53d4eb744a37a420d50445c6590a6b26b0134","id":49982380,"location_subtype":"","month":"2016-07"},{"category":"burglary","location_type":"Force","location":{"latitude":"51.481266","street":{"id":944529,"name":"On or near Old Park Mews"},"longitude":"-0.374978"},"context":"","outcome_status":{"category":"Status update unavailable","date":"2016-11"},"persistent_id":"c7d07f86ce1a4ecd58d3c6e94ac53d4eb744a37a420d50445c6590a6b26b0134","id":49982379,"location_subtype":"","month":"2016-07"},{"category":"burglary","location_type":"Force","location":{"latitude":"51.474505","street":{"id":944399,"name":"On or near Dalcross Road"},"longitude":"-0.387444"},"context":"","outcome_status":{"category":"Status update unavailable","date":"2016-11"},"persistent_id":"fa922b6bdf2767c5b98cc4642986a1caec3bfa2fad2dad3dbcf340ea455f1573","id":49970286,"location_subtype":"","month":"2016-07"},{"category":"burglary","location_type":"Force","location":{"latitude":"51.480445","street":{"id":944385,"name":"On or near St Leonard's Gardens"},"longitude":"-0.385852"},"context":"","outcome_status":{"category":"Investigation complete; no suspect identified","date":"2016-07"},"persistent_id":"784e51c54c93eb8d210dbe214b78406f5a3f1f9a65764427670d46b3f67f14a3","id":50002165,"location_subtype":"","month":"2016-07"},{"category":"burglary","location_type":"Force","location":{"latitude":"51.481266","street":{"id":944529,"name":"On or near Old Park Mews"},"longitude":"-0.374978"},"context":"","outcome_status":{"category":"Status update unavailable","date":"2016-11"},"persistent_id":"c7d07f86ce1a4ecd58d3c6e94ac53d4eb744a37a420d50445c6590a6b26b0134","id":49982383,"location_subtype":"","month":"2016-07"},{"category":"burglary","location_type":"Force","location":{"latitude":"51.477091","street":{"id":944512,"name":"On or near Willow Gardens"},"longitude":"-0.372880"},"context":"","outcome_status":{"category":"Status update unavailable","date":"2016-11"},"persistent_id":"6804da91d6e3bf847a5a1f982e5cc29bf12bbc798d5224f1ef02655fa6faea63","id":49974535,"location_subtype":"","month":"2016-07"},{"category":"burglary","location_type":"Force","location":{"latitude":"51.474900","street":{"id":944538,"name":"On or near George Street"},"longitude":"-0.377609"},"context":"","outcome_status":{"category":"Investigation complete; no suspect identified","date":"2016-08"},"persistent_id":"d44cfa7d680bc8c16e4ffef054c3c71fa61f00c2e4db9ea3352e758c2229bd7e","id":50001958,"location_subtype":"","month":"2016-07"},{"category":"burglary","location_type":"Force","location":{"latitude":"51.481266","street":{"id":944529,"name":"On or near Old Park Mews"},"longitude":"-0.374978"},"context":"","outcome_status":{"category":"Status update unavailable","date":"2016-11"},"persistent_id":"c7d07f86ce1a4ecd58d3c6e94ac53d4eb744a37a420d50445c6590a6b26b0134","id":49982382,"location_subtype":"","month":"2016-07"},{"category":"criminal-damage-arson","location_type":"Force","location":{"latitude":"51.475220","street":{"id":944396,"name":"On or near John Street"},"longitude":"-0.383257"},"context":"","outcome_status":{"category":"Status update unavailable","date":"2016-11"},"persistent_id":"31b6939a0567434932f2cee85ceeafa824755678443baef5c3499564b4d39cd4","id":50005237,"location_subtype":"","month":"2016-07"},{"category":"criminal-damage-arson","location_type":"Force","location":{"latitude":"51.476975","street":{"id":944544,"name":"On or near Burton Gardens"},"longitude":"-0.377492"},"context":"","outcome_status":{"category":"Status update unavailable","date":"2016-11"},"persistent_id":"9c761e60e288ba21ff7efabe81aa5e6bd17d2c61bad3c7aad5d7a783c892ee9e","id":50013818,"location_subtype":"","month":"2016-07"},{"category":"criminal-damage-arson","location_type":"Force","location":{"latitude":"51.476975","street":{"id":944544,"name":"On or near Burton Gardens"},"longitude":"-0.377492"},"context":"","outcome_status":{"category":"Status update unavailable","date":"2016-11"},"persistent_id":"9c761e60e288ba21ff7efabe81aa5e6bd17d2c61bad3c7aad5d7a783c892ee9e","id":50013817,"location_subtype":"","month":"2016-07"},{"category":"criminal-damage-arson","location_type":"Force","location":{"latitude":"51.474505","street":{"id":944399,"name":"On or near Dalcross Road"},"longitude":"-0.387444"},"context":"","outcome_status":{"category":"Investigation complete; no suspect identified","date":"2016-09"},"persistent_id":"591c521e2b916f15ef2af9634496907f7ba70b987ea031283a03d5bee6d4d196","id":50005921,"location_subtype":"","month":"2016-07"},{"category":"criminal-damage-arson","location_type":"Force","location":{"latitude":"51.480288","street":{"id":944514,"name":"On or near Upper Sutton Lane"},"longitude":"-0.372565"},"context":"","outcome_status":{"category":"Investigation complete; no suspect identified","date":"2016-08"},"persistent_id":"ed33a3ebe0dafece2c33ce59fc7d4008af59f5da437f3d385ecde3fa7509f210","id":49961452,"location_subtype":"","month":"2016-07"},{"category":"criminal-damage-arson","location_type":"Force","location":{"latitude":"51.472603","street":{"id":944476,"name":"On or near Bath Road"},"longitude":"-0.385178"},"context":"","outcome_status":{"category":"Offender given community sentence","date":"2016-10"},"persistent_id":"6805b91195e919d0617ec95d2e5d2cec5bf26616e1ef96ed3047cb8ab80a5356","id":49997096,"location_subtype":"","month":"2016-07"},{"category":"criminal-damage-arson","location_type":"Force","location":{"latitude":"51.483211","street":{"id":951069,"name":"On or near Westbrook Road"},"longitude":"-0.376508"},"context":"","outcome_status":{"category":"Status update unavailable","date":"2016-11"},"persistent_id":"19561559b752bef0bc6cd15c26490ac73a58e1171e6714d2208346ad4b19e389","id":49987594,"location_subtype":"","month":"2016-07"},{"category":"criminal-damage-arson","location_type":"Force","location":{"latitude":"51.475857","street":{"id":944393,"name":"On or near Poole Court Road"},"longitude":"-0.385078"},"context":"","outcome_status":{"category":"Status update unavailable","date":"2016-11"},"persistent_id":"a10e0a8b2970c78dc56fd2a8a1c8407754db425810ef0a1357539452b1d616b9","id":49985656,"location_subtype":"","month":"2016-07"},{"category":"criminal-damage-arson","location_type":"Force","location":{"latitude":"51.476975","street":{"id":944544,"name":"On or near Burton Gardens"},"longitude":"-0.377492"},"context":"","outcome_status":{"category":"Investigation complete; no suspect identified","date":"2016-09"},"persistent_id":"cf9e4db2b35a6a4ada2a8a4625dd59b0bf9e5acbdcd4078d897d68645ad42b70","id":49980720,"location_subtype":"","month":"2016-07"},{"category":"criminal-damage-arson","location_type":"Force","location":{"latitude":"51.478374","street":{"id":944428,"name":"On or near Chailey Close"},"longitude":"-0.390259"},"context":"","outcome_status":{"category":"Investigation complete; no suspect identified","date":"2016-08"},"persistent_id":"d09a4a237068d5e02b5acef61e0cf2d4691b2cfa0ecff02c95bdfa634066d68a","id":49976664,"location_subtype":"","month":"2016-07"},{"category":"criminal-damage-arson","location_type":"Force","location":{"latitude":"51.471254","street":{"id":944557,"name":"On or near Bath Road"},"longitude":"-0.381237"},"context":"","outcome_status":{"category":"Investigation complete; no suspect identified","date":"2016-09"},"persistent_id":"97496f2c7b78c6cf323a4625dfe81757aa2283c596bbe2e9d315df4d25cc1dd2","id":49967213,"location_subtype":"","month":"2016-07"},{"category":"criminal-damage-arson","location_type":"Force","location":{"latitude":"51.473821","street":{"id":944413,"name":"On or near Parking Area"},"longitude":"-0.389397"},"context":"","outcome_status":{"category":"Status update unavailable","date":"2016-11"},"persistent_id":"f031b0e2099ee6ba02158632f78b6275ca0a011b6a847dccc5f2870ee93b499c","id":49956921,"location_subtype":"","month":"2016-07"},{"category":"criminal-damage-arson","location_type":"Force","location":{"latitude":"51.480445","street":{"id":944385,"name":"On or near St Leonard's Gardens"},"longitude":"-0.385852"},"context":"","outcome_status":{"category":"Status update unavailable","date":"2016-11"},"persistent_id":"37c70831957d0997ae4ebefa585421e5afb3bb2a198715633da0f53c0d12f4ff","id":49955234,"location_subtype":"","month":"2016-07"},{"category":"drugs","location_type":"Force","location":{"latitude":"51.473821","street":{"id":944413,"name":"On or near Parking Area"},"longitude":"-0.389397"},"context":"","outcome_status":{"category":"Offender given a drugs possession warning","date":"2016-07"},"persistent_id":"77003ee23602efdacb7d534e009ac9f3edfa6418291fbd6892fe38948dd1706c","id":49953885,"location_subtype":"","month":"2016-07"},{"category":"drugs","location_type":"Force","location":{"latitude":"51.472603","street":{"id":944476,"name":"On or near Bath Road"},"longitude":"-0.385178"},"context":"","outcome_status":{"category":"Offender given a drugs possession warning","date":"2016-08"},"persistent_id":"5f8dad8baa18e10a14c65fb8d1086d6051d689ec8229a37e02970a3b1b2e5919","id":49973577,"location_subtype":"","month":"2016-07"},{"category":"drugs","location_type":"Force","location":{"latitude":"51.475371","street":{"id":944389,"name":"On or near Scott Trimmer Way"},"longitude":"-0.383741"},"context":"","outcome_status":{"category":"Offender given a drugs possession warning","date":"2016-08"},"persistent_id":"61137e22daa8fdf08e88246755fd3c42f1adde444a58464ab85bce44c2e39af9","id":49964374,"location_subtype":"","month":"2016-07"},{"category":"drugs","location_type":"Force","location":{"latitude":"51.479398","street":{"id":944571,"name":"On or near West Way"},"longitude":"-0.379034"},"context":"","outcome_status":{"category":"Offender given a drugs possession warning","date":"2016-07"},"persistent_id":"4d69f3f4c464154844d7e0a7f76e94cab3b3f4494598962d90263416fc9151a9","id":49957286,"location_subtype":"","month":"2016-07"},{"category":"drugs","location_type":"Force","location":{"latitude":"51.479723","street":{"id":944406,"name":"On or near Beaufort Gardens"},"longitude":"-0.383717"},"context":"","outcome_status":{"category":"Offender deprived of property","date":"2016-08"},"persistent_id":"9992ca97a6c44db54626962a7f29581e259251fec24fcf36f2fd003bb0a950a9","id":49992558,"location_subtype":"","month":"2016-07"},{"category":"drugs","location_type":"Force","location":{"latitude":"51.474505","street":{"id":944399,"name":"On or near Dalcross Road"},"longitude":"-0.387444"},"context":"","outcome_status":{"category":"Offender given a drugs possession warning","date":"2016-08"},"persistent_id":"6ca57484c9b057668984aafee1decd1be42c796e9d0f489944ea1b910de4a42c","id":49976946,"location_subtype":"","month":"2016-07"},{"category":"other-theft","location_type":"Force","location":{"latitude":"51.474993","street":{"id":923555,"name":"On or near Petrol Station"},"longitude":"-0.392207"},"context":"","outcome_status":{"category":"Investigation complete; no suspect identified","date":"2016-11"},"persistent_id":"717b69b92a7e7ba56720b8b46aabe58a29a16c29963176bb3d340ed6634d265d","id":49957294,"location_subtype":"","month":"2016-07"},{"category":"other-theft","location_type":"Force","location":{"latitude":"51.473821","street":{"id":944413,"name":"On or near Parking Area"},"longitude":"-0.389397"},"context":"","outcome_status":{"category":"Investigation complete; no suspect identified","date":"2016-09"},"persistent_id":"5ea0b449414df1bcdd47a761238c85b391bcc1c29467ad5fe16d16b2ba379a3b","id":49965385,"location_subtype":"","month":"2016-07"},{"category":"other-theft","location_type":"Force","location":{"latitude":"51.485228","street":{"id":951081,"name":"On or near Further\/higher Educational Building"},"longitude":"-0.375370"},"context":"","outcome_status":{"category":"Status update unavailable","date":"2016-11"},"persistent_id":"3ded5935cf0423bef19eb444c8ae3d64e3f6f841e7c991d61bd9bc8efcefa1b9","id":49962137,"location_subtype":"","month":"2016-07"},{"category":"other-theft","location_type":"Force","location":{"latitude":"51.475857","street":{"id":944393,"name":"On or near Poole Court Road"},"longitude":"-0.385078"},"context":"","outcome_status":{"category":"Investigation complete; no suspect identified","date":"2016-08"},"persistent_id":"5d7959446bb425c1144ea45d02561f7a803a54ad6772272ec8f293120aad719c","id":50017917,"location_subtype":"","month":"2016-07"},{"category":"other-theft","location_type":"Force","location":{"latitude":"51.483589","street":{"id":951113,"name":"On or near Cranford Lane"},"longitude":"-0.384977"},"context":"","outcome_status":{"category":"Investigation complete; no suspect identified","date":"2016-07"},"persistent_id":"46ca6c70a1848680e5821926a3003ebe113e893672412f6d5055aaf2873479e5","id":49961466,"location_subtype":"","month":"2016-07"},{"category":"other-theft","location_type":"Force","location":{"latitude":"51.477935","street":{"id":944388,"name":"On or near Shenley Road"},"longitude":"-0.384500"},"context":"","outcome_status":{"category":"Investigation complete; no suspect identified","date":"2016-07"},"persistent_id":"e253045dfa11f2f7c8b113e5a19d1127d7347639ef8c19930c50b3e6e5ef38f6","id":50002265,"location_subtype":"","month":"2016-07"},{"category":"other-theft","location_type":"Force","location":{"latitude":"51.474598","street":{"id":944390,"name":"On or near Rosary Close"},"longitude":"-0.385065"},"context":"","outcome_status":{"category":"Investigation complete; no suspect identified","date":"2016-08"},"persistent_id":"4633ac442b3ba03eb3e59e4596592babe33d98af23df2f33fa18cb6d6574e55f","id":49957700,"location_subtype":"","month":"2016-07"},{"category":"other-theft","location_type":"Force","location":{"latitude":"51.475029","street":{"id":944425,"name":"On or near Hurn Court Road"},"longitude":"-0.390248"},"context":"","outcome_status":{"category":"Status update unavailable","date":"2016-11"},"persistent_id":"b2922cb583b125756817c6ea197de0589b9bac930288a35301bfb3d747819080","id":49973825,"location_subtype":"","month":"2016-07"},{"category":"other-theft","location_type":"BTP","location":{"latitude":"51.473400","street":{"id":1488725,"name":"Hounslow West (lu Station)"},"longitude":"-0.385768"},"context":"","outcome_status":{"category":"Status update unavailable","date":"2016-11"},"persistent_id":"","id":66268522,"location_subtype":"LU STATION","month":"2016-07"},{"category":"other-theft","location_type":"BTP","location":{"latitude":"51.473400","street":{"id":1488725,"name":"Hounslow West (lu Station)"},"longitude":"-0.385768"},"context":"","outcome_status":{"category":"Status update unavailable","date":"2016-11"},"persistent_id":"","id":66268521,"location_subtype":"LU STATION","month":"2016-07"},{"category":"other-theft","location_type":"Force","location":{"latitude":"51.479723","street":{"id":944406,"name":"On or near Beaufort Gardens"},"longitude":"-0.383717"},"context":"","outcome_status":{"category":"Investigation complete; no suspect identified","date":"2016-08"},"persistent_id":"59e53da2c240404fe15cdb9b287fa4964325220b52f4e15d9d465235b40438c3","id":49978633,"location_subtype":"","month":"2016-07"},{"category":"other-theft","location_type":"Force","location":{"latitude":"51.474505","street":{"id":944399,"name":"On or near Dalcross Road"},"longitude":"-0.387444"},"context":"","outcome_status":{"category":"Investigation complete; no suspect identified","date":"2016-10"},"persistent_id":"113c5c29397ee59dce987148489b0d1cd83f9676b714deb4a86afce476948c5d","id":49985660,"location_subtype":"","month":"2016-07"},{"category":"other-theft","location_type":"Force","location":{"latitude":"51.476938","street":{"id":944403,"name":"On or near Broad Walk"},"longitude":"-0.388496"},"context":"","outcome_status":{"category":"Investigation complete; no suspect identified","date":"2016-09"},"persistent_id":"a1b5516115d6ee8f86c02de934ff4d57bf5cb212cbfa0a4c61c393f149dcaa34","id":49969118,"location_subtype":"","month":"2016-07"},{"category":"possession-of-weapons","location_type":"Force","location":{"latitude":"51.479723","street":{"id":944406,"name":"On or near Beaufort Gardens"},"longitude":"-0.383717"},"context":"","outcome_status":{"category":"Status update unavailable","date":"2016-11"},"persistent_id":"9992ca97a6c44db54626962a7f29581e259251fec24fcf36f2fd003bb0a950a9","id":49992557,"location_subtype":"","month":"2016-07"},{"category":"public-order","location_type":"Force","location":{"latitude":"51.475371","street":{"id":944389,"name":"On or near Scott Trimmer Way"},"longitude":"-0.383741"},"context":"","outcome_status":{"category":"Status update unavailable","date":"2016-11"},"persistent_id":"1670cd043912a7add833542b1fa46280864b8533d26c67e9e0466aa5301b1de9","id":49956382,"location_subtype":"","month":"2016-07"},{"category":"public-order","location_type":"Force","location":{"latitude":"51.475888","street":{"id":944526,"name":"On or near Queenswood Avenue"},"longitude":"-0.377545"},"context":"","outcome_status":{"category":"Investigation complete; no suspect identified","date":"2016-09"},"persistent_id":"ba6cec5a0f1ed198ad002278130252c1a8e9edef2c91de61e7c5d2244cce441d","id":49961958,"location_subtype":"","month":"2016-07"},{"category":"public-order","location_type":"Force","location":{"latitude":"51.483589","street":{"id":951113,"name":"On or near Cranford Lane"},"longitude":"-0.384977"},"context":"","outcome_status":{"category":"Investigation complete; no suspect identified","date":"2016-08"},"persistent_id":"0763609559218e68a12c208d10abbd2af788a96853260deb7f2edbc180ccad42","id":49955997,"location_subtype":"","month":"2016-07"},{"category":"public-order","location_type":"Force","location":{"latitude":"51.474598","street":{"id":944390,"name":"On or near Rosary Close"},"longitude":"-0.385065"},"context":"","outcome_status":{"category":"Investigation complete; no suspect identified","date":"2016-12"},"persistent_id":"93c1b284159b0f379bbe768f5a300c2f84c7914a719aed0d5002ec67d3d1ce96","id":49958868,"location_subtype":"","month":"2016-07"},{"category":"public-order","location_type":"Force","location":{"latitude":"51.482601","street":{"id":944394,"name":"On or near Orchard Avenue"},"longitude":"-0.383082"},"context":"","outcome_status":{"category":"Investigation complete; no suspect identified","date":"2016-08"},"persistent_id":"21131ce4762f1b5e89b3522c8f6d1b554de9b95a130a334076a2aae5b6432c99","id":49989429,"location_subtype":"","month":"2016-07"},{"category":"public-order","location_type":"Force","location":{"latitude":"51.477935","street":{"id":944388,"name":"On or near Shenley Road"},"longitude":"-0.384500"},"context":"","outcome_status":{"category":"Investigation complete; no suspect identified","date":"2016-08"},"persistent_id":"78a36c50cca0c1f907a0296324e4cc71d1d5e60068fd144056fa30b81ba0f080","id":49955447,"location_subtype":"","month":"2016-07"},{"category":"public-order","location_type":"Force","location":{"latitude":"51.472603","street":{"id":944476,"name":"On or near Bath Road"},"longitude":"-0.385178"},"context":"","outcome_status":{"category":"Investigation complete; no suspect identified","date":"2016-11"},"persistent_id":"18658c4cf3a3cdaff5f24b608120ec7a970577f649854ee759a5cd27470ed540","id":50015528,"location_subtype":"","month":"2016-07"},{"category":"public-order","location_type":"Force","location":{"latitude":"51.482833","street":{"id":951071,"name":"On or near The Warren"},"longitude":"-0.379704"},"context":"","outcome_status":{"category":"Status update unavailable","date":"2016-11"},"persistent_id":"10584d2ccf004516ebe50e6d7a64a157421bbc2f4d0c315e6c001cbe1a5a5d71","id":49999571,"location_subtype":"","month":"2016-07"},{"category":"robbery","location_type":"Force","location":{"latitude":"51.482833","street":{"id":951071,"name":"On or near The Warren"},"longitude":"-0.379704"},"context":"","outcome_status":{"category":"Investigation complete; no suspect identified","date":"2016-09"},"persistent_id":"d379eafc2c4d9a5ca48be0acb0f4fc53f10df4d0aa2977051a9dd59c21e2cff9","id":49954187,"location_subtype":"","month":"2016-07"},{"category":"robbery","location_type":"Force","location":{"latitude":"51.479723","street":{"id":944406,"name":"On or near Beaufort Gardens"},"longitude":"-0.383717"},"context":"","outcome_status":{"category":"Offender sent to prison","date":"2016-09"},"persistent_id":"b99f79e5af4cadd5c1c2811a4c2604bd21797e6e657efdd1555a793a940db2ac","id":49955533,"location_subtype":"","month":"2016-07"},{"category":"robbery","location_type":"Force","location":{"latitude":"51.479536","street":{"id":944528,"name":"On or near Palmer Close"},"longitude":"-0.372779"},"context":"","outcome_status":{"category":"Investigation complete; no suspect identified","date":"2016-08"},"persistent_id":"7d9aac683621808886780d5d3ea1d5bc0371efbc1714e9f1394d309cff7f1a55","id":49978577,"location_subtype":"","month":"2016-07"},{"category":"robbery","location_type":"Force","location":{"latitude":"51.471254","street":{"id":944557,"name":"On or near Bath Road"},"longitude":"-0.381237"},"context":"","outcome_status":{"category":"Investigation complete; no suspect identified","date":"2016-09"},"persistent_id":"532223327ac46b8ebd12066203e9a69aab66325a87bddcf0007e129ab699c4ea","id":49955141,"location_subtype":"","month":"2016-07"},{"category":"robbery","location_type":"Force","location":{"latitude":"51.479723","street":{"id":944406,"name":"On or near Beaufort Gardens"},"longitude":"-0.383717"},"context":"","outcome_status":{"category":"Investigation complete; no suspect identified","date":"2016-09"},"persistent_id":"7f911711afad98852deb5af41069f7cf6247278d92636d9465390eadcb9d7fb0","id":49955198,"location_subtype":"","month":"2016-07"},{"category":"shoplifting","location_type":"Force","location":{"latitude":"51.482833","street":{"id":951071,"name":"On or near The Warren"},"longitude":"-0.379704"},"context":"","outcome_status":{"category":"Investigation complete; no suspect identified","date":"2016-08"},"persistent_id":"f1ab73ec73e61158227934c8686385ab0edc4aba8eb4fa258e76569eb9ac0978","id":49973557,"location_subtype":"","month":"2016-07"},{"category":"shoplifting","location_type":"Force","location":{"latitude":"51.484936","street":{"id":951075,"name":"On or near Heston Road"},"longitude":"-0.373120"},"context":"","outcome_status":{"category":"Investigation complete; no suspect identified","date":"2016-08"},"persistent_id":"06b7e522b7aa5b25b215cd2fa3d5e9e0c9d5316fabbd7c0b85c3b8bea18b6c21","id":49983601,"location_subtype":"","month":"2016-07"},{"category":"vehicle-crime","location_type":"Force","location":{"latitude":"51.482833","street":{"id":951071,"name":"On or near The Warren"},"longitude":"-0.379704"},"context":"","outcome_status":{"category":"Investigation complete; no suspect identified","date":"2016-09"},"persistent_id":"93f9c1e02dc3dc08bccf06259044d35222f77189b919b68766a3598aee2aa459","id":49955735,"location_subtype":"","month":"2016-07"},{"category":"vehicle-crime","location_type":"Force","location":{"latitude":"51.474774","street":{"id":944391,"name":"On or near Renfrew Road"},"longitude":"-0.388068"},"context":"","outcome_status":{"category":"Status update unavailable","date":"2016-11"},"persistent_id":"74ab130c35550d05159bf402d6086eb0ffc81b347e4e655e1e9a0b07498d4675","id":49984567,"location_subtype":"","month":"2016-07"},{"category":"vehicle-crime","location_type":"Force","location":{"latitude":"51.475634","street":{"id":944398,"name":"On or near Elmdon Road"},"longitude":"-0.388441"},"context":"","outcome_status":{"category":"Status update unavailable","date":"2016-11"},"persistent_id":"f01d135699bc16cd59115bfa91173039c55228319a62c2793f40f15ef4c6c246","id":49977290,"location_subtype":"","month":"2016-07"},{"category":"vehicle-crime","location_type":"Force","location":{"latitude":"51.478374","street":{"id":944428,"name":"On or near Chailey Close"},"longitude":"-0.390259"},"context":"","outcome_status":{"category":"Investigation complete; no suspect identified","date":"2016-10"},"persistent_id":"b9447694ba6121b6aff2ed1f4332ceb1c2b4f0588011d63b96f1a699c516ef6f","id":49976660,"location_subtype":"","month":"2016-07"},{"category":"vehicle-crime","location_type":"Force","location":{"latitude":"51.485186","street":{"id":951072,"name":"On or near New Heston Road"},"longitude":"-0.376927"},"context":"","outcome_status":{"category":"Status update unavailable","date":"2016-11"},"persistent_id":"a0c7e254be73c5bab9f9206b8fd71faf612ac8642ba9098f655762bfcef5fae0","id":49961940,"location_subtype":"","month":"2016-07"},{"category":"vehicle-crime","location_type":"Force","location":{"latitude":"51.481266","street":{"id":944529,"name":"On or near Old Park Mews"},"longitude":"-0.374978"},"context":"","outcome_status":{"category":"Status update unavailable","date":"2016-11"},"persistent_id":"1a0de64b5f34fdadf5ebbe05043238feee4242555e600b56f8c55bf93d4466ec","id":49961230,"location_subtype":"","month":"2016-07"},{"category":"vehicle-crime","location_type":"Force","location":{"latitude":"51.482601","street":{"id":944394,"name":"On or near Orchard Avenue"},"longitude":"-0.383082"},"context":"","outcome_status":{"category":"Status update unavailable","date":"2016-11"},"persistent_id":"bfe58a5190ff1a64d29ba220974a4949d4926543452e77723867baafc5a6ebde","id":49955605,"location_subtype":"","month":"2016-07"},{"category":"violent-crime","location_type":"Force","location":{"latitude":"51.472603","street":{"id":944476,"name":"On or near Bath Road"},"longitude":"-0.385178"},"context":"","outcome_status":{"category":"Status update unavailable","date":"2016-11"},"persistent_id":"d05ac65b07c4bbd0bc089e2c5f7e843960a88b66ca86fdc055e6900297bf5068","id":49956633,"location_subtype":"","month":"2016-07"},{"category":"violent-crime","location_type":"Force","location":{"latitude":"51.480445","street":{"id":944385,"name":"On or near St Leonard's Gardens"},"longitude":"-0.385852"},"context":"","outcome_status":{"category":"Offender given a caution","date":"2016-07"},"persistent_id":"d48a3d9401a68f774b6726e7d56f7616f59216e67495f705dd4dcb3a1173755b","id":49955919,"location_subtype":"","month":"2016-07"},{"category":"violent-crime","location_type":"Force","location":{"latitude":"51.481266","street":{"id":944529,"name":"On or near Old Park Mews"},"longitude":"-0.374978"},"context":"","outcome_status":{"category":"Investigation complete; no suspect identified","date":"2016-09"},"persistent_id":"113f2ccb7d66dc5462fb34e8ed1398f7131330d3718898cc207da3b3bdf195a0","id":49961688,"location_subtype":"","month":"2016-07"},{"category":"violent-crime","location_type":"Force","location":{"latitude":"51.481266","street":{"id":944529,"name":"On or near Old Park Mews"},"longitude":"-0.374978"},"context":"","outcome_status":{"category":"Status update unavailable","date":"2016-11"},"persistent_id":"113f2ccb7d66dc5462fb34e8ed1398f7131330d3718898cc207da3b3bdf195a0","id":49961687,"location_subtype":"","month":"2016-07"},{"category":"violent-crime","location_type":"Force","location":{"latitude":"51.475017","street":{"id":944530,"name":"On or near Moulton Avenue"},"longitude":"-0.380269"},"context":"","outcome_status":{"category":"Investigation complete; no suspect identified","date":"2016-07"},"persistent_id":"6c71b61f84336b94aa9f19fa81bf38bdf68f7cf30030254121b242d0309d89a8","id":49968681,"location_subtype":"","month":"2016-07"},{"category":"violent-crime","location_type":"Force","location":{"latitude":"51.473895","street":{"id":944533,"name":"On or near Harte Road"},"longitude":"-0.375183"},"context":"","outcome_status":{"category":"Status update unavailable","date":"2016-11"},"persistent_id":"c6da203ae2dc1b04a8a51bdfd9927e5f599d400dcb67106131f92fdecdbce56d","id":49973574,"location_subtype":"","month":"2016-07"},{"category":"violent-crime","location_type":"Force","location":{"latitude":"51.473821","street":{"id":944413,"name":"On or near Parking Area"},"longitude":"-0.389397"},"context":"","outcome_status":{"category":"Offender given a caution","date":"2017-01"},"persistent_id":"e6fad76a27385e46798b10b4a6a336268fe102fd5370173635fd3eaf25085033","id":49978581,"location_subtype":"","month":"2016-07"},{"category":"violent-crime","location_type":"Force","location":{"latitude":"51.473821","street":{"id":944413,"name":"On or near Parking Area"},"longitude":"-0.389397"},"context":"","outcome_status":{"category":"Investigation complete; no suspect identified","date":"2016-09"},"persistent_id":"e7ad2c628016e2503a39662d79070222297d053182c2fae31a108536f3857e4b","id":49984477,"location_subtype":"","month":"2016-07"},{"category":"violent-crime","location_type":"Force","location":{"latitude":"51.478209","street":{"id":944536,"name":"On or near Greencroft Road"},"longitude":"-0.378946"},"context":"","outcome_status":{"category":"Court result unavailable","date":"2017-01"},"persistent_id":"f2981a263627fe87478d34e16613dd17048f350016613e13c08418ce999ba6c7","id":49986463,"location_subtype":"","month":"2016-07"},{"category":"violent-crime","location_type":"Force","location":{"latitude":"51.472882","street":{"id":944468,"name":"On or near St Paul's Close"},"longitude":"-0.382605"},"context":"","outcome_status":{"category":"Investigation complete; no suspect identified","date":"2017-01"},"persistent_id":"2583376d24ee6b4f60033a49aebd6bcdc71856d244a809c8a3812b4fd45db3aa","id":49955340,"location_subtype":"","month":"2016-07"},{"category":"violent-crime","location_type":"Force","location":{"latitude":"51.483589","street":{"id":951113,"name":"On or near Cranford Lane"},"longitude":"-0.384977"},"context":"","outcome_status":{"category":"Investigation complete; no suspect identified","date":"2016-08"},"persistent_id":"3919b7c829b1252ff04444a7bc384daeb03b58f1ce6bd79db5ae6d83823a500a","id":49987913,"location_subtype":"","month":"2016-07"},{"category":"violent-crime","location_type":"Force","location":{"latitude":"51.477656","street":{"id":944534,"name":"On or near Harris Close"},"longitude":"-0.372126"},"context":"","outcome_status":{"category":"Court result unavailable","date":"2017-01"},"persistent_id":"429bc60654aa2034c0da3aea1ebcb305124b686b63d23d6631177ddee60639a6","id":49992805,"location_subtype":"","month":"2016-07"},{"category":"violent-crime","location_type":"Force","location":{"latitude":"51.472603","street":{"id":944476,"name":"On or near Bath Road"},"longitude":"-0.385178"},"context":"","outcome_status":{"category":"Status update unavailable","date":"2016-11"},"persistent_id":"6805b91195e919d0617ec95d2e5d2cec5bf26616e1ef96ed3047cb8ab80a5356","id":49997095,"location_subtype":"","month":"2016-07"},{"category":"violent-crime","location_type":"Force","location":{"latitude":"51.478209","street":{"id":944536,"name":"On or near Greencroft Road"},"longitude":"-0.378946"},"context":"","outcome_status":{"category":"Investigation complete; no suspect identified","date":"2016-08"},"persistent_id":"cb6fb50a91b2edf54716f3db93b2084ef623f4561660897f5c89d33293090d96","id":49997770,"location_subtype":"","month":"2016-07"},{"category":"violent-crime","location_type":"Force","location":{"latitude":"51.476938","street":{"id":944403,"name":"On or near Broad Walk"},"longitude":"-0.388496"},"context":"","outcome_status":{"category":"Investigation complete; no suspect identified","date":"2016-11"},"persistent_id":"ad4a1fa0c134e60d609f914419d6db01a5b5c117f737cac36802d5e842080613","id":49955642,"location_subtype":"","month":"2016-07"},{"category":"violent-crime","location_type":"Force","location":{"latitude":"51.479001","street":{"id":944392,"name":"On or near Queen's Gardens"},"longitude":"-0.384175"},"context":"","outcome_status":{"category":"Status update unavailable","date":"2016-11"},"persistent_id":"84adeb84813d5e32cd5309b1adc802aadd04d06b1284655db6a484dc2f85bfbe","id":50002059,"location_subtype":"","month":"2016-07"},{"category":"violent-crime","location_type":"Force","location":{"latitude":"51.473821","street":{"id":944413,"name":"On or near Parking Area"},"longitude":"-0.389397"},"context":"","outcome_status":{"category":"Investigation complete; no suspect identified","date":"2016-09"},"persistent_id":"86ba5d34b3403102392ac43fcfc4180f04d6de0b16c16fbcee86af4559da827e","id":50016095,"location_subtype":"","month":"2016-07"},{"category":"violent-crime","location_type":"Force","location":{"latitude":"51.473821","street":{"id":944413,"name":"On or near Parking Area"},"longitude":"-0.389397"},"context":"","outcome_status":{"category":"Status update unavailable","date":"2016-11"},"persistent_id":"e7ad2c628016e2503a39662d79070222297d053182c2fae31a108536f3857e4b","id":49984476,"location_subtype":"","month":"2016-07"},{"category":"violent-crime","location_type":"Force","location":{"latitude":"51.474505","street":{"id":944399,"name":"On or near Dalcross Road"},"longitude":"-0.387444"},"context":"","outcome_status":{"category":"Investigation complete; no suspect identified","date":"2016-08"},"persistent_id":"2bf2ab26fd5b92f8028db6b201abed654fe625a08dfa439d1918de7fd0542d8f","id":49966174,"location_subtype":"","month":"2016-07"}]