[{"category":"anti-social-behaviour","location_type":"Force","location":{"latitude":"51.560549","street":{"id":971851,"name":"On or near Herrick Road"},"longitude":"-0.095664"},"context":"","outcome_status":null,"persistent_id":"","id":49935930,"location_subtype":"","month":"2016-07"},{"category":"anti-social-behaviour","location_type":"Force","location":{"latitude":"51.546560","street":{"id":968325,"name":"On or near Nightclub"},"longitude":"-0.104209"},"context":"","outcome_status":null,"persistent_id":"","id":49930719,"location_subtype":"","month":"2016-07"},{"category":"anti-social-behaviour","location_type":"Force","location":{"latitude":"51.550246","street":{"id":968192,"name":"On or near Robinswood Mews"},"longitude":"-0.104143"},"context":"","outcome_status":null,"persistent_id":"","id":49930746,"location_subtype":"","month":"2016-07"},{"category":"anti-social-behaviour","location_type":"Force","location":{"latitude":"51.554102","street":{"id":968359,"name":"On or near Highbury New Park"},"longitude":"-0.092399"},"context":"","outcome_status":null,"persistent_id":"","id":49930280,"location_subtype":"","month":"2016-07"},{"category":"anti-social-behaviour","location_type":"Force","location":{"latitude":"51.560277","street":{"id":971885,"name":"On or near Riversdale Road"},"longitude":"-0.092198"},"context":"","outcome_status":null,"persistent_id":"","id":49930283,"location_subtype":"","month":"2016-07"},{"category":"anti-social-behaviour","location_type":"Force","location":{"latitude":"51.558099","street":{"id":971937,"name":"On or near Birchmore Walk"},"longitude":"-0.094872"},"context":"","outcome_status":null,"persistent_id":"","id":49930292,"location_subtype":"","month":"2016-07"},{"category":"anti-social-behaviour","location_type":"Force","location":{"latitude":"51.558099","street":{"id":971937,"name":"On or near Birchmore Walk"},"longitude":"-0.094872"},"context":"","outcome_status":null,"persistent_id":"","id":49930291,"location_subtype":"","month":"2016-07"},{"category":"anti-social-behaviour","location_type":"Force","location":{"latitude":"51.546560","street":{"id":968325,"name":"On or near Nightclub"},"longitude":"-0.104209"},"context":"","outcome_status":null,"persistent_id":"","id":49930720,"location_subtype":"","month":"2016-07"},{"category":"anti-social-behaviour","location_type":"Force","location":{"latitude":"51.548171","street":{"id":968167,"name":"On or near Highbury Crescent"},"longitude":"-0.104835"},"context":"","outcome_status":null,"persistent_id":"","id":49930737,"location_subtype":"","month":"2016-07"},{"category":"anti-social-behaviour","location_type":"Force","location":{"latitude":"51.547122","street":{"id":968165,"name":"On or near Holloway Road"},"longitude":"-0.104994"},"context":"","outcome_status":null,"persistent_id":"","id":49930756,"location_subtype":"","month":"2016-07"},{"category":"anti-social-behaviour","location_type":"Force","location":{"latitude":"51.547122","street":{"id":968165,"name":"On or near Holloway Road"},"longitude":"-0.104994"},"context":"","outcome_status":null,"persistent_id":"","id":49930757,"location_subtype":"","month":"2016-07"},{"category":"anti-social-behaviour","location_type":"Force","location":{"latitude":"51.550079","street":{"id":968431,"name":"On or near Baalbec Road"},"longitude":"-0.099390"},"context":"","outcome_status":null,"persistent_id":"","id":49930677,"location_subtype":"","month":"2016-07"},{"category":"anti-social-behaviour","location_type":"Force","location":{"latitude":"51.548728","street":{"id":968403,"name":"On or near Calabria Road"},"longitude":"-0.099258"},"context":"","outcome_status":null,"persistent_id":"","id":49930333,"location_subtype":"","month":"2016-07"},{"category":"anti-social-behaviour","location_type":"Force","location":{"latitude":"51.548728","street":{"id":968403,"name":"On or near Calabria Road"},"longitude":"-0.099258"},"context":"","outcome_status":null,"persistent_id":"","id":49930332,"location_subtype":"","month":"2016-07"},{"category":"anti-social-behaviour","location_type":"Force","location":{"latitude":"51.559872","street":{"id":971935,"name":"On or near Canning Road"},"longitude":"-0.097741"},"context":"","outcome_status":null,"persistent_id":"","id":49930330,"location_subtype":"","month":"2016-07"},{"category":"anti-social-behaviour","location_type":"Force","location":{"latitude":"51.550775","street":{"id":968438,"name":"On or near Aberdeen Lane"},"longitude":"-0.096822"},"context":"","outcome_status":null,"persistent_id":"","id":49930323,"location_subtype":"","month":"2016-07"},{"category":"anti-social-behaviour","location_type":"Force","location":{"latitude":"51.546560","street":{"id":968325,"name":"On or near Nightclub"},"longitude":"-0.104209"},"context":"","outcome_status":null,"persistent_id":"","id":49930717,"location_subtype":"","month":"2016-07"},{"category":"anti-social-behaviour","location_type":"Force","location":{"latitude":"51.559947","street":{"id":971841,"name":"On or near Riversdale Road"},"longitude":"-0.095689"},"context":"","outcome_status":null,"persistent_id":"","id":49930321,"location_subtype":"","month":"2016-07"},{"category":"anti-social-behaviour","location_type":"Force","location":{"latitude":"51.551610","street":{"id":968220,"name":"On or near Battledean Road"},"longitude":"-0.103422"},"context":"","outcome_status":null,"persistent_id":"","id":49930734,"location_subtype":"","month":"2016-07"},{"category":"anti-social-behaviour","location_type":"Force","location":{"latitude":"51.554881","street":{"id":968424,"name":"On or near Highbury Grange"},"longitude":"-0.096030"},"context":"","outcome_status":null,"persistent_id":"","id":49930319,"location_subtype":"","month":"2016-07"},{"category":"anti-social-behaviour","location_type":"Force","location":{"latitude":"51.550253","street":{"id":968223,"name":"On or near Petrol Station"},"longitude":"-0.108455"},"context":"","outcome_status":null,"persistent_id":"","id":49930824,"location_subtype":"","month":"2016-07"},{"category":"anti-social-behaviour","location_type":"Force","location":{"latitude":"51.554881","street":{"id":968424,"name":"On or near Highbury Grange"},"longitude":"-0.096030"},"context":"","outcome_status":null,"persistent_id":"","id":49930317,"location_subtype":"","month":"2016-07"},{"category":"anti-social-behaviour","location_type":"Force","location":{"latitude":"51.552061","street":{"id":968437,"name":"On or near Aberdeen Park"},"longitude":"-0.095687"},"context":"","outcome_status":null,"persistent_id":"","id":49930313,"location_subtype":"","month":"2016-07"},{"category":"anti-social-behaviour","location_type":"Force","location":{"latitude":"51.546560","street":{"id":968325,"name":"On or near Nightclub"},"longitude":"-0.104209"},"context":"","outcome_status":null,"persistent_id":"","id":49930718,"location_subtype":"","month":"2016-07"},{"category":"anti-social-behaviour","location_type":"Force","location":{"latitude":"51.549464","street":{"id":968169,"name":"On or near Fieldway Crescent"},"longitude":"-0.106353"},"context":"","outcome_status":null,"persistent_id":"","id":49930788,"location_subtype":"","month":"2016-07"},{"category":"anti-social-behaviour","location_type":"Force","location":{"latitude":"51.552061","street":{"id":968437,"name":"On or near Aberdeen Park"},"longitude":"-0.095687"},"context":"","outcome_status":null,"persistent_id":"","id":49930312,"location_subtype":"","month":"2016-07"},{"category":"anti-social-behaviour","location_type":"Force","location":{"latitude":"51.552522","street":{"id":968428,"name":"On or near Framfield Road"},"longitude":"-0.102533"},"context":"","outcome_status":null,"persistent_id":"","id":49930692,"location_subtype":"","month":"2016-07"},{"category":"anti-social-behaviour","location_type":"Force","location":{"latitude":"51.560549","street":{"id":971851,"name":"On or near Herrick Road"},"longitude":"-0.095664"},"context":"","outcome_status":null,"persistent_id":"","id":49930311,"location_subtype":"","month":"2016-07"},{"category":"anti-social-behaviour","location_type":"Force","location":{"latitude":"51.555712","street":{"id":968415,"name":"On or near Kelross Road"},"longitude":"-0.095707"},"context":"","outcome_status":null,"persistent_id":"","id":49930304,"location_subtype":"","month":"2016-07"},{"category":"anti-social-behaviour","location_type":"Force","location":{"latitude":"51.554102","street":{"id":968359,"name":"On or near Highbury New Park"},"longitude":"-0.092399"},"context":"","outcome_status":null,"persistent_id":"","id":49930266,"location_subtype":"","month":"2016-07"},{"category":"anti-social-behaviour","location_type":"Force","location":{"latitude":"51.550630","street":{"id":968190,"name":"On or near Ronalds Road"},"longitude":"-0.105641"},"context":"","outcome_status":null,"persistent_id":"","id":49930774,"location_subtype":"","month":"2016-07"},{"category":"anti-social-behaviour","location_type":"Force","location":{"latitude":"51.554102","street":{"id":968359,"name":"On or near Highbury New Park"},"longitude":"-0.092399"},"context":"","outcome_status":null,"persistent_id":"","id":49930279,"location_subtype":"","month":"2016-07"},{"category":"anti-social-behaviour","location_type":"Force","location":{"latitude":"51.550246","street":{"id":968192,"name":"On or near Robinswood Mews"},"longitude":"-0.104143"},"context":"","outcome_status":null,"persistent_id":"","id":49930716,"location_subtype":"","month":"2016-07"},{"category":"anti-social-behaviour","location_type":"Force","location":{"latitude":"51.555712","street":{"id":968415,"name":"On or near Kelross Road"},"longitude":"-0.095707"},"context":"","outcome_status":null,"persistent_id":"","id":49930303,"location_subtype":"","month":"2016-07"},{"category":"anti-social-behaviour","location_type":"Force","location":{"latitude":"51.550246","street":{"id":968192,"name":"On or near Robinswood Mews"},"longitude":"-0.104143"},"context":"","outcome_status":null,"persistent_id":"","id":49930745,"location_subtype":"","month":"2016-07"},{"category":"bicycle-theft","location_type":"Force","location":{"latitude":"51.552522","street":{"id":968428,"name":"On or near Framfield Road"},"longitude":"-0.102533"},"context":"","outcome_status":{"category":"Status update unavailable","date":"2016-11"},"persistent_id":"1cbc59371d9a3ae2f111527c81d924ff758258f59ffcd5eb8575dcaaa8ac57ff","id":50017079,"location_subtype":"","month":"2016-07"},{"category":"bicycle-theft","location_type":"Force","location":{"latitude":"51.546560","street":{"id":968325,"name":"On or near Nightclub"},"longitude":"-0.104209"},"context":"","outcome_status":{"category":"Status update unavailable","date":"2016-11"},"persistent_id":"64c90f6f47476355069761d1bf86ba3845d5ed193ca0081f329bf5fe8e965403","id":49973782,"location_subtype":"","month":"2016-07"},{"category":"bicycle-theft","location_type":"Force","location":{"latitude":"51.547753","street":{"id":968172,"name":"On or near Further\/higher Educational Building"},"longitude":"-0.105660"},"context":"","outcome_status":{"category":"Status update unavailable","date":"2016-11"},"persistent_id":"46ef7d0cad3a1b62b61c253ac333be976f61c6568c6b850e4ca6d863d728b3ee","id":49982813,"location_subtype":"","month":"2016-07"},{"category":"bicycle-theft","location_type":"Force","location":{"latitude":"51.547753","street":{"id":968172,"name":"On or near Further\/higher Educational Building"},"longitude":"-0.105660"},"context":"","outcome_status":{"category":"Investigation complete; no suspect identified","date":"2016-07"},"persistent_id":"d6d60ae43fcd317b25deb7dc21bad442778bdc7cedaf9a559e6920f35da9de3c","id":49992440,"location_subtype":"","month":"2016-07"},{"category":"bicycle-theft","location_type":"Force","location":{"latitude":"51.556737","street":{"id":968409,"name":"On or near Northolme Road"},"longitude":"-0.095679"},"context":"","outcome_status":{"category":"Status update unavailable","date":"2016-11"},"persistent_id":"3757df2c161f4fa92d49ed368c6e1f3d1a7e6a21b693546380bd29468fb428f2","id":50003919,"location_subtype":"","month":"2016-07"},{"category":"bicycle-theft","location_type":"Force","location":{"latitude":"51.548246","street":{"id":968166,"name":"On or near Holloway Road"},"longitude":"-0.106663"},"context":"","outcome_status":{"category":"Status update unavailable","date":"2016-11"},"persistent_id":"32ae220bca5aa7d972ab477391b56c342efa870dade328b924a21a7003a072c3","id":50002805,"location_subtype":"","month":"2016-07"},{"category":"bicycle-theft","location_type":"Force","location":{"latitude":"51.546560","street":{"id":968325,"name":"On or near Nightclub"},"longitude":"-0.104209"},"context":"","outcome_status":{"category":"Status update unavailable","date":"2016-11"},"persistent_id":"7f51304feaf4f45d195b24ffd3d6b74aa965a442e2a0c9b710b4a389f70de10f","id":49970998,"location_subtype":"","month":"2016-07"},{"category":"bicycle-theft","location_type":"Force","location":{"latitude":"51.548728","street":{"id":968403,"name":"On or near Calabria Road"},"longitude":"-0.099258"},"context":"","outcome_status":{"category":"Status update unavailable","date":"2016-11"},"persistent_id":"0731529aa66156e1902b7e31d1c882da465c609711819f94e9a2eaaa900cafbd","id":49957262,"location_subtype":"","month":"2016-07"},{"category":"bicycle-theft","location_type":"Force","location":{"latitude":"51.548728","street":{"id":968403,"name":"On or near Calabria Road"},"longitude":"-0.099258"},"context":"","outcome_status":{"category":"Status update unavailable","date":"2016-11"},"persistent_id":"fc927aee8cc901a05117438a879b7de78279f0f2a99261f3c9a48ce71489b9ee","id":49984597,"location_subtype":"","month":"2016-07"},{"category":"burglary","location_type":"Force","location":{"latitude":"51.550030","street":{"id":968416,"name":"On or near Holmcote Gardens"},"longitude":"-0.095209"},"context":"","outcome_status":{"category":"Status update unavailable","date":"2016-11"},"persistent_id":"3301e9d33c43757275743534847dd7316f6c9e9a586b537b3e748033f5973c83","id":49999163,"location_subtype":"","month":"2016-07"},{"category":"burglary","location_type":"Force","location":{"latitude":"51.550079","street":{"id":968431,"name":"On or near Baalbec Road"},"longitude":"-0.099390"},"context":"","outcome_status":{"category":"Status update unavailable","date":"2016-11"},"persistent_id":"5505fc677a7779e7c3d1670e65387a2785c6f0886bf290ccbc351d6583a10706","id":50001820,"location_subtype":"","month":"2016-07"},{"category":"burglary","location_type":"Force","location":{"latitude":"51.548339","street":{"id":968396,"name":"On or near Liberia Road"},"longitude":"-0.100183"},"context":"","outcome_status":{"category":"Investigation complete; no suspect identified","date":"2016-07"},"persistent_id":"fd5eef04d6dfbc4a62d4a631991eaa77d4b4cbbb17e6a343f05cc1ac5c5ee5fc","id":49992425,"location_subtype":"","month":"2016-07"},{"category":"burglary","location_type":"Force","location":{"latitude":"51.551371","street":{"id":968417,"name":"On or near Highbury Terrace"},"longitude":"-0.101975"},"context":"","outcome_status":{"category":"Investigation complete; no suspect identified","date":"2016-07"},"persistent_id":"52c639bbfa19f3151c1c7a2f83f51bf32dcb5903e2caf2d84c1a37f6eea98579","id":50004435,"location_subtype":"","month":"2016-07"},{"category":"burglary","location_type":"Force","location":{"latitude":"51.552522","street":{"id":968428,"name":"On or near Framfield Road"},"longitude":"-0.102533"},"context":"","outcome_status":{"category":"Investigation complete; no suspect identified","date":"2016-07"},"persistent_id":"1018dc3368bc2fe4207e1e852291818eff70d17d989e390943a05f40fd4746d7","id":49998917,"location_subtype":"","month":"2016-07"},{"category":"burglary","location_type":"Force","location":{"latitude":"51.548728","street":{"id":968403,"name":"On or near Calabria Road"},"longitude":"-0.099258"},"context":"","outcome_status":{"category":"Status update unavailable","date":"2016-11"},"persistent_id":"da19d6c86f9c35206eb0f396608515b49c91f06f8628b5bb557a3dd25f133982","id":49983404,"location_subtype":"","month":"2016-07"},{"category":"burglary","location_type":"Force","location":{"latitude":"51.560948","street":{"id":971847,"name":"On or near Mountgrove Road"},"longitude":"-0.094724"},"context":"","outcome_status":{"category":"Status update unavailable","date":"2016-11"},"persistent_id":"6bb7eb2c7cbbc237da553361e9a32f485816578010fd81d25c430af14d230247","id":50018894,"location_subtype":"","month":"2016-07"},{"category":"burglary","location_type":"Force","location":{"latitude":"51.555150","street":{"id":968355,"name":"On or near Petherton Road"},"longitude":"-0.090437"},"context":"","outcome_status":{"category":"Status update unavailable","date":"2016-11"},"persistent_id":"b7f9d24e0da265292f00245822fdd5fca373caed16c0a88e96f2cf8285130bf6","id":50018929,"location_subtype":"","month":"2016-07"},{"category":"burglary","location_type":"Force","location":{"latitude":"51.546560","street":{"id":968325,"name":"On or near Nightclub"},"longitude":"-0.104209"},"context":"","outcome_status":{"category":"Status update unavailable","date":"2016-11"},"persistent_id":"ffcb9c91641a1ed9f8080b19f09224e2b01a98cd0eedfe9ffcdacc62a45770ad","id":49986130,"location_subtype":"","month":"2016-07"},{"category":"burglary","location_type":"Force","location":{"latitude":"51.554102","street":{"id":968359,"name":"On or near Highbury New Park"},"longitude":"-0.092399"},"context":"","outcome_status":{"category":"Status update unavailable","date":"2016-11"},"persistent_id":"63b6f010e412f66e94008992992b65c3a84f05a4b67f87d8a0f598bf963b8ef5","id":49985370,"location_subtype":"","month":"2016-07"},{"category":"criminal-damage-arson","location_type":"Force","location":{"latitude":"51.560948","street":{"id":971847,"name":"On or near Mountgrove Road"},"longitude":"-0.094724"},"context":"","outcome_status":{"category":"Status update unavailable","date":"2016-11"},"persistent_id":"1460f57ac7cf46e2af8f18039df9195e4ddc9bb368dee5708cf8010a1eca03b9","id":50015850,"location_subtype":"","month":"2016-07"},{"category":"criminal-damage-arson","location_type":"Force","location":{"latitude":"51.546560","street":{"id":968325,"name":"On or near Nightclub"},"longitude":"-0.104209"},"context":"","outcome_status":{"category":"Investigation complete; no suspect identified","date":"2016-08"},"persistent_id":"77334fc0c1283327d7ae789689ce0bd309f191e31d43897a61c642f17ed64dc5","id":50017039,"location_subtype":"","month":"2016-07"},{"category":"criminal-damage-arson","location_type":"Force","location":{"latitude":"51.559161","street":{"id":971931,"name":"On or near Highbury Quadrant"},"longitude":"-0.094928"},"context":"","outcome_status":{"category":"Court result unavailable","date":"2017-03"},"persistent_id":"8e3742cd4e308cdb19e47842325c91696640eddf6c82d2bdbcaf952df7210fe0","id":49983033,"location_subtype":"","month":"2016-07"},{"category":"criminal-damage-arson","location_type":"Force","location":{"latitude":"51.555712","street":{"id":968415,"name":"On or near Kelross Road"},"longitude":"-0.095707"},"context":"","outcome_status":{"category":"Investigation complete; no suspect identified","date":"2016-09"},"persistent_id":"dcc3cf59577441593e0bb0fd06972793a99be59e61912bb21a27fff231f7d99b","id":49985212,"location_subtype":"","month":"2016-07"},{"category":"criminal-damage-arson","location_type":"Force","location":{"latitude":"51.547122","street":{"id":968165,"name":"On or near Holloway Road"},"longitude":"-0.104994"},"context":"","outcome_status":{"category":"Court result unavailable","date":"2017-06"},"persistent_id":"be92aaa2a18d67b6bfe9d55bac7466d92e52fc2f5c4e47ef63bc7e96597bcb11","id":49985304,"location_subtype":"","month":"2016-07"},{"category":"criminal-damage-arson","location_type":"Force","location":{"latitude":"51.550253","street":{"id":968223,"name":"On or near Petrol Station"},"longitude":"-0.108455"},"context":"","outcome_status":{"category":"Investigation complete; no suspect identified","date":"2016-08"},"persistent_id":"7e8f6a11d15c0e4435914a8ae791f395ddb6a9cbbe38f1ce3b15f4964e487855","id":49989593,"location_subtype":"","month":"2016-07"},{"category":"criminal-damage-arson","location_type":"Force","location":{"latitude":"51.555150","street":{"id":968355,"name":"On or near Petherton Road"},"longitude":"-0.090437"},"context":"","outcome_status":{"category":"Court result unavailable","date":"2017-02"},"persistent_id":"1602005f304a1722ff5c7ea4ddde0380129556312fe11bbe35d4e548b7b46255","id":49969473,"location_subtype":"","month":"2016-07"},{"category":"criminal-damage-arson","location_type":"Force","location":{"latitude":"51.550287","street":{"id":968198,"name":"On or near Horsell Road"},"longitude":"-0.107804"},"context":"","outcome_status":{"category":"Status update unavailable","date":"2016-11"},"persistent_id":"475bb97fecf235064eb29464b4d950352520cdc04e371fab80d16ef54cc73b07","id":49989574,"location_subtype":"","month":"2016-07"},{"category":"criminal-damage-arson","location_type":"Force","location":{"latitude":"51.551371","street":{"id":968417,"name":"On or near Highbury Terrace"},"longitude":"-0.101975"},"context":"","outcome_status":{"category":"Status update unavailable","date":"2016-11"},"persistent_id":"6a8532901f669f27915e398df2e5406d980f46a3ed34d6783b59e4cba97b39e9","id":49971258,"location_subtype":"","month":"2016-07"},{"category":"criminal-damage-arson","location_type":"Force","location":{"latitude":"51.552512","street":{"id":968410,"name":"On or near Melody Lane"},"longitude":"-0.097485"},"context":"","outcome_status":{"category":"Investigation complete; no suspect identified","date":"2016-07"},"persistent_id":"785d136c8fd53f1c201d991c272132741bc3617ba22a7a0bb7afdc16a8d72522","id":49982645,"location_subtype":"","month":"2016-07"},{"category":"criminal-damage-arson","location_type":"Force","location":{"latitude":"51.554881","street":{"id":968424,"name":"On or near Highbury Grange"},"longitude":"-0.096030"},"context":"","outcome_status":{"category":"Status update unavailable","date":"2016-11"},"persistent_id":"fe43655b665f95509be5138a79e9711c54b011576f770f7febceeb82d93c7f8a","id":49962471,"location_subtype":"","month":"2016-07"},{"category":"criminal-damage-arson","location_type":"Force","location":{"latitude":"51.559779","street":{"id":971936,"name":"On or near Blackstock Road"},"longitude":"-0.098625"},"context":"","outcome_status":{"category":"Investigation complete; no suspect identified","date":"2016-08"},"persistent_id":"f099817ea781b4178a9f11be5346da024aed5155a585d9597e4c8010e75e225c","id":49973079,"location_subtype":"","month":"2016-07"},{"category":"criminal-damage-arson","location_type":"Force","location":{"latitude":"51.554102","street":{"id":968359,"name":"On or near Highbury New Park"},"longitude":"-0.092399"},"context":"","outcome_status":{"category":"Offender given conditional discharge","date":"2016-07"},"persistent_id":"b5d52433f19e537cd9a8a87345edbb3a4a2730e97b461bc8bc0613b40a4aeab4","id":50001090,"location_subtype":"","month":"2016-07"},{"category":"drugs","location_type":"Force","location":{"latitude":"51.548246","street":{"id":968166,"name":"On or near Holloway Road"},"longitude":"-0.106663"},"context":"","outcome_status":{"category":"Offender given a drugs possession warning","date":"2016-07"},"persistent_id":"4a6e2c180e4c53f901535625dedca8b7e9cb0dc050c99f4823c53a556aa943c0","id":50018176,"location_subtype":"","month":"2016-07"},{"category":"drugs","location_type":"Force","location":{"latitude":"51.548246","street":{"id":968166,"name":"On or near Holloway Road"},"longitude":"-0.106663"},"context":"","outcome_status":{"category":"Offender given a caution","date":"2016-09"},"persistent_id":"bfb4bf8f6c6f9a6859e9dceff1f3c16c16ac71a0f7b32339e7166eb045c5592b","id":49996826,"location_subtype":"","month":"2016-07"},{"category":"drugs","location_type":"Force","location":{"latitude":"51.548246","street":{"id":968166,"name":"On or near Holloway Road"},"longitude":"-0.106663"},"context":"","outcome_status":{"category":"Offender given penalty notice","date":"2016-07"},"persistent_id":"ecf5c758f5b4447d6a03a9db23ce1703c43a15e3074d6b3b9ff5e2d03e486d06","id":50015310,"location_subtype":"","month":"2016-07"},{"category":"drugs","location_type":"Force","location":{"latitude":"51.554102","street":{"id":968359,"name":"On or near Highbury New Park"},"longitude":"-0.092399"},"context":"","outcome_status":{"category":"Offender given conditional discharge","date":"2016-07"},"persistent_id":"4844c13a0078206ea9e260425e3406e715a0bdc8791086429aef507b5aa0bfeb","id":49992540,"location_subtype":"","month":"2016-07"},{"category":"other-theft","location_type":"Force","location":{"latitude":"51.552522","street":{"id":968428,"name":"On or near Framfield Road"},"longitude":"-0.102533"},"context":"","outcome_status":{"category":"Status update unavailable","date":"2016-11"},"persistent_id":"ad1dcae98025421ac1ddf333c02e5fe81b8fcc93c4e885357df7bef519458c4b","id":49988519,"location_subtype":"","month":"2016-07"},{"category":"other-theft","location_type":"Force","location":{"latitude":"51.549464","street":{"id":968169,"name":"On or near Fieldway Crescent"},"longitude":"-0.106353"},"context":"","outcome_status":{"category":"Status update unavailable","date":"2016-11"},"persistent_id":"e8622074382520acd043406c754110e989fa71ef10b3431dbd501835915a9d7d","id":49965998,"location_subtype":"","month":"2016-07"},{"category":"other-theft","location_type":"Force","location":{"latitude":"51.546560","street":{"id":968325,"name":"On or near Nightclub"},"longitude":"-0.104209"},"context":"","outcome_status":{"category":"Status update unavailable","date":"2016-11"},"persistent_id":"ddbe295abb532a4cd15145c7d18e1f55513fe3aa80f5bf8776d32b102849a76f","id":50006027,"location_subtype":"","month":"2016-07"},{"category":"other-theft","location_type":"Force","location":{"latitude":"51.557224","street":{"id":968362,"name":"On or near Collins Road"},"longitude":"-0.091345"},"context":"","outcome_status":{"category":"Status update unavailable","date":"2016-11"},"persistent_id":"b08b9710695b0c493f23cefec11a514cf2ba08a468d4a045cf1287c0e77e10c5","id":50009150,"location_subtype":"","month":"2016-07"},{"category":"other-theft","location_type":"Force","location":{"latitude":"51.552512","street":{"id":968410,"name":"On or near Melody Lane"},"longitude":"-0.097485"},"context":"","outcome_status":{"category":"Investigation complete; no suspect identified","date":"2016-07"},"persistent_id":"c45122c4d7d46a7f0115bf3923f9efa82a81b60006d76a394013a4e7645db8dd","id":49956663,"location_subtype":"","month":"2016-07"},{"category":"other-theft","location_type":"Force","location":{"latitude":"51.549464","street":{"id":968169,"name":"On or near Fieldway Crescent"},"longitude":"-0.106353"},"context":"","outcome_status":{"category":"Investigation complete; no suspect identified","date":"2016-09"},"persistent_id":"9ee1f0f9574f31264054a4235e7b742615075f5863b057c1c6a17e25177d6345","id":49996551,"location_subtype":"","month":"2016-07"},{"category":"other-theft","location_type":"Force","location":{"latitude":"51.546560","street":{"id":968325,"name":"On or near Nightclub"},"longitude":"-0.104209"},"context":"","outcome_status":{"category":"Status update unavailable","date":"2016-11"},"persistent_id":"809e261183038038bd7c39b00587bed4f023357af125ce8573ba58100be829b3","id":50012425,"location_subtype":"","month":"2016-07"},{"category":"other-theft","location_type":"Force","location":{"latitude":"51.546560","street":{"id":968325,"name":"On or near Nightclub"},"longitude":"-0.104209"},"context":"","outcome_status":{"category":"Investigation complete; no suspect identified","date":"2016-09"},"persistent_id":"ba3eff14f4fbf94ecf62e01a77ea6c1fb8a6e67d391a9a344bd217d6512c3374","id":50004047,"location_subtype":"","month":"2016-07"},{"category":"other-theft","location_type":"Force","location":{"latitude":"51.550246","street":{"id":968192,"name":"On or near Robinswood Mews"},"longitude":"-0.104143"},"context":"","outcome_status":{"category":"Status update unavailable","date":"2016-11"},"persistent_id":"a784cbb3769e77118ce3e6215562de76af873d2df2fa67ee2939eb76d682ba7a","id":50001251,"location_subtype":"","month":"2016-07"},{"category":"other-theft","location_type":"Force","location":{"latitude":"51.548171","street":{"id":968167,"name":"On or near Highbury Crescent"},"longitude":"-0.104835"},"context":"","outcome_status":{"category":"Investigation complete; no suspect identified","date":"2016-08"},"persistent_id":"70475ec21ab1bcc918ee17960d8a11c1c6f5f1eda91e14376180a773a06b11eb","id":49996919,"location_subtype":"","month":"2016-07"},{"category":"other-theft","location_type":"Force","location":{"latitude":"51.548171","street":{"id":968167,"name":"On or near Highbury Crescent"},"longitude":"-0.104835"},"context":"","outcome_status":{"category":"Status update unavailable","date":"2016-11"},"persistent_id":"4d8288eb819941fd7b8ceb2c7d12c48a480d762cdff62e22c2c4b8efe51bef91","id":49992027,"location_subtype":"","month":"2016-07"},{"category":"other-theft","location_type":"Force","location":{"latitude":"51.547921","street":{"id":968402,"name":"On or near Corsica Street"},"longitude":"-0.101037"},"context":"","outcome_status":{"category":"Status update unavailable","date":"2016-11"},"persistent_id":"0e47a20fe9c55a20c706704b770aa65bf2c0b73105816fa3ee77caa098527d03","id":49969761,"location_subtype":"","month":"2016-07"},{"category":"possession-of-weapons","location_type":"Force","location":{"latitude":"51.553289","street":{"id":968414,"name":"On or near Kelvin Road"},"longitude":"-0.097107"},"context":"","outcome_status":{"category":"Investigation complete; no suspect identified","date":"2016-08"},"persistent_id":"eacd3fb2d95349d2bf9ff142e831a66c4d18b865409db4c3cad634ef8c3fd9e0","id":49986687,"location_subtype":"","month":"2016-07"},{"category":"public-order","location_type":"Force","location":{"latitude":"51.548728","street":{"id":968403,"name":"On or near Calabria Road"},"longitude":"-0.099258"},"context":"","outcome_status":{"category":"Status update unavailable","date":"2016-11"},"persistent_id":"996e50578d36177d85dba09a8e9dee6605ae82f6b26836f916fd40c8aaf8e509","id":49981412,"location_subtype":"","month":"2016-07"},{"category":"public-order","location_type":"Force","location":{"latitude":"51.560277","street":{"id":971885,"name":"On or near Riversdale Road"},"longitude":"-0.092198"},"context":"","outcome_status":{"category":"Investigation complete; no suspect identified","date":"2016-08"},"persistent_id":"e340d63349db0f9f1110aee45c7b38c3383098748fb04c297d13f0b9fbdc3b06","id":49972453,"location_subtype":"","month":"2016-07"},{"category":"public-order","location_type":"Force","location":{"latitude":"51.548728","street":{"id":968403,"name":"On or near Calabria Road"},"longitude":"-0.099258"},"context":"","outcome_status":{"category":"Investigation complete; no suspect identified","date":"2016-07"},"persistent_id":"e47d7199b309c80dd1778e07210b9a9c0378f8779a28276274c9b7f8cf680058","id":49984135,"location_subtype":"","month":"2016-07"},{"category":"public-order","location_type":"Force","location":{"latitude":"51.546560","street":{"id":968325,"name":"On or near Nightclub"},"longitude":"-0.104209"},"context":"","outcome_status":{"category":"Investigation complete; no suspect identified","date":"2016-10"},"persistent_id":"5b7d1a88d121c867855d61671a625885e8353a9574d74f91b4e8f1ec4a250c3b","id":49991564,"location_subtype":"","month":"2016-07"},{"category":"public-order","location_type":"Force","location":{"latitude":"51.552512","street":{"id":968410,"name":"On or near Melody Lane"},"longitude":"-0.097485"},"context":"","outcome_status":{"category":"Investigation complete; no suspect identified","date":"2016-10"},"persistent_id":"16e54255df10f308eac195981a44c0131d8f1246ef1fb5a545703de2cf4470e9","id":50001503,"location_subtype":"","month":"2016-07"},{"category":"public-order","location_type":"Force","location":{"latitude":"51.547122","street":{"id":968165,"name":"On or near Holloway Road"},"longitude":"-0.104994"},"context":"","outcome_status":{"category":"Investigation complete; no suspect identified","date":"2016-08"},"persistent_id":"bba4e1f395c96f3262d19c206d245a9da7488579bd192f4480c55b5bb4ea5782","id":49963703,"location_subtype":"","month":"2016-07"},{"category":"public-order","location_type":"Force","location":{"latitude":"51.546560","street":{"id":968325,"name":"On or near Nightclub"},"longitude":"-0.104209"},"context":"","outcome_status":{"category":"Investigation complete; no suspect identified","date":"2016-07"},"persistent_id":"0ba8c11efb039fac42ecb45f56b618e4edc5992019aac8365b931f84fef68d8e","id":50014854,"location_subtype":"","month":"2016-07"},{"category":"public-order","location_type":"Force","location":{"latitude":"51.548728","street":{"id":968403,"name":"On or near Calabria Road"},"longitude":"-0.099258"},"context":"","outcome_status":{"category":"Status update unavailable","date":"2016-11"},"persistent_id":"996e50578d36177d85dba09a8e9dee6605ae82f6b26836f916fd40c8aaf8e509","id":49981411,"location_subtype":"","month":"2016-07"},{"category":"public-order","location_type":"Force","location":{"latitude":"51.548728","street":{"id":968403,"name":"On or near Calabria Road"},"longitude":"-0.099258"},"context":"","outcome_status":{"category":"Offender given a caution","date":"2017-01"},"persistent_id":"996e50578d36177d85dba09a8e9dee6605ae82f6b26836f916fd40c8aaf8e509","id":49981413,"location_subtype":"","month":"2016-07"},{"category":"robbery","location_type":"Force","location":{"latitude":"51.551371","street":{"id":968417,"name":"On or near Highbury Terrace"},"longitude":"-0.101975"},"context":"","outcome_status":{"category":"Investigation complete; no suspect identified","date":"2016-08"},"persistent_id":"863978da4b2c55b3c2adc2c3bd07603e683312c39187bf226acba815f8dd92d3","id":50000458,"location_subtype":"","month":"2016-07"},{"category":"robbery","location_type":"Force","location":{"latitude":"51.552207","street":{"id":968439,"name":"On or near Sports\/recreation Area"},"longitude":"-0.100296"},"context":"","outcome_status":{"category":"Investigation complete; no suspect identified","date":"2016-07"},"persistent_id":"9e3957848887688fce27d72c785a7a21f958289bebcde1f72bd07bdb3b47b07c","id":50017160,"location_subtype":"","month":"2016-07"},{"category":"robbery","location_type":"Force","location":{"latitude":"51.555008","street":{"id":968435,"name":"On or near Aberdeen Road"},"longitude":"-0.095001"},"context":"","outcome_status":{"category":"Investigation complete; no suspect identified","date":"2016-08"},"persistent_id":"c4fb434620c01a9106a0d6531a15952e102658d6a54ea2ec254da2ac4be24985","id":50016575,"location_subtype":"","month":"2016-07"},{"category":"robbery","location_type":"Force","location":{"latitude":"51.549986","street":{"id":968423,"name":"On or near Highbury Grove"},"longitude":"-0.098067"},"context":"","outcome_status":{"category":"Investigation complete; no suspect identified","date":"2016-07"},"persistent_id":"79cfd2035b6600f8c7cbb71d6edf81172f2a607d1a0e058e5e3a23d1a769b217","id":49968863,"location_subtype":"","month":"2016-07"},{"category":"robbery","location_type":"Force","location":{"latitude":"51.549986","street":{"id":968423,"name":"On or near Highbury Grove"},"longitude":"-0.098067"},"context":"","outcome_status":{"category":"Status update unavailable","date":"2016-11"},"persistent_id":"65b0f09fec0138ed032912168b0f3dccc587b0818d885e30fcf4904bfaba738d","id":49957250,"location_subtype":"","month":"2016-07"},{"category":"shoplifting","location_type":"Force","location":{"latitude":"51.546560","street":{"id":968325,"name":"On or near Nightclub"},"longitude":"-0.104209"},"context":"","outcome_status":{"category":"Offender sent to prison","date":"2016-07"},"persistent_id":"a1c2b2f46c122bd6f179b7279c2929aa32392cb01a679a3232c82f3322ac3056","id":49984794,"location_subtype":"","month":"2016-07"},{"category":"shoplifting","location_type":"Force","location":{"latitude":"51.547753","street":{"id":968172,"name":"On or near Further\/higher Educational Building"},"longitude":"-0.105660"},"context":"","outcome_status":{"category":"Offender fined","date":"2016-08"},"persistent_id":"1c03b80942a61027ed299f797f297033cc84fec6809ea09053d98256a3e5ce6c","id":49985833,"location_subtype":"","month":"2016-07"},{"category":"shoplifting","location_type":"Force","location":{"latitude":"51.546560","street":{"id":968325,"name":"On or near Nightclub"},"longitude":"-0.104209"},"context":"","outcome_status":{"category":"Investigation complete; no suspect identified","date":"2016-08"},"persistent_id":"750fe4b4c4a31e86749179d70ac87b04fb58765e4fba022acf12b055274e435f","id":49986840,"location_subtype":"","month":"2016-07"},{"category":"theft-from-the-person","location_type":"Force","location":{"latitude":"51.550960","street":{"id":968185,"name":"On or near Tinniswood Close"},"longitude":"-0.108253"},"context":"","outcome_status":{"category":"Status update unavailable","date":"2016-11"},"persistent_id":"11004fb464f103f41be41fadba8af6421701c1348c7d8a74e929d54871b07bd8","id":50004672,"location_subtype":"","month":"2016-07"},{"category":"theft-from-the-person","location_type":"Force","location":{"latitude":"51.550079","street":{"id":968431,"name":"On or near Baalbec Road"},"longitude":"-0.099390"},"context":"","outcome_status":{"category":"Status update unavailable","date":"2016-11"},"persistent_id":"a1bbebbaadda860031d19f9f63c6ffdcb171360af136aebb56b837b68f4e8dbb","id":49977690,"location_subtype":"","month":"2016-07"},{"category":"theft-from-the-person","location_type":"Force","location":{"latitude":"51.547122","street":{"id":968165,"name":"On or near Holloway Road"},"longitude":"-0.104994"},"context":"","outcome_status":{"category":"Status update unavailable","date":"2016-11"},"persistent_id":"1c945806895380f683641b291b79090c659d16b8351e30d868546dd3a0870725","id":49991839,"location_subtype":"","month":"2016-07"},{"category":"theft-from-the-person","location_type":"Force","location":{"latitude":"51.555008","street":{"id":968435,"name":"On or near Aberdeen Road"},"longitude":"-0.095001"},"context":"","outcome_status":{"category":"Status update unavailable","date":"2016-11"},"persistent_id":"f537b201ef81713c841fb3f9468ecf7d293fbf51140776c68f64db81130c12b4","id":49979915,"location_subtype":"","month":"2016-07"},{"category":"theft-from-the-person","location_type":"Force","location":{"latitude":"51.548246","street":{"id":968166,"name":"On or near Holloway Road"},"longitude":"-0.106663"},"context":"","outcome_status":{"category":"Investigation complete; no suspect identified","date":"2016-08"},"persistent_id":"3be138e2831253fdb939bcf0bc18853791583173570202b7dfea0c795c91feb9","id":49993670,"location_subtype":"","month":"2016-07"},{"category":"theft-from-the-person","location_type":"Force","location":{"latitude":"51.551234","street":{"id":968221,"name":"On or near Arvon Road"},"longitude":"-0.105140"},"context":"","outcome_status":{"category":"Status update unavailable","date":"2016-11"},"persistent_id":"5b74a08731f2dd22da205f0b49883b9d7d25bc0c4ee80db15f9b3d8064eb3ec0","id":49981583,"location_subtype":"","month":"2016-07"},{"category":"theft-from-the-person","location_type":"Force","location":{"latitude":"51.549986","street":{"id":968423,"name":"On or near Highbury Grove"},"longitude":"-0.098067"},"context":"","outcome_status":{"category":"Offender sent to prison","date":"2017-01"},"persistent_id":"e7c52c735bd4a0f699a78c97266c179bbb56c12a4831b0c1c84f4a1520604d5d","id":49989650,"location_subtype":"","month":"2016-07"},{"category":"theft-from-the-person","location_type":"Force","location":{"latitude":"51.547122","street":{"id":968165,"name":"On or near Holloway Road"},"longitude":"-0.104994"},"context":"","outcome_status":{"category":"Investigation complete; no suspect identified","date":"2016-07"},"persistent_id":"04de549268f550453dbf1274944d2b77bb807e04f6fe4aaed25cc554e1f6cd18","id":49988521,"location_subtype":"","month":"2016-07"},{"category":"theft-from-the-person","location_type":"Force","location":{"latitude":"51.554881","street":{"id":968424,"name":"On or near Highbury Grange"},"longitude":"-0.096030"},"context":"","outcome_status":{"category":"Investigation complete; no suspect identified","date":"2016-07"},"persistent_id":"ff389478232028c4807872cbdfd56bf1b9f94d4beaf35a0429c6c969f44f0037","id":50003918,"location_subtype":"","month":"2016-07"},{"category":"theft-from-the-person","location_type":"Force","location":{"latitude":"51.552061","street":{"id":968437,"name":"On or near Aberdeen Park"},"longitude":"-0.095687"},"context":"","outcome_status":{"category":"Status update unavailable","date":"2016-11"},"persistent_id":"9635a203a9648132b9e383b5322578c211f9877e13afd03ca462d3c2ee082ff2","id":49969137,"location_subtype":"","month":"2016-07"},{"category":"theft-from-the-person","location_type":"Force","location":{"latitude":"51.551371","street":{"id":968417,"name":"On or near Highbury Terrace"},"longitude":"-0.101975"},"context":"","outcome_status":{"category":"Investigation complete; no suspect identified","date":"2016-08"},"persistent_id":"176896724181f389195bc238c36df53828074339dfa723660b5217e56062add6","id":50017689,"location_subtype":"","month":"2016-07"},{"category":"theft-from-the-person","location_type":"Force","location":{"latitude":"51.551371","street":{"id":968417,"name":"On or near Highbury Terrace"},"longitude":"-0.101975"},"context":"","outcome_status":{"category":"Status update unavailable","date":"2016-11"},"persistent_id":"ec7d49c70325622d6a943a77d8c039965f75656bec08dd5a6169adba8345d804","id":49968186,"location_subtype":"","month":"2016-07"},{"category":"theft-from-the-person","location_type":"Force","location":{"latitude":"51.558197","street":{"id":971923,"name":"On or near Catherall Road"},"longitude":"-0.091492"},"context":"","outcome_status":{"category":"Status update unavailable","date":"2016-11"},"persistent_id":"9c3a8248beb9bfa33e0b95d61438970008b0c273e4ef1ad3acadcc55ad985a73","id":50016837,"location_subtype":"","month":"2016-07"},{"category":"theft-from-the-person","location_type":"Force","location":{"latitude":"51.547122","street":{"id":968165,"name":"On or near Holloway Road"},"longitude":"-0.104994"},"context":"","outcome_status":{"category":"Status update unavailable","date":"2016-11"},"persistent_id":"9c71f4075a0e56d5a884d8b65adec895a02bf885a7ee53873400328e03bfad88","id":49989471,"location_subtype":"","month":"2016-07"},{"category":"theft-from-the-person","location_type":"Force","location":{"latitude":"51.552522","street":{"id":968428,"name":"On or near Framfield Road"},"longitude":"-0.102533"},"context":"","outcome_status":{"category":"Status update unavailable","date":"2016-11"},"persistent_id":"d3e80c4c8edaf04189ffa9d24ff36f71e7c57cc187e1345520f3c4378d5fd982","id":50017244,"location_subtype":"","month":"2016-07"},{"category":"theft-from-the-person","location_type":"Force","location":{"latitude":"51.548342","street":{"id":968397,"name":"On or near Highbury Place"},"longitude":"-0.102044"},"context":"","outcome_status":{"category":"Status update unavailable","date":"2016-11"},"persistent_id":"3ac58a796ed8b1c9a5f9960918f5bc600c5f0961319e2219e6247accb349ab74","id":49962594,"location_subtype":"","month":"2016-07"},{"category":"vehicle-crime","location_type":"Force","location":{"latitude":"51.552061","street":{"id":968437,"name":"On or near Aberdeen Park"},"longitude":"-0.095687"},"context":"","outcome_status":{"category":"Status update unavailable","date":"2016-11"},"persistent_id":"94ebe5cd97859d732ac2f4d25f45b6ba225b2c13afec5038a3edf095da272a0f","id":49993666,"location_subtype":"","month":"2016-07"},{"category":"vehicle-crime","location_type":"Force","location":{"latitude":"51.557224","street":{"id":968362,"name":"On or near Collins Road"},"longitude":"-0.091345"},"context":"","outcome_status":{"category":"Status update unavailable","date":"2016-11"},"persistent_id":"e37d669d207928efe5e4461bafe706a5d5c630b28032b265fea8892469f90c8f","id":49996825,"location_subtype":"","month":"2016-07"},{"category":"vehicle-crime","location_type":"Force","location":{"latitude":"51.554574","street":{"id":968350,"name":"On or near Stradbroke Road"},"longitude":"-0.093201"},"context":"","outcome_status":{"category":"Status update unavailable","date":"2016-11"},"persistent_id":"bcc41e218d55587f8640c83b88d291af8773c22ac8ad45e9be5859a9771ecce8","id":49968953,"location_subtype":"","month":"2016-07"},{"category":"vehicle-crime","location_type":"Force","location":{"latitude":"51.556737","street":{"id":968409,"name":"On or near Northolme Road"},"longitude":"-0.095679"},"context":"","outcome_status":{"category":"Status update unavailable","date":"2016-11"},"persistent_id":"c90b84b96f8c02084174760ae4590fd4ab8b2fc0d2594a3790e56a30aed91b57","id":49985970,"location_subtype":"","month":"2016-07"},{"category":"vehicle-crime","location_type":"Force","location":{"latitude":"51.548246","street":{"id":968166,"name":"On or near Holloway Road"},"longitude":"-0.106663"},"context":"","outcome_status":{"category":"Status update unavailable","date":"2016-11"},"persistent_id":"faa343c8c86df1a228d8e15735fbcd7658b96dfa345941f2730b9bb4b7a0f4b2","id":50003957,"location_subtype":"","month":"2016-07"},{"category":"vehicle-crime","location_type":"Force","location":{"latitude":"51.547122","street":{"id":968165,"name":"On or near Holloway Road"},"longitude":"-0.104994"},"context":"","outcome_status":{"category":"Investigation complete; no suspect identified","date":"2016-08"},"persistent_id":"574150095cefc98c297a69357e972551c1a04607ad8d9e5b5bf679aadc39e345","id":49988520,"location_subtype":"","month":"2016-07"},{"category":"vehicle-crime","location_type":"Force","location":{"latitude":"51.550960","street":{"id":968185,"name":"On or near Tinniswood Close"},"longitude":"-0.108253"},"context":"","outcome_status":{"category":"Status update unavailable","date":"2016-11"},"persistent_id":"2ab917c6e287cc66497d119c135f7c276c375ed5de1aaeb5c1c3f93352edb864","id":50005211,"location_subtype":"","month":"2016-07"},{"category":"vehicle-crime","location_type":"Force","location":{"latitude":"51.550287","street":{"id":968198,"name":"On or near Horsell Road"},"longitude":"-0.107804"},"context":"","outcome_status":{"category":"Status update unavailable","date":"2016-11"},"persistent_id":"9363758807d0ebc595bcf87465afbcb7d5a87e84fab19015d59213a92a28becd","id":50006332,"location_subtype":"","month":"2016-07"},{"category":"vehicle-crime","location_type":"Force","location":{"latitude":"51.550253","street":{"id":968223,"name":"On or near Petrol Station"},"longitude":"-0.108455"},"context":"","outcome_status":{"category":"Status update unavailable","date":"2016-11"},"persistent_id":"ed571d638ea8ce0b86b2cf566c96aa1880499a6e6f6e17335e1f42e64e2ddfd3","id":49965997,"location_subtype":"","month":"2016-07"},{"category":"vehicle-crime","location_type":"Force","location":{"latitude":"51.559161","street":{"id":971931,"name":"On or near Highbury Quadrant"},"longitude":"-0.094928"},"context":"","outcome_status":{"category":"Investigation complete; no suspect identified","date":"2016-12"},"persistent_id":"207545639c118752523ea9a398c5a6965091e8608168b17c1bf469d94696a463","id":49991087,"location_subtype":"","month":"2016-07"},{"category":"vehicle-crime","location_type":"Force","location":{"latitude":"51.548728","street":{"id":968403,"name":"On or near Calabria Road"},"longitude":"-0.099258"},"context":"","outcome_status":{"category":"Investigation complete; no suspect identified","date":"2016-09"},"persistent_id":"7480de916874e919b749d05646e64c9718e7862e6376936284b341eda0da4c03","id":49979849,"location_subtype":"","month":"2016-07"},{"category":"violent-crime","location_type":"Force","location":{"latitude":"51.548728","street":{"id":968403,"name":"On or near Calabria Road"},"longitude":"-0.099258"},"context":"","outcome_status":{"category":"Investigation complete; no suspect identified","date":"2016-08"},"persistent_id":"d658e5967e584c59a0262b81a01837f58a76ab4cb8bdbef70259108d4fc74ec5","id":50001817,"location_subtype":"","month":"2016-07"},{"category":"violent-crime","location_type":"Force","location":{"latitude":"51.546560","street":{"id":968325,"name":"On or near Nightclub"},"longitude":"-0.104209"},"context":"","outcome_status":{"category":"Investigation complete; no suspect identified","date":"2016-08"},"persistent_id":"27275ec28a567b79032b4b1ed8999663b74041f2a01cc7c412d8e41257ec1a4b","id":49960169,"location_subtype":"","month":"2016-07"},{"category":"violent-crime","location_type":"Force","location":{"latitude":"51.548171","street":{"id":968167,"name":"On or near Highbury Crescent"},"longitude":"-0.104835"},"context":"","outcome_status":{"category":"Investigation complete; no suspect identified","date":"2016-08"},"persistent_id":"2c2fb835e89b7d13233b3ae64bc06bbd235efdb426deaa7b57dd60d05464de6c","id":49969177,"location_subtype":"","month":"2016-07"},{"category":"violent-crime","location_type":"Force","location":{"latitude":"51.552512","street":{"id":968410,"name":"On or near Melody Lane"},"longitude":"-0.097485"},"context":"","outcome_status":{"category":"Investigation complete; no suspect identified","date":"2016-08"},"persistent_id":"a9667e2f3cffa11dc8965bd78302c0762fbbd29d3b2aa237205ebb9ecca4e162","id":49970657,"location_subtype":"","month":"2016-07"},{"category":"violent-crime","location_type":"Force","location":{"latitude":"51.550960","street":{"id":968185,"name":"On or near Tinniswood Close"},"longitude":"-0.108253"},"context":"","outcome_status":{"category":"Investigation complete; no suspect identified","date":"2016-12"},"persistent_id":"1d1be2a6f93b22346d9e24eac81183d37b9ce0f08692ce9a94a3c0cb11342ba8","id":49973167,"location_subtype":"","month":"2016-07"},{"category":"violent-crime","location_type":"Force","location":{"latitude":"51.549464","street":{"id":968169,"name":"On or near Fieldway Crescent"},"longitude":"-0.106353"},"context":"","outcome_status":{"category":"Status update unavailable","date":"2016-11"},"persistent_id":"c60aeeb006e7013b42b53a2f594d683a60700a4c6516e7095b01b6c8f13cf87d","id":49974949,"location_subtype":"","month":"2016-07"},{"category":"violent-crime","location_type":"Force","location":{"latitude":"51.548246","street":{"id":968166,"name":"On or near Holloway Road"},"longitude":"-0.106663"},"context":"","outcome_status":{"category":"Investigation complete; no suspect identified","date":"2016-08"},"persistent_id":"333b82626e0bdb6ff3e1d44a6cb0fa87c78d0b2a67fed3de048c5dc11f7a4b6a","id":49974647,"location_subtype":"","month":"2016-07"},{"category":"violent-crime","location_type":"Force","location":{"latitude":"51.553289","street":{"id":968414,"name":"On or near Kelvin Road"},"longitude":"-0.097107"},"context":"","outcome_status":{"category":"Investigation complete; no suspect identified","date":"2016-08"},"persistent_id":"9f093d44910fe24d7698ccb32651463c3b43680f2c13f62c35f5b4443f1d1339","id":49981335,"location_subtype":"","month":"2016-07"},{"category":"violent-crime","location_type":"Force","location":{"latitude":"51.555150","street":{"id":968355,"name":"On or near Petherton Road"},"longitude":"-0.090437"},"context":"","outcome_status":{"category":"Investigation complete; no suspect identified","date":"2017-03"},"persistent_id":"93ae983bd73c6ec3e8b0d6e05dbe37b89db0fb3be90950220a13def446fc4680","id":49985971,"location_subtype":"","month":"2016-07"},{"category":"violent-crime","location_type":"Force","location":{"latitude":"51.558197","street":{"id":971923,"name":"On or near Catherall Road"},"longitude":"-0.091492"},"context":"","outcome_status":{"category":"Investigation complete; no suspect identified","date":"2016-08"},"persistent_id":"2689c5d56f8181f409a552db8d997652119eef586d589b7749b631d79fe0e0a2","id":49988577,"location_subtype":"","month":"2016-07"},{"category":"violent-crime","location_type":"Force","location":{"latitude":"51.549986","street":{"id":968423,"name":"On or near Highbury Grove"},"longitude":"-0.098067"},"context":"","outcome_status":{"category":"Investigation complete; no suspect identified","date":"2016-12"},"persistent_id":"2f877a707f78f8c83426d27d100f49419e348351643aee352e34f76146efdb66","id":49989054,"location_subtype":"","month":"2016-07"},{"category":"violent-crime","location_type":"Force","location":{"latitude":"51.548728","street":{"id":968403,"name":"On or near Calabria Road"},"longitude":"-0.099258"},"context":"","outcome_status":{"category":"Investigation complete; no suspect identified","date":"2016-09"},"persistent_id":"cc5c76d00b63b926424a0aaa1922d403f21af86f037ccadd81f3ce4396e0f8eb","id":49989495,"location_subtype":"","month":"2016-07"},{"category":"violent-crime","location_type":"Force","location":{"latitude":"51.548728","street":{"id":968403,"name":"On or near Calabria Road"},"longitude":"-0.099258"},"context":"","outcome_status":{"category":"Status update unavailable","date":"2016-11"},"persistent_id":"e0db0a1eb4da62d41334f1d409346dff2bd245246b0027c57a1b43a9ab8fae01","id":49991916,"location_subtype":"","month":"2016-07"},{"category":"violent-crime","location_type":"Force","location":{"latitude":"51.552512","street":{"id":968410,"name":"On or near Melody Lane"},"longitude":"-0.097485"},"context":"","outcome_status":{"category":"Offender given a caution","date":"2016-07"},"persistent_id":"11e26823e00cbeca7d44765da92b599d925a2210d66361adb56f337732191767","id":49995535,"location_subtype":"","month":"2016-07"},{"category":"violent-crime","location_type":"Force","location":{"latitude":"51.560277","street":{"id":971885,"name":"On or near Riversdale Road"},"longitude":"-0.092198"},"context":"","outcome_status":{"category":"Investigation complete; no suspect identified","date":"2016-11"},"persistent_id":"c0546bd3af768c900e2e701fd004097afe90d19b85d6151f66d5aff5db75ecd5","id":49999024,"location_subtype":"","month":"2016-07"},{"category":"violent-crime","location_type":"Force","location":{"latitude":"51.552512","street":{"id":968410,"name":"On or near Melody Lane"},"longitude":"-0.097485"},"context":"","outcome_status":{"category":"Investigation complete; no suspect identified","date":"2017-07"},"persistent_id":"10df6d862899ec1953528e926db63371510cb838f698d6820a2e7a1cdcc3bc54","id":49963635,"location_subtype":"","month":"2016-07"},{"category":"violent-crime","location_type":"Force","location":{"latitude":"51.560948","street":{"id":971847,"name":"On or near Mountgrove Road"},"longitude":"-0.094724"},"context":"","outcome_status":{"category":"Investigation complete; no suspect identified","date":"2016-07"},"persistent_id":"7532032f929f64ae22b693f64563fec25067f1c8f17469bec5bfb0e1056f75e7","id":50001487,"location_subtype":"","month":"2016-07"},{"category":"violent-crime","location_type":"Force","location":{"latitude":"51.554881","street":{"id":968424,"name":"On or near Highbury Grange"},"longitude":"-0.096030"},"context":"","outcome_status":{"category":"Investigation complete; no suspect identified","date":"2016-10"},"persistent_id":"a27a5a9237dbf20cd424c28a9052e707a3843af53417ed271da0ebf3511161a1","id":49964193,"location_subtype":"","month":"2016-07"},{"category":"violent-crime","location_type":"Force","location":{"latitude":"51.548728","street":{"id":968403,"name":"On or near Calabria Road"},"longitude":"-0.099258"},"context":"","outcome_status":{"category":"Investigation complete; no suspect identified","date":"2016-09"},"persistent_id":"b6284e155912dcf75edcb482b22ed6c453e420cb1a78d774c8714f5379355b71","id":50005212,"location_subtype":"","month":"2016-07"},{"category":"violent-crime","location_type":"Force","location":{"latitude":"51.550960","street":{"id":968185,"name":"On or near Tinniswood Close"},"longitude":"-0.108253"},"context":"","outcome_status":{"category":"Local resolution","date":"2016-07"},"persistent_id":"38fffeedd06aa2b65a4b79c24702636526148181a0b99247baf5ae5210472744","id":50019812,"location_subtype":"","month":"2016-07"},{"category":"violent-crime","location_type":"Force","location":{"latitude":"51.560277","street":{"id":971885,"name":"On or near Riversdale Road"},"longitude":"-0.092198"},"context":"","outcome_status":{"category":"Offender given suspended prison sentence","date":"2016-08"},"persistent_id":"96fd0a6a327e6efaa41d5b52671b8f15da2b38806b21e1cc3c7bc14f43bfd875","id":50001314,"location_subtype":"","month":"2016-07"},{"category":"violent-crime","location_type":"Force","location":{"latitude":"51.556737","street":{"id":968409,"name":"On or near Northolme Road"},"longitude":"-0.095679"},"context":"","outcome_status":{"category":"Investigation complete; no suspect identified","date":"2016-08"},"persistent_id":"a10ec9e91335e3faff671f036d88aae846f356f8b0ca49a7f0364b64e6d8d560","id":49995829,"location_subtype":"","month":"2016-07"},{"category":"violent-crime","location_type":"Force","location":{"latitude":"51.554102","street":{"id":968359,"name":"On or near Highbury New Park"},"longitude":"-0.092399"},"context":"","outcome_status":{"category":"Investigation complete; no suspect identified","date":"2016-10"},"persistent_id":"51becfd959d4ed3c6bc8d073a7bc80a1abd84676587b809ab2f15f66235fd207","id":49973337,"location_subtype":"","month":"2016-07"},{"category":"violent-crime","location_type":"Force","location":{"latitude":"51.550630","street":{"id":968190,"name":"On or near Ronalds Road"},"longitude":"-0.105641"},"context":"","outcome_status":{"category":"Investigation complete; no suspect identified","date":"2016-09"},"persistent_id":"3e449dacf5dee0f356b5304778604357bcbd7696327ff340c31d081b1ac2fdd5","id":49972083,"location_subtype":"","month":"2016-07"},{"category":"violent-crime","location_type":"Force","location":{"latitude":"51.546560","street":{"id":968325,"name":"On or near Nightclub"},"longitude":"-0.104209"},"context":"","outcome_status":{"category":"Investigation complete; no suspect identified","date":"2016-08"},"persistent_id":"ee11b13224f858c4fbebb00288b6a4c01953b578bb5c5643eb664efff8850249","id":49993816,"location_subtype":"","month":"2016-07"},{"category":"other-crime","location_type":"Force","location":{"latitude":"51.559779","street":{"id":971936,"name":"On or near Blackstock Road"},"longitude":"-0.098625"},"context":"","outcome_status":{"category":"Offender given conditional discharge","date":"2016-08"},"persistent_id":"f87e5050d3aba13e3188f6fb172af917f7151cc8db09ca32f971edded4d1314a","id":50017077,"location_subtype":"","month":"2016-07"}]