[{"category":"anti-social-behaviour","location_type":"Force","location":{"latitude":"51.513441","street":{"id":957640,"name":"On or near Pierrepoint Road"},"longitude":"-0.273701"},"context":"","outcome_status":null,"persistent_id":"","id":49929296,"location_subtype":"","month":"2016-07"},{"category":"anti-social-behaviour","location_type":"Force","location":{"latitude":"51.509226","street":{"id":957846,"name":"On or near Lexden Road"},"longitude":"-0.274480"},"context":"","outcome_status":null,"persistent_id":"","id":49929298,"location_subtype":"","month":"2016-07"},{"category":"anti-social-behaviour","location_type":"Force","location":{"latitude":"51.509226","street":{"id":957846,"name":"On or near Lexden Road"},"longitude":"-0.274480"},"context":"","outcome_status":null,"persistent_id":"","id":49929302,"location_subtype":"","month":"2016-07"},{"category":"anti-social-behaviour","location_type":"Force","location":{"latitude":"51.512074","street":{"id":957811,"name":"On or near Rosemont Road"},"longitude":"-0.274934"},"context":"","outcome_status":null,"persistent_id":"","id":49929303,"location_subtype":"","month":"2016-07"},{"category":"anti-social-behaviour","location_type":"Force","location":{"latitude":"51.509226","street":{"id":957846,"name":"On or near Lexden Road"},"longitude":"-0.274480"},"context":"","outcome_status":null,"persistent_id":"","id":49929305,"location_subtype":"","month":"2016-07"},{"category":"anti-social-behaviour","location_type":"Force","location":{"latitude":"51.514144","street":{"id":957823,"name":"On or near Twyford Avenue"},"longitude":"-0.282365"},"context":"","outcome_status":null,"persistent_id":"","id":49929333,"location_subtype":"","month":"2016-07"},{"category":"anti-social-behaviour","location_type":"Force","location":{"latitude":"51.509531","street":{"id":957761,"name":"On or near Cowper Road"},"longitude":"-0.264698"},"context":"","outcome_status":null,"persistent_id":"","id":49928623,"location_subtype":"","month":"2016-07"},{"category":"anti-social-behaviour","location_type":"Force","location":{"latitude":"51.507912","street":{"id":957765,"name":"On or near Burlington Gardens"},"longitude":"-0.265235"},"context":"","outcome_status":null,"persistent_id":"","id":49928626,"location_subtype":"","month":"2016-07"},{"category":"anti-social-behaviour","location_type":"Force","location":{"latitude":"51.508907","street":{"id":957747,"name":"On or near Rectory Road"},"longitude":"-0.272316"},"context":"","outcome_status":null,"persistent_id":"","id":49929284,"location_subtype":"","month":"2016-07"},{"category":"anti-social-behaviour","location_type":"Force","location":{"latitude":"51.507552","street":{"id":952231,"name":"On or near High Street"},"longitude":"-0.272554"},"context":"","outcome_status":null,"persistent_id":"","id":49929289,"location_subtype":"","month":"2016-07"},{"category":"anti-social-behaviour","location_type":"Force","location":{"latitude":"51.509788","street":{"id":957753,"name":"On or near Horn Lane"},"longitude":"-0.271720"},"context":"","outcome_status":null,"persistent_id":"","id":49929292,"location_subtype":"","month":"2016-07"},{"category":"anti-social-behaviour","location_type":"Force","location":{"latitude":"51.509788","street":{"id":957753,"name":"On or near Horn Lane"},"longitude":"-0.271720"},"context":"","outcome_status":null,"persistent_id":"","id":49929293,"location_subtype":"","month":"2016-07"},{"category":"anti-social-behaviour","location_type":"Force","location":{"latitude":"51.509288","street":{"id":957745,"name":"On or near Steyne Road"},"longitude":"-0.273152"},"context":"","outcome_status":null,"persistent_id":"","id":49929295,"location_subtype":"","month":"2016-07"},{"category":"anti-social-behaviour","location_type":"Force","location":{"latitude":"51.513441","street":{"id":957640,"name":"On or near Pierrepoint Road"},"longitude":"-0.273701"},"context":"","outcome_status":null,"persistent_id":"","id":49929297,"location_subtype":"","month":"2016-07"},{"category":"anti-social-behaviour","location_type":"Force","location":{"latitude":"51.515016","street":{"id":957642,"name":"On or near Messaline Avenue"},"longitude":"-0.265282"},"context":"","outcome_status":null,"persistent_id":"","id":49928628,"location_subtype":"","month":"2016-07"},{"category":"anti-social-behaviour","location_type":"Force","location":{"latitude":"51.516946","street":{"id":957645,"name":"On or near Joseph Avenue"},"longitude":"-0.263796"},"context":"","outcome_status":null,"persistent_id":"","id":49928622,"location_subtype":"","month":"2016-07"},{"category":"anti-social-behaviour","location_type":"Force","location":{"latitude":"51.513472","street":{"id":957692,"name":"On or near St Dunstans Avenue"},"longitude":"-0.261795"},"context":"","outcome_status":null,"persistent_id":"","id":49928602,"location_subtype":"","month":"2016-07"},{"category":"anti-social-behaviour","location_type":"Force","location":{"latitude":"51.517713","street":{"id":957683,"name":"On or near Western Avenue"},"longitude":"-0.261576"},"context":"","outcome_status":null,"persistent_id":"","id":49928604,"location_subtype":"","month":"2016-07"},{"category":"anti-social-behaviour","location_type":"Force","location":{"latitude":"51.514955","street":{"id":957658,"name":"On or near Eastbourne Avenue"},"longitude":"-0.262921"},"context":"","outcome_status":null,"persistent_id":"","id":49928605,"location_subtype":"","month":"2016-07"},{"category":"anti-social-behaviour","location_type":"Force","location":{"latitude":"51.507717","street":{"id":957766,"name":"On or near Birkbeck Road"},"longitude":"-0.264205"},"context":"","outcome_status":null,"persistent_id":"","id":49928607,"location_subtype":"","month":"2016-07"},{"category":"anti-social-behaviour","location_type":"Force","location":{"latitude":"51.507717","street":{"id":957766,"name":"On or near Birkbeck Road"},"longitude":"-0.264205"},"context":"","outcome_status":null,"persistent_id":"","id":49928608,"location_subtype":"","month":"2016-07"},{"category":"anti-social-behaviour","location_type":"Force","location":{"latitude":"51.507717","street":{"id":957766,"name":"On or near Birkbeck Road"},"longitude":"-0.264205"},"context":"","outcome_status":null,"persistent_id":"","id":49928609,"location_subtype":"","month":"2016-07"},{"category":"anti-social-behaviour","location_type":"Force","location":{"latitude":"51.513472","street":{"id":957692,"name":"On or near St Dunstans Avenue"},"longitude":"-0.261795"},"context":"","outcome_status":null,"persistent_id":"","id":49928603,"location_subtype":"","month":"2016-07"},{"category":"anti-social-behaviour","location_type":"Force","location":{"latitude":"51.507717","street":{"id":957766,"name":"On or near Birkbeck Road"},"longitude":"-0.264205"},"context":"","outcome_status":null,"persistent_id":"","id":49928610,"location_subtype":"","month":"2016-07"},{"category":"anti-social-behaviour","location_type":"Force","location":{"latitude":"51.517421","street":{"id":957652,"name":"On or near Friary Road"},"longitude":"-0.263677"},"context":"","outcome_status":null,"persistent_id":"","id":49928615,"location_subtype":"","month":"2016-07"},{"category":"anti-social-behaviour","location_type":"Force","location":{"latitude":"51.512991","street":{"id":957661,"name":"On or near Crane Avenue"},"longitude":"-0.265157"},"context":"","outcome_status":null,"persistent_id":"","id":49928629,"location_subtype":"","month":"2016-07"},{"category":"anti-social-behaviour","location_type":"Force","location":{"latitude":"51.512991","street":{"id":957661,"name":"On or near Crane Avenue"},"longitude":"-0.265157"},"context":"","outcome_status":null,"persistent_id":"","id":49928630,"location_subtype":"","month":"2016-07"},{"category":"anti-social-behaviour","location_type":"Force","location":{"latitude":"51.512991","street":{"id":957661,"name":"On or near Crane Avenue"},"longitude":"-0.265157"},"context":"","outcome_status":null,"persistent_id":"","id":49928631,"location_subtype":"","month":"2016-07"},{"category":"anti-social-behaviour","location_type":"Force","location":{"latitude":"51.507591","street":{"id":957767,"name":"On or near Alfred Road"},"longitude":"-0.266011"},"context":"","outcome_status":null,"persistent_id":"","id":49928634,"location_subtype":"","month":"2016-07"},{"category":"anti-social-behaviour","location_type":"Force","location":{"latitude":"51.507578","street":{"id":957755,"name":"On or near Grove Road"},"longitude":"-0.267020"},"context":"","outcome_status":null,"persistent_id":"","id":49928638,"location_subtype":"","month":"2016-07"},{"category":"anti-social-behaviour","location_type":"Force","location":{"latitude":"51.508524","street":{"id":957762,"name":"On or near Churchfield Road"},"longitude":"-0.267128"},"context":"","outcome_status":null,"persistent_id":"","id":49928639,"location_subtype":"","month":"2016-07"},{"category":"anti-social-behaviour","location_type":"Force","location":{"latitude":"51.508524","street":{"id":957762,"name":"On or near Churchfield Road"},"longitude":"-0.267128"},"context":"","outcome_status":null,"persistent_id":"","id":49928640,"location_subtype":"","month":"2016-07"},{"category":"anti-social-behaviour","location_type":"Force","location":{"latitude":"51.508524","street":{"id":957762,"name":"On or near Churchfield Road"},"longitude":"-0.267128"},"context":"","outcome_status":null,"persistent_id":"","id":49928641,"location_subtype":"","month":"2016-07"},{"category":"anti-social-behaviour","location_type":"Force","location":{"latitude":"51.508524","street":{"id":957762,"name":"On or near Churchfield Road"},"longitude":"-0.267128"},"context":"","outcome_status":null,"persistent_id":"","id":49928642,"location_subtype":"","month":"2016-07"},{"category":"anti-social-behaviour","location_type":"Force","location":{"latitude":"51.509597","street":{"id":957746,"name":"On or near Spencer Road"},"longitude":"-0.267894"},"context":"","outcome_status":null,"persistent_id":"","id":49928644,"location_subtype":"","month":"2016-07"},{"category":"anti-social-behaviour","location_type":"Force","location":{"latitude":"51.515934","street":{"id":957668,"name":"On or near Supermarket"},"longitude":"-0.267740"},"context":"","outcome_status":null,"persistent_id":"","id":49928645,"location_subtype":"","month":"2016-07"},{"category":"anti-social-behaviour","location_type":"Force","location":{"latitude":"51.507892","street":{"id":957756,"name":"On or near Grove Place"},"longitude":"-0.268132"},"context":"","outcome_status":null,"persistent_id":"","id":49928646,"location_subtype":"","month":"2016-07"},{"category":"anti-social-behaviour","location_type":"Force","location":{"latitude":"51.509341","street":{"id":957748,"name":"On or near Newburgh Road"},"longitude":"-0.269460"},"context":"","outcome_status":null,"persistent_id":"","id":49929246,"location_subtype":"","month":"2016-07"},{"category":"anti-social-behaviour","location_type":"Force","location":{"latitude":"51.509341","street":{"id":957748,"name":"On or near Newburgh Road"},"longitude":"-0.269460"},"context":"","outcome_status":null,"persistent_id":"","id":49929247,"location_subtype":"","month":"2016-07"},{"category":"anti-social-behaviour","location_type":"Force","location":{"latitude":"51.513945","street":{"id":957646,"name":"On or near Horn Lane"},"longitude":"-0.269473"},"context":"","outcome_status":null,"persistent_id":"","id":49929248,"location_subtype":"","month":"2016-07"},{"category":"anti-social-behaviour","location_type":"Force","location":{"latitude":"51.507147","street":{"id":952251,"name":"On or near Shopping Area"},"longitude":"-0.270106"},"context":"","outcome_status":null,"persistent_id":"","id":49929251,"location_subtype":"","month":"2016-07"},{"category":"anti-social-behaviour","location_type":"Force","location":{"latitude":"51.507147","street":{"id":952251,"name":"On or near Shopping Area"},"longitude":"-0.270106"},"context":"","outcome_status":null,"persistent_id":"","id":49929252,"location_subtype":"","month":"2016-07"},{"category":"anti-social-behaviour","location_type":"Force","location":{"latitude":"51.507147","street":{"id":952251,"name":"On or near Shopping Area"},"longitude":"-0.270106"},"context":"","outcome_status":null,"persistent_id":"","id":49929253,"location_subtype":"","month":"2016-07"},{"category":"anti-social-behaviour","location_type":"Force","location":{"latitude":"51.507147","street":{"id":952251,"name":"On or near Shopping Area"},"longitude":"-0.270106"},"context":"","outcome_status":null,"persistent_id":"","id":49929254,"location_subtype":"","month":"2016-07"},{"category":"anti-social-behaviour","location_type":"Force","location":{"latitude":"51.507147","street":{"id":952251,"name":"On or near Shopping Area"},"longitude":"-0.270106"},"context":"","outcome_status":null,"persistent_id":"","id":49929255,"location_subtype":"","month":"2016-07"},{"category":"anti-social-behaviour","location_type":"Force","location":{"latitude":"51.507147","street":{"id":952251,"name":"On or near Shopping Area"},"longitude":"-0.270106"},"context":"","outcome_status":null,"persistent_id":"","id":49929258,"location_subtype":"","month":"2016-07"},{"category":"anti-social-behaviour","location_type":"Force","location":{"latitude":"51.507147","street":{"id":952251,"name":"On or near Shopping Area"},"longitude":"-0.270106"},"context":"","outcome_status":null,"persistent_id":"","id":49929259,"location_subtype":"","month":"2016-07"},{"category":"anti-social-behaviour","location_type":"Force","location":{"latitude":"51.509149","street":{"id":957759,"name":"On or near Derwentwater Road"},"longitude":"-0.270462"},"context":"","outcome_status":null,"persistent_id":"","id":49929262,"location_subtype":"","month":"2016-07"},{"category":"anti-social-behaviour","location_type":"Force","location":{"latitude":"51.507823","street":{"id":957754,"name":"On or near Hooper's Mews"},"longitude":"-0.270786"},"context":"","outcome_status":null,"persistent_id":"","id":49929265,"location_subtype":"","month":"2016-07"},{"category":"anti-social-behaviour","location_type":"Force","location":{"latitude":"51.507823","street":{"id":957754,"name":"On or near Hooper's Mews"},"longitude":"-0.270786"},"context":"","outcome_status":null,"persistent_id":"","id":49929266,"location_subtype":"","month":"2016-07"},{"category":"anti-social-behaviour","location_type":"Force","location":{"latitude":"51.507823","street":{"id":957754,"name":"On or near Hooper's Mews"},"longitude":"-0.270786"},"context":"","outcome_status":null,"persistent_id":"","id":49929268,"location_subtype":"","month":"2016-07"},{"category":"anti-social-behaviour","location_type":"Force","location":{"latitude":"51.507823","street":{"id":957754,"name":"On or near Hooper's Mews"},"longitude":"-0.270786"},"context":"","outcome_status":null,"persistent_id":"","id":49929269,"location_subtype":"","month":"2016-07"},{"category":"anti-social-behaviour","location_type":"Force","location":{"latitude":"51.507823","street":{"id":957754,"name":"On or near Hooper's Mews"},"longitude":"-0.270786"},"context":"","outcome_status":null,"persistent_id":"","id":49929271,"location_subtype":"","month":"2016-07"},{"category":"anti-social-behaviour","location_type":"Force","location":{"latitude":"51.507823","street":{"id":957754,"name":"On or near Hooper's Mews"},"longitude":"-0.270786"},"context":"","outcome_status":null,"persistent_id":"","id":49929272,"location_subtype":"","month":"2016-07"},{"category":"anti-social-behaviour","location_type":"Force","location":{"latitude":"51.507823","street":{"id":957754,"name":"On or near Hooper's Mews"},"longitude":"-0.270786"},"context":"","outcome_status":null,"persistent_id":"","id":49929273,"location_subtype":"","month":"2016-07"},{"category":"anti-social-behaviour","location_type":"Force","location":{"latitude":"51.507823","street":{"id":957754,"name":"On or near Hooper's Mews"},"longitude":"-0.270786"},"context":"","outcome_status":null,"persistent_id":"","id":49929267,"location_subtype":"","month":"2016-07"},{"category":"anti-social-behaviour","location_type":"Force","location":{"latitude":"51.520605","street":{"id":957680,"name":"On or near Sports\/recreation Area"},"longitude":"-0.271023"},"context":"","outcome_status":null,"persistent_id":"","id":49929283,"location_subtype":"","month":"2016-07"},{"category":"anti-social-behaviour","location_type":"Force","location":{"latitude":"51.507639","street":{"id":957752,"name":"On or near Market Place"},"longitude":"-0.271153"},"context":"","outcome_status":null,"persistent_id":"","id":49929274,"location_subtype":"","month":"2016-07"},{"category":"anti-social-behaviour","location_type":"Force","location":{"latitude":"51.507639","street":{"id":957752,"name":"On or near Market Place"},"longitude":"-0.271153"},"context":"","outcome_status":null,"persistent_id":"","id":49929275,"location_subtype":"","month":"2016-07"},{"category":"anti-social-behaviour","location_type":"Force","location":{"latitude":"51.507639","street":{"id":957752,"name":"On or near Market Place"},"longitude":"-0.271153"},"context":"","outcome_status":null,"persistent_id":"","id":49929278,"location_subtype":"","month":"2016-07"},{"category":"anti-social-behaviour","location_type":"Force","location":{"latitude":"51.507639","street":{"id":957752,"name":"On or near Market Place"},"longitude":"-0.271153"},"context":"","outcome_status":null,"persistent_id":"","id":49929279,"location_subtype":"","month":"2016-07"},{"category":"anti-social-behaviour","location_type":"Force","location":{"latitude":"51.507639","street":{"id":957752,"name":"On or near Market Place"},"longitude":"-0.271153"},"context":"","outcome_status":null,"persistent_id":"","id":49929280,"location_subtype":"","month":"2016-07"},{"category":"anti-social-behaviour","location_type":"Force","location":{"latitude":"51.520605","street":{"id":957680,"name":"On or near Sports\/recreation Area"},"longitude":"-0.271023"},"context":"","outcome_status":null,"persistent_id":"","id":49929282,"location_subtype":"","month":"2016-07"},{"category":"bicycle-theft","location_type":"Force","location":{"latitude":"51.515242","street":{"id":957633,"name":"On or near Westbourne Avenue"},"longitude":"-0.264092"},"context":"","outcome_status":{"category":"Investigation complete; no suspect identified","date":"2016-07"},"persistent_id":"675615723a9431eb063481b749b6243eb20741391ac444e4d133aaac76704c1e","id":49994422,"location_subtype":"","month":"2016-07"},{"category":"bicycle-theft","location_type":"Force","location":{"latitude":"51.510828","street":{"id":957632,"name":"On or near Woodhurst Road"},"longitude":"-0.267214"},"context":"","outcome_status":{"category":"Status update unavailable","date":"2016-11"},"persistent_id":"1bfe7279016c6db839dfad78693042bb66cba24027e6ff0e1cbe8d79a814d813","id":49992489,"location_subtype":"","month":"2016-07"},{"category":"bicycle-theft","location_type":"Force","location":{"latitude":"51.507639","street":{"id":957752,"name":"On or near Market Place"},"longitude":"-0.271153"},"context":"","outcome_status":{"category":"Status update unavailable","date":"2016-11"},"persistent_id":"7727c4c443c378fc8f2364cea92191017d34d99460769c7777391ff40ec1adec","id":49987337,"location_subtype":"","month":"2016-07"},{"category":"burglary","location_type":"Force","location":{"latitude":"51.507639","street":{"id":957752,"name":"On or near Market Place"},"longitude":"-0.271153"},"context":"","outcome_status":{"category":"Offender sent to prison","date":"2017-04"},"persistent_id":"2cab34325b1c61329c438e22e7c679dbaa543452485eb753d5d1b2cfc97e001f","id":49981452,"location_subtype":"","month":"2016-07"},{"category":"burglary","location_type":"Force","location":{"latitude":"51.507912","street":{"id":957765,"name":"On or near Burlington Gardens"},"longitude":"-0.265235"},"context":"","outcome_status":{"category":"Status update unavailable","date":"2016-11"},"persistent_id":"715b58a88d297490e378bda0517955fbd5198db0fd8aa38fc9ffab8d1a74b6c5","id":50002618,"location_subtype":"","month":"2016-07"},{"category":"burglary","location_type":"Force","location":{"latitude":"51.509788","street":{"id":957753,"name":"On or near Horn Lane"},"longitude":"-0.271720"},"context":"","outcome_status":{"category":"Investigation complete; no suspect identified","date":"2016-08"},"persistent_id":"049e88b276a7e0786908c10e4d81af8af54089a32f20fa5eb3f2e6255f832d74","id":50010945,"location_subtype":"","month":"2016-07"},{"category":"criminal-damage-arson","location_type":"Force","location":{"latitude":"51.517713","street":{"id":957683,"name":"On or near Western Avenue"},"longitude":"-0.261576"},"context":"","outcome_status":{"category":"Status update unavailable","date":"2016-11"},"persistent_id":"19159c9779cc83eac4fec3d9073883c4391cdc540d5021253785f2942efe3988","id":49973909,"location_subtype":"","month":"2016-07"},{"category":"criminal-damage-arson","location_type":"Force","location":{"latitude":"51.516819","street":{"id":957635,"name":"On or near The Drive"},"longitude":"-0.264968"},"context":"","outcome_status":{"category":"Status update unavailable","date":"2016-11"},"persistent_id":"37518f13fbe937df84d42e89f257b9540c38c89e08b0ea1223e472d65db3738f","id":49983454,"location_subtype":"","month":"2016-07"},{"category":"criminal-damage-arson","location_type":"Force","location":{"latitude":"51.507431","street":{"id":952250,"name":"On or near Shopping Area"},"longitude":"-0.269821"},"context":"","outcome_status":{"category":"Investigation complete; no suspect identified","date":"2016-10"},"persistent_id":"0f8709ea92692a9c459c38221b771f8259a1a322957efb215e234d663b474f4b","id":49991061,"location_subtype":"","month":"2016-07"},{"category":"criminal-damage-arson","location_type":"Force","location":{"latitude":"51.514246","street":{"id":957814,"name":"On or near Mayfield Road"},"longitude":"-0.277677"},"context":"","outcome_status":{"category":"Status update unavailable","date":"2016-11"},"persistent_id":"10f518b869ba098cb06bde06c00f102e533c9b397ad17e9d2af699e5c5fa9507","id":50017541,"location_subtype":"","month":"2016-07"},{"category":"criminal-damage-arson","location_type":"Force","location":{"latitude":"51.513069","street":{"id":957644,"name":"On or near Julian Avenue"},"longitude":"-0.271611"},"context":"","outcome_status":{"category":"Status update unavailable","date":"2016-11"},"persistent_id":"edba7779d44ba4c5307f7630d2d4e0133deea20e944559136cc1c0190ae801be","id":49994107,"location_subtype":"","month":"2016-07"},{"category":"criminal-damage-arson","location_type":"Force","location":{"latitude":"51.517993","street":{"id":957769,"name":"On or near Sports\/recreation Area"},"longitude":"-0.273802"},"context":"","outcome_status":{"category":"Status update unavailable","date":"2016-11"},"persistent_id":"45f94a860c5997dea95c113b145556876537707d99e2e9e9b5e8861eaffcbc86","id":49994065,"location_subtype":"","month":"2016-07"},{"category":"criminal-damage-arson","location_type":"Force","location":{"latitude":"51.508396","street":{"id":957764,"name":"On or near Burlington Mews"},"longitude":"-0.265764"},"context":"","outcome_status":{"category":"Investigation complete; no suspect identified","date":"2016-08"},"persistent_id":"3430bc196def5e116241cddba8dfcdb76c69df58600def0ead30101d8a5fd5a0","id":49983501,"location_subtype":"","month":"2016-07"},{"category":"criminal-damage-arson","location_type":"Force","location":{"latitude":"51.515934","street":{"id":957668,"name":"On or near Supermarket"},"longitude":"-0.267740"},"context":"","outcome_status":{"category":"Status update unavailable","date":"2016-11"},"persistent_id":"b298a4e717fa932ae10fc87082d4b1a2937cb4754cdf6713b4cb2eb75d644ba9","id":49983072,"location_subtype":"","month":"2016-07"},{"category":"criminal-damage-arson","location_type":"Force","location":{"latitude":"51.507552","street":{"id":952231,"name":"On or near High Street"},"longitude":"-0.272554"},"context":"","outcome_status":{"category":"Investigation complete; no suspect identified","date":"2016-09"},"persistent_id":"736ce8fcbbcf9e0ca8f4e4d43c6bcca0a434af39c6cde669ae31de9c1fd39c4f","id":49979953,"location_subtype":"","month":"2016-07"},{"category":"criminal-damage-arson","location_type":"Force","location":{"latitude":"51.507912","street":{"id":957765,"name":"On or near Burlington Gardens"},"longitude":"-0.265235"},"context":"","outcome_status":{"category":"Offender given a caution","date":"2016-07"},"persistent_id":"a8331fd86cf013fb7ddb35c1047abdfb80c9855e296c20fab117cfbddf694dd8","id":49961335,"location_subtype":"","month":"2016-07"},{"category":"criminal-damage-arson","location_type":"Force","location":{"latitude":"51.507591","street":{"id":957767,"name":"On or near Alfred Road"},"longitude":"-0.266011"},"context":"","outcome_status":{"category":"Status update unavailable","date":"2016-11"},"persistent_id":"ea383ee0cf06287b3dc600bbf6b6909098e863f298e2e06d928a150daa83dfd8","id":49957154,"location_subtype":"","month":"2016-07"},{"category":"criminal-damage-arson","location_type":"Force","location":{"latitude":"51.506921","street":{"id":952232,"name":"On or near High Street"},"longitude":"-0.269999"},"context":"","outcome_status":{"category":"Court case unable to proceed","date":"2016-10"},"persistent_id":"79ff9f913267399e5d13bccc5b1dec34ecedf8d84a3a356bd73c75aad146cb95","id":50007471,"location_subtype":"","month":"2016-07"},{"category":"criminal-damage-arson","location_type":"Force","location":{"latitude":"51.507552","street":{"id":952231,"name":"On or near High Street"},"longitude":"-0.272554"},"context":"","outcome_status":{"category":"Investigation complete; no suspect identified","date":"2016-08"},"persistent_id":"adfc1cea2443a927faa61d858c3c3f894621d0e04800356924983833d81115c6","id":50015877,"location_subtype":"","month":"2016-07"},{"category":"drugs","location_type":"Force","location":{"latitude":"51.507573","street":{"id":957760,"name":"On or near Cromwell Close"},"longitude":"-0.267856"},"context":"","outcome_status":{"category":"Offender given a caution","date":"2016-07"},"persistent_id":"c9f4c05ac1e28aac955f98bfc64527e703f03f73c7b4bfaac8500ffd711085dc","id":49972886,"location_subtype":"","month":"2016-07"},{"category":"drugs","location_type":"Force","location":{"latitude":"51.507828","street":{"id":957742,"name":"On or near Parking Area"},"longitude":"-0.270512"},"context":"","outcome_status":{"category":"Offender given penalty notice","date":"2016-08"},"persistent_id":"2d52a400888e2bf55e74a802c04bf7f2e73813074d67d300f6e876611d361e5b","id":49973347,"location_subtype":"","month":"2016-07"},{"category":"drugs","location_type":"Force","location":{"latitude":"51.515217","street":{"id":957706,"name":"On or near Friars Gardens"},"longitude":"-0.261181"},"context":"","outcome_status":{"category":"Offender given a drugs possession warning","date":"2016-07"},"persistent_id":"42e6df1f0ed89fc2d676c21d29d4ca87ac3a9580a95611b80409aec26ec89924","id":50006313,"location_subtype":"","month":"2016-07"},{"category":"drugs","location_type":"Force","location":{"latitude":"51.519540","street":{"id":957673,"name":"On or near Noel Road"},"longitude":"-0.266537"},"context":"","outcome_status":{"category":"Offender given a caution","date":"2016-07"},"persistent_id":"1b342712a3f8f5ad708003a36313072f6bffbd6d852db9aa00141214c44b50ce","id":49993152,"location_subtype":"","month":"2016-07"},{"category":"drugs","location_type":"Force","location":{"latitude":"51.509415","street":{"id":957763,"name":"On or near Chaucer Road"},"longitude":"-0.267152"},"context":"","outcome_status":{"category":"Offender given penalty notice","date":"2016-07"},"persistent_id":"24dc8150a73c5903c0e3c04f1a541ef171eff961cfc7fa8fe877861300e60b14","id":50008546,"location_subtype":"","month":"2016-07"},{"category":"drugs","location_type":"Force","location":{"latitude":"51.516946","street":{"id":957645,"name":"On or near Joseph Avenue"},"longitude":"-0.263796"},"context":"","outcome_status":{"category":"Offender given a drugs possession warning","date":"2016-07"},"persistent_id":"c6bd098635937dccc179908035a4bdeee0207296338da8ae38294bb0590299f6","id":49980328,"location_subtype":"","month":"2016-07"},{"category":"drugs","location_type":"Force","location":{"latitude":"51.517421","street":{"id":957652,"name":"On or near Friary Road"},"longitude":"-0.263677"},"context":"","outcome_status":{"category":"Offender fined","date":"2016-09"},"persistent_id":"be14404bffeb7604476b77a838aa1f8504f1b9c76dfd27d3cb9d5969fcff2763","id":49997331,"location_subtype":"","month":"2016-07"},{"category":"other-theft","location_type":"Force","location":{"latitude":"51.508907","street":{"id":957747,"name":"On or near Rectory Road"},"longitude":"-0.272316"},"context":"","outcome_status":{"category":"Status update unavailable","date":"2016-11"},"persistent_id":"c6c27940d6072c2fd90aa2b7cbd74013b45f3b68f2ffca03907402cfb5bd6696","id":49979129,"location_subtype":"","month":"2016-07"},{"category":"other-theft","location_type":"Force","location":{"latitude":"51.513945","street":{"id":957646,"name":"On or near Horn Lane"},"longitude":"-0.269473"},"context":"","outcome_status":{"category":"Investigation complete; no suspect identified","date":"2016-07"},"persistent_id":"3836e1ade874eddbd803aa808f51f7553297d3cef9a306cd11e60597303e4171","id":50006289,"location_subtype":"","month":"2016-07"},{"category":"other-theft","location_type":"Force","location":{"latitude":"51.507639","street":{"id":957752,"name":"On or near Market Place"},"longitude":"-0.271153"},"context":"","outcome_status":{"category":"Investigation complete; no suspect identified","date":"2016-08"},"persistent_id":"b5df171fb26a25b2a15144afc84e665cc970301f8f7f6f8f87e86f5211b665d4","id":49977981,"location_subtype":"","month":"2016-07"},{"category":"other-theft","location_type":"Force","location":{"latitude":"51.506921","street":{"id":952232,"name":"On or near High Street"},"longitude":"-0.269999"},"context":"","outcome_status":{"category":"Investigation complete; no suspect identified","date":"2016-07"},"persistent_id":"cf4648536bff6326d392fb6d78de745e247055ed77487f93cb0eb08914c97981","id":49998300,"location_subtype":"","month":"2016-07"},{"category":"other-theft","location_type":"Force","location":{"latitude":"51.508907","street":{"id":957747,"name":"On or near Rectory Road"},"longitude":"-0.272316"},"context":"","outcome_status":{"category":"Investigation complete; no suspect identified","date":"2016-07"},"persistent_id":"d4af85bda7de6263f3ed9236799a7822f9386e88e262b689b599b1a7d6bf7ab5","id":49961193,"location_subtype":"","month":"2016-07"},{"category":"other-theft","location_type":"Force","location":{"latitude":"51.508907","street":{"id":957747,"name":"On or near Rectory Road"},"longitude":"-0.272316"},"context":"","outcome_status":{"category":"Investigation complete; no suspect identified","date":"2016-07"},"persistent_id":"c81f19359e410fe746a30c14720ee5ddb9c03fa6bcc4d150942bdab79bd8d8ee","id":49953798,"location_subtype":"","month":"2016-07"},{"category":"other-theft","location_type":"Force","location":{"latitude":"51.509597","street":{"id":957746,"name":"On or near Spencer Road"},"longitude":"-0.267894"},"context":"","outcome_status":{"category":"Status update unavailable","date":"2016-11"},"persistent_id":"427ed5cca95a67dceb32dd8310c40ae80bcfd9bb9afb506995c08e54f53cdd7a","id":50017539,"location_subtype":"","month":"2016-07"},{"category":"other-theft","location_type":"Force","location":{"latitude":"51.509309","street":{"id":957749,"name":"On or near Narrow Street"},"longitude":"-0.272156"},"context":"","outcome_status":{"category":"Status update unavailable","date":"2016-11"},"persistent_id":"b1651701a70cc421ce75005961aed1789eb97d20e6ab2079b2ff3d836c1ccde8","id":50018301,"location_subtype":"","month":"2016-07"},{"category":"other-theft","location_type":"Force","location":{"latitude":"51.507823","street":{"id":957754,"name":"On or near Hooper's Mews"},"longitude":"-0.270786"},"context":"","outcome_status":{"category":"Investigation complete; no suspect identified","date":"2016-08"},"persistent_id":"e225c0ba4f4d247b9908aff0e57440ba299db22f6532e75e268ee90859a8ee49","id":50012264,"location_subtype":"","month":"2016-07"},{"category":"other-theft","location_type":"Force","location":{"latitude":"51.507639","street":{"id":957752,"name":"On or near Market Place"},"longitude":"-0.271153"},"context":"","outcome_status":{"category":"Investigation complete; no suspect identified","date":"2016-08"},"persistent_id":"7f47aa2023d9ae4064fb0e0b9357d361412161d40607783f4c96fce9312f4609","id":50011416,"location_subtype":"","month":"2016-07"},{"category":"other-theft","location_type":"Force","location":{"latitude":"51.507639","street":{"id":957752,"name":"On or near Market Place"},"longitude":"-0.271153"},"context":"","outcome_status":{"category":"Offender given a caution","date":"2017-01"},"persistent_id":"642ceccd9f762d3e6946adcf3d56d7ba4b6b96b3244969e77c10af3b9de86919","id":49991053,"location_subtype":"","month":"2016-07"},{"category":"other-theft","location_type":"Force","location":{"latitude":"51.514369","street":{"id":957648,"name":"On or near Hereford Road"},"longitude":"-0.271360"},"context":"","outcome_status":{"category":"Investigation complete; no suspect identified","date":"2016-07"},"persistent_id":"d8848c99f9369a66ca94d90d528f44c4b2534f557e4a5065d23dc0e2dfaa90ed","id":50007263,"location_subtype":"","month":"2016-07"},{"category":"public-order","location_type":"Force","location":{"latitude":"51.508907","street":{"id":957747,"name":"On or near Rectory Road"},"longitude":"-0.272316"},"context":"","outcome_status":{"category":"Investigation complete; no suspect identified","date":"2016-09"},"persistent_id":"7ad647e36a8009663646510749005581591df147d690d4226b09db2aecd05da8","id":49994010,"location_subtype":"","month":"2016-07"},{"category":"public-order","location_type":"Force","location":{"latitude":"51.514955","street":{"id":957658,"name":"On or near Eastbourne Avenue"},"longitude":"-0.262921"},"context":"","outcome_status":{"category":"Investigation complete; no suspect identified","date":"2016-07"},"persistent_id":"7d51ff48afe689f3387170d944a2dce57f33296e5c0bc4b33e8b319622df9d13","id":49955952,"location_subtype":"","month":"2016-07"},{"category":"public-order","location_type":"Force","location":{"latitude":"51.509226","street":{"id":957846,"name":"On or near Lexden Road"},"longitude":"-0.274480"},"context":"","outcome_status":{"category":"Investigation complete; no suspect identified","date":"2016-09"},"persistent_id":"6972dd117f52c4c5fc18335484076b609dba61d9e2d86b131fcba4c161954794","id":50005707,"location_subtype":"","month":"2016-07"},{"category":"public-order","location_type":"Force","location":{"latitude":"51.514144","street":{"id":957823,"name":"On or near Twyford Avenue"},"longitude":"-0.282365"},"context":"","outcome_status":{"category":"Investigation complete; no suspect identified","date":"2017-01"},"persistent_id":"44cf7b74e99d2039b625b1cd32e1374ead82488749e83231c5b6f17268816719","id":49960487,"location_subtype":"","month":"2016-07"},{"category":"public-order","location_type":"Force","location":{"latitude":"51.515934","street":{"id":957668,"name":"On or near Supermarket"},"longitude":"-0.267740"},"context":"","outcome_status":{"category":"Offender fined","date":"2016-08"},"persistent_id":"27aca862fef6e7ca33646f7e101c7e9569d1ebc8a9669e8a72cac8148c10cb5b","id":49982824,"location_subtype":"","month":"2016-07"},{"category":"public-order","location_type":"Force","location":{"latitude":"51.508396","street":{"id":957764,"name":"On or near Burlington Mews"},"longitude":"-0.265764"},"context":"","outcome_status":{"category":"Status update unavailable","date":"2016-11"},"persistent_id":"3430bc196def5e116241cddba8dfcdb76c69df58600def0ead30101d8a5fd5a0","id":49983499,"location_subtype":"","month":"2016-07"},{"category":"public-order","location_type":"Force","location":{"latitude":"51.507591","street":{"id":957767,"name":"On or near Alfred Road"},"longitude":"-0.266011"},"context":"","outcome_status":{"category":"Investigation complete; no suspect identified","date":"2016-08"},"persistent_id":"35fcb2e37c0344220993094696c4243dad6513297a8f336eff09e95c4cdd5c49","id":49994857,"location_subtype":"","month":"2016-07"},{"category":"public-order","location_type":"Force","location":{"latitude":"51.508396","street":{"id":957764,"name":"On or near Burlington Mews"},"longitude":"-0.265764"},"context":"","outcome_status":{"category":"Status update unavailable","date":"2016-11"},"persistent_id":"3430bc196def5e116241cddba8dfcdb76c69df58600def0ead30101d8a5fd5a0","id":49983500,"location_subtype":"","month":"2016-07"},{"category":"public-order","location_type":"Force","location":{"latitude":"51.517713","street":{"id":957683,"name":"On or near Western Avenue"},"longitude":"-0.261576"},"context":"","outcome_status":{"category":"Investigation complete; no suspect identified","date":"2016-08"},"persistent_id":"d91be9b26e0e800a868e1ff1adc88ab0bdb4da8756737f49b04d176702151cb0","id":49993803,"location_subtype":"","month":"2016-07"},{"category":"public-order","location_type":"Force","location":{"latitude":"51.514857","street":{"id":957656,"name":"On or near Essex Road"},"longitude":"-0.270318"},"context":"","outcome_status":{"category":"Investigation complete; no suspect identified","date":"2016-11"},"persistent_id":"21bd12f1a7e2e50c6e45bfbdadabd9d9ea0034fd5e268860eebdd409a8fbc0af","id":50002308,"location_subtype":"","month":"2016-07"},{"category":"public-order","location_type":"Force","location":{"latitude":"51.520127","street":{"id":957678,"name":"On or near Cecil Road"},"longitude":"-0.268533"},"context":"","outcome_status":{"category":"Investigation complete; no suspect identified","date":"2016-07"},"persistent_id":"af018bda5ffde9653c2b8809ccc4e3722bf1580821852f5445db89df56194255","id":49980015,"location_subtype":"","month":"2016-07"},{"category":"public-order","location_type":"Force","location":{"latitude":"51.509445","street":{"id":957750,"name":"On or near Myrtle Road"},"longitude":"-0.265522"},"context":"","outcome_status":{"category":"Court result unavailable","date":"2017-02"},"persistent_id":"35ec1733c4663290d41884f94bbc6264cf78cab2ee8fe7d8e17d0a7b8121391d","id":50007025,"location_subtype":"","month":"2016-07"},{"category":"public-order","location_type":"Force","location":{"latitude":"51.507552","street":{"id":952231,"name":"On or near High Street"},"longitude":"-0.272554"},"context":"","outcome_status":{"category":"Investigation complete; no suspect identified","date":"2016-08"},"persistent_id":"148d87cba4bd931898e0b78a832c9df8a1a113df776992a59d7a5e318b71ac49","id":49986088,"location_subtype":"","month":"2016-07"},{"category":"public-order","location_type":"Force","location":{"latitude":"51.508907","street":{"id":957747,"name":"On or near Rectory Road"},"longitude":"-0.272316"},"context":"","outcome_status":{"category":"Court result unavailable","date":"2017-02"},"persistent_id":"b02233fa568ac9c3eb364bcd3fb229746e0e97d329c0b0d12fc64f5d53b44bc7","id":50017566,"location_subtype":"","month":"2016-07"},{"category":"public-order","location_type":"Force","location":{"latitude":"51.516770","street":{"id":957653,"name":"On or near Friary Park Court"},"longitude":"-0.265907"},"context":"","outcome_status":{"category":"Investigation complete; no suspect identified","date":"2016-12"},"persistent_id":"9c599fe0479a13a22f243723626f6c3442af8d71a6062239224f41c31e2deb49","id":50017571,"location_subtype":"","month":"2016-07"},{"category":"public-order","location_type":"Force","location":{"latitude":"51.507591","street":{"id":957767,"name":"On or near Alfred Road"},"longitude":"-0.266011"},"context":"","outcome_status":{"category":"Investigation complete; no suspect identified","date":"2016-08"},"persistent_id":"21232ab33c4f241ed72c8c8c2fdc310cd0b67722ba797b145a96047517cd0c4e","id":49988660,"location_subtype":"","month":"2016-07"},{"category":"public-order","location_type":"Force","location":{"latitude":"51.507552","street":{"id":952231,"name":"On or near High Street"},"longitude":"-0.272554"},"context":"","outcome_status":{"category":"Status update unavailable","date":"2016-11"},"persistent_id":"adfc1cea2443a927faa61d858c3c3f894621d0e04800356924983833d81115c6","id":50015876,"location_subtype":"","month":"2016-07"},{"category":"public-order","location_type":"Force","location":{"latitude":"51.507639","street":{"id":957752,"name":"On or near Market Place"},"longitude":"-0.271153"},"context":"","outcome_status":{"category":"Investigation complete; no suspect identified","date":"2016-08"},"persistent_id":"bb8f7eebcccc74e813760fe1017148971b422c0f4e73938e912d84f6ed789444","id":50006969,"location_subtype":"","month":"2016-07"},{"category":"public-order","location_type":"Force","location":{"latitude":"51.507552","street":{"id":952231,"name":"On or near High Street"},"longitude":"-0.272554"},"context":"","outcome_status":{"category":"Investigation complete; no suspect identified","date":"2017-01"},"persistent_id":"bd24c89b055d576b7f862ac97e6acba086cfb29b03f7132a2bf71fcb210774c9","id":49982047,"location_subtype":"","month":"2016-07"},{"category":"public-order","location_type":"Force","location":{"latitude":"51.514144","street":{"id":957823,"name":"On or near Twyford Avenue"},"longitude":"-0.282365"},"context":"","outcome_status":{"category":"Investigation complete; no suspect identified","date":"2016-07"},"persistent_id":"5e7b808acf6c026a9d1e0bdf896023deb89324bae7cbfab7f91037535785bb37","id":49995551,"location_subtype":"","month":"2016-07"},{"category":"public-order","location_type":"Force","location":{"latitude":"51.506982","street":{"id":952227,"name":"On or near Locarno Road"},"longitude":"-0.267446"},"context":"","outcome_status":{"category":"Investigation complete; no suspect identified","date":"2016-08"},"persistent_id":"92fbc199347afc1f233faa5cde69da6a94b37290ff715fa24a5d484d3713a20f","id":49993753,"location_subtype":"","month":"2016-07"},{"category":"public-order","location_type":"Force","location":{"latitude":"51.508907","street":{"id":957747,"name":"On or near Rectory Road"},"longitude":"-0.272316"},"context":"","outcome_status":{"category":"Offender fined","date":"2016-07"},"persistent_id":"b8b8b2b7c42a2d03c5be0c4be0ec5b50161837bf769a85a5e7dd64063fce54ca","id":49977877,"location_subtype":"","month":"2016-07"},{"category":"public-order","location_type":"Force","location":{"latitude":"51.507823","street":{"id":957754,"name":"On or near Hooper's Mews"},"longitude":"-0.270786"},"context":"","outcome_status":{"category":"Investigation complete; no suspect identified","date":"2016-10"},"persistent_id":"e2d0341c1a9ffb7c5f9bd382fe7638d65aff70fc20fd653fd55d1aea2c0abb53","id":49977702,"location_subtype":"","month":"2016-07"},{"category":"public-order","location_type":"Force","location":{"latitude":"51.509288","street":{"id":957745,"name":"On or near Steyne Road"},"longitude":"-0.273152"},"context":"","outcome_status":{"category":"Investigation complete; no suspect identified","date":"2016-08"},"persistent_id":"59a22b08e98427cf706fb7f7b27ab8bfa3ec6a927391e9e775c318a71d6648a6","id":49995454,"location_subtype":"","month":"2016-07"},{"category":"robbery","location_type":"Force","location":{"latitude":"51.520635","street":{"id":957837,"name":"On or near Walton Gardens"},"longitude":"-0.274308"},"context":"","outcome_status":{"category":"Investigation complete; no suspect identified","date":"2016-10"},"persistent_id":"1eaed253dcb87074f87c2c828a83839125bda88d611d8c3791e466f57bc47fc6","id":49963543,"location_subtype":"","month":"2016-07"},{"category":"robbery","location_type":"Force","location":{"latitude":"51.510072","street":{"id":957744,"name":"On or near Stuart Road"},"longitude":"-0.270859"},"context":"","outcome_status":{"category":"Investigation complete; no suspect identified","date":"2016-09"},"persistent_id":"183bf70a781ba59b8e285ea1d0efe810e89e44439a1cc123d2d6b077c03fd6d0","id":50018366,"location_subtype":"","month":"2016-07"},{"category":"robbery","location_type":"Force","location":{"latitude":"51.507828","street":{"id":957742,"name":"On or near Parking Area"},"longitude":"-0.270512"},"context":"","outcome_status":{"category":"Investigation complete; no suspect identified","date":"2016-09"},"persistent_id":"dea98d3edb3d8e5f251b111417ed2c838979e803aca0a125f188264041a0a79b","id":49991190,"location_subtype":"","month":"2016-07"},{"category":"robbery","location_type":"Force","location":{"latitude":"51.513472","street":{"id":957692,"name":"On or near St Dunstans Avenue"},"longitude":"-0.261795"},"context":"","outcome_status":{"category":"Investigation complete; no suspect identified","date":"2016-07"},"persistent_id":"efdf62b30b4e60e2eada37385e982b17807756fc0181c83cb7b527bdc100c31e","id":49974509,"location_subtype":"","month":"2016-07"},{"category":"shoplifting","location_type":"Force","location":{"latitude":"51.508907","street":{"id":957747,"name":"On or near Rectory Road"},"longitude":"-0.272316"},"context":"","outcome_status":{"category":"Investigation complete; no suspect identified","date":"2016-07"},"persistent_id":"24dc7a9f73f4634c38abd00e36647646404d40c34767e88f059e373bcb0312f3","id":49993632,"location_subtype":"","month":"2016-07"},{"category":"shoplifting","location_type":"Force","location":{"latitude":"51.508907","street":{"id":957747,"name":"On or near Rectory Road"},"longitude":"-0.272316"},"context":"","outcome_status":{"category":"Offender sent to prison","date":"2016-07"},"persistent_id":"2a07b615e233772e2e9b25ea41804777fb7d91feb34f3acb37a4012282eeb33f","id":49983541,"location_subtype":"","month":"2016-07"},{"category":"shoplifting","location_type":"Force","location":{"latitude":"51.507431","street":{"id":952250,"name":"On or near Shopping Area"},"longitude":"-0.269821"},"context":"","outcome_status":{"category":"Investigation complete; no suspect identified","date":"2016-08"},"persistent_id":"93a7cdb4419a23472be682d16bd9b0748c7bfbbeb07e4f9e92c4318d2e07cfd9","id":49956476,"location_subtype":"","month":"2016-07"},{"category":"shoplifting","location_type":"Force","location":{"latitude":"51.508907","street":{"id":957747,"name":"On or near Rectory Road"},"longitude":"-0.272316"},"context":"","outcome_status":{"category":"Status update unavailable","date":"2016-11"},"persistent_id":"0efb47d6099988738f3a09ea440a3b350edc86739d06d54e5c3b52d116e1ec0e","id":49991880,"location_subtype":"","month":"2016-07"},{"category":"shoplifting","location_type":"Force","location":{"latitude":"51.508907","street":{"id":957747,"name":"On or near Rectory Road"},"longitude":"-0.272316"},"context":"","outcome_status":{"category":"Investigation complete; no suspect identified","date":"2016-08"},"persistent_id":"ca5409fb8b7cb2dd92e78806ee553cdd288599a2935a0a8be134737a52e5a8ec","id":50012104,"location_subtype":"","month":"2016-07"},{"category":"shoplifting","location_type":"Force","location":{"latitude":"51.508907","street":{"id":957747,"name":"On or near Rectory Road"},"longitude":"-0.272316"},"context":"","outcome_status":{"category":"Status update unavailable","date":"2016-11"},"persistent_id":"f24b8d85d9c61240853ed7a85552365f1cd0ba5e7e3ccb9c7fe83ecfa4d7ffbd","id":50012109,"location_subtype":"","month":"2016-07"},{"category":"shoplifting","location_type":"Force","location":{"latitude":"51.507431","street":{"id":952250,"name":"On or near Shopping Area"},"longitude":"-0.269821"},"context":"","outcome_status":{"category":"Investigation complete; no suspect identified","date":"2016-07"},"persistent_id":"4cfd82ded950c7dbd3f5a3d4118207e37046b86a5623955e848b68a8ee2801bd","id":49980815,"location_subtype":"","month":"2016-07"},{"category":"shoplifting","location_type":"Force","location":{"latitude":"51.508907","street":{"id":957747,"name":"On or near Rectory Road"},"longitude":"-0.272316"},"context":"","outcome_status":{"category":"Offender given conditional discharge","date":"2016-09"},"persistent_id":"512f78797e263f323b4a7b0131763ca10ca4031746b90b928839748ad191dfd5","id":49989205,"location_subtype":"","month":"2016-07"},{"category":"shoplifting","location_type":"Force","location":{"latitude":"51.508907","street":{"id":957747,"name":"On or near Rectory Road"},"longitude":"-0.272316"},"context":"","outcome_status":{"category":"Offender given penalty notice","date":"2016-07"},"persistent_id":"25fcabb50400c18e349c332a14e1514014666d17a0061e617ca3cb401f7bcd8b","id":49983182,"location_subtype":"","month":"2016-07"},{"category":"theft-from-the-person","location_type":"Force","location":{"latitude":"51.507552","street":{"id":952231,"name":"On or near High Street"},"longitude":"-0.272554"},"context":"","outcome_status":{"category":"Status update unavailable","date":"2016-11"},"persistent_id":"858e4fbed1ab4e011bc70d5b8c1104c85eea7491f8278b98ec1640fab274accf","id":49979583,"location_subtype":"","month":"2016-07"},{"category":"theft-from-the-person","location_type":"Force","location":{"latitude":"51.513255","street":{"id":957666,"name":"On or near Acacia Road"},"longitude":"-0.267770"},"context":"","outcome_status":{"category":"Investigation complete; no suspect identified","date":"2016-08"},"persistent_id":"16ed157c2290f09a15a382e5fa48885e0e16167552f438d39556b9489342587d","id":50005428,"location_subtype":"","month":"2016-07"},{"category":"vehicle-crime","location_type":"Force","location":{"latitude":"51.513636","street":{"id":957639,"name":"On or near Shalimar Gardens"},"longitude":"-0.271070"},"context":"","outcome_status":{"category":"Status update unavailable","date":"2016-11"},"persistent_id":"e2830ea36f90a8fb8ed6f74bbf2ad80a0dc4cb38ee4c531a217f316e53a3dad4","id":49956260,"location_subtype":"","month":"2016-07"},{"category":"vehicle-crime","location_type":"Force","location":{"latitude":"51.511682","street":{"id":957660,"name":"On or near Cumberland Park"},"longitude":"-0.265423"},"context":"","outcome_status":{"category":"Status update unavailable","date":"2016-11"},"persistent_id":"54a2b0d9e8e8f7055063f5c0cf4b61a7a9e62ac1ec95aec27b5550163ec4612f","id":49997330,"location_subtype":"","month":"2016-07"},{"category":"vehicle-crime","location_type":"Force","location":{"latitude":"51.515242","street":{"id":957633,"name":"On or near Westbourne Avenue"},"longitude":"-0.264092"},"context":"","outcome_status":{"category":"Status update unavailable","date":"2016-11"},"persistent_id":"bced04b4fbf46a8b0710f41eb1ebcca4f483dd2516a80a9ee5f3ccea8c7c6a58","id":50008807,"location_subtype":"","month":"2016-07"},{"category":"vehicle-crime","location_type":"Force","location":{"latitude":"51.515934","street":{"id":957668,"name":"On or near Supermarket"},"longitude":"-0.267740"},"context":"","outcome_status":{"category":"Investigation complete; no suspect identified","date":"2016-09"},"persistent_id":"37b973a2f719a52e146a31cf70289e1f5ee465c862907a3a3f194bd14894c1ab","id":49976601,"location_subtype":"","month":"2016-07"},{"category":"vehicle-crime","location_type":"Force","location":{"latitude":"51.513984","street":{"id":957650,"name":"On or near Grafton Road"},"longitude":"-0.266618"},"context":"","outcome_status":{"category":"Status update unavailable","date":"2016-11"},"persistent_id":"f576926ebfe1ebd2f09a91bdb23abfe9bea022aa6d78eeeb4f62d7fe75dda69a","id":50016822,"location_subtype":"","month":"2016-07"},{"category":"vehicle-crime","location_type":"Force","location":{"latitude":"51.513446","street":{"id":957664,"name":"On or near Baldwyn Gardens"},"longitude":"-0.264866"},"context":"","outcome_status":{"category":"Status update unavailable","date":"2016-11"},"persistent_id":"b88038cb8bc750ab6a56e43f50998396ee533127e67fc76056009fec3b7d76d6","id":49980619,"location_subtype":"","month":"2016-07"},{"category":"vehicle-crime","location_type":"Force","location":{"latitude":"51.507823","street":{"id":957754,"name":"On or near Hooper's Mews"},"longitude":"-0.270786"},"context":"","outcome_status":{"category":"Status update unavailable","date":"2016-11"},"persistent_id":"d24a6528ad8c012673def112b4b5cb4ffcde3adb8d5ca7834fbcd896df4e542a","id":50008759,"location_subtype":"","month":"2016-07"},{"category":"vehicle-crime","location_type":"Force","location":{"latitude":"51.514246","street":{"id":957814,"name":"On or near Mayfield Road"},"longitude":"-0.277677"},"context":"","outcome_status":{"category":"Status update unavailable","date":"2016-11"},"persistent_id":"adb10a770b8b986e18e6c921e2b6c1538c0fa13dd1bd1b298f7ded9b91862ed1","id":50003045,"location_subtype":"","month":"2016-07"},{"category":"vehicle-crime","location_type":"Force","location":{"latitude":"51.514504","street":{"id":957663,"name":"On or near Birkbeck Avenue"},"longitude":"-0.267737"},"context":"","outcome_status":{"category":"Investigation complete; no suspect identified","date":"2016-07"},"persistent_id":"b26f6d939e234bc591f60c5759703380aa03eaa12ebd022afa04d0bfe4eb7c2b","id":50003870,"location_subtype":"","month":"2016-07"},{"category":"vehicle-crime","location_type":"Force","location":{"latitude":"51.513945","street":{"id":957646,"name":"On or near Horn Lane"},"longitude":"-0.269473"},"context":"","outcome_status":{"category":"Status update unavailable","date":"2016-11"},"persistent_id":"bef39e1526fb8907d5d3bcb00a2c6c479b090550fb030239b717bce97e9aa837","id":49989708,"location_subtype":"","month":"2016-07"},{"category":"vehicle-crime","location_type":"Force","location":{"latitude":"51.518843","street":{"id":957838,"name":"On or near The Link"},"longitude":"-0.277172"},"context":"","outcome_status":{"category":"Investigation complete; no suspect identified","date":"2016-07"},"persistent_id":"eba9c4c30c7fa2a00e9f4598aadc988f39fd26213900469eeee649c59fee6b4a","id":49998979,"location_subtype":"","month":"2016-07"},{"category":"vehicle-crime","location_type":"Force","location":{"latitude":"51.507591","street":{"id":957767,"name":"On or near Alfred Road"},"longitude":"-0.266011"},"context":"","outcome_status":{"category":"Investigation complete; no suspect identified","date":"2017-02"},"persistent_id":"e9e263370f488a21d5f41156a359644788ba3e9c791238758522e107a8d2ecac","id":50005709,"location_subtype":"","month":"2016-07"},{"category":"vehicle-crime","location_type":"Force","location":{"latitude":"51.509680","street":{"id":957757,"name":"On or near Goldsmith Road"},"longitude":"-0.263193"},"context":"","outcome_status":{"category":"Investigation complete; no suspect identified","date":"2016-09"},"persistent_id":"4fbe133fb3c768104f0b2a98d2d79406b912856d8e19295499d5ad818b86fa96","id":49977926,"location_subtype":"","month":"2016-07"},{"category":"violent-crime","location_type":"Force","location":{"latitude":"51.508907","street":{"id":957747,"name":"On or near Rectory Road"},"longitude":"-0.272316"},"context":"","outcome_status":{"category":"Status update unavailable","date":"2016-11"},"persistent_id":"b02233fa568ac9c3eb364bcd3fb229746e0e97d329c0b0d12fc64f5d53b44bc7","id":50017565,"location_subtype":"","month":"2016-07"},{"category":"violent-crime","location_type":"Force","location":{"latitude":"51.514899","street":{"id":957667,"name":"On or near Petrol Station"},"longitude":"-0.268255"},"context":"","outcome_status":{"category":"Offender given a caution","date":"2016-09"},"persistent_id":"90a65f4abba59347ed9ad96006a2a6417a921ed7d9e5003f5d7ea6a2907c1c9a","id":49983891,"location_subtype":"","month":"2016-07"},{"category":"violent-crime","location_type":"Force","location":{"latitude":"51.516021","street":{"id":957657,"name":"On or near Emanuel Avenue"},"longitude":"-0.265100"},"context":"","outcome_status":{"category":"Investigation complete; no suspect identified","date":"2016-10"},"persistent_id":"5bac9d7bbbc597183c26ba03a5a51c576ad70ba9702908aaf6efb91f402c3686","id":49983892,"location_subtype":"","month":"2016-07"},{"category":"violent-crime","location_type":"Force","location":{"latitude":"51.508907","street":{"id":957747,"name":"On or near Rectory Road"},"longitude":"-0.272316"},"context":"","outcome_status":{"category":"Investigation complete; no suspect identified","date":"2016-10"},"persistent_id":"618d3b60ab7d8e85cfe579f2ef6c57ed17b0fc2d17ec344acba2741c9d34e067","id":50020026,"location_subtype":"","month":"2016-07"},{"category":"violent-crime","location_type":"Force","location":{"latitude":"51.509788","street":{"id":957753,"name":"On or near Horn Lane"},"longitude":"-0.271720"},"context":"","outcome_status":{"category":"Investigation complete; no suspect identified","date":"2016-07"},"persistent_id":"37edbf480bccc3400ef338a90d4350808c3ed94453aaa924d86bf12e69498741","id":49983723,"location_subtype":"","month":"2016-07"},{"category":"violent-crime","location_type":"Force","location":{"latitude":"51.507639","street":{"id":957752,"name":"On or near Market Place"},"longitude":"-0.271153"},"context":"","outcome_status":{"category":"Investigation complete; no suspect identified","date":"2016-11"},"persistent_id":"cf26bf8ba9b9fa47d1babc2d97a1b28ecc0a9e6bd3bf9624f951b8733311445b","id":49988481,"location_subtype":"","month":"2016-07"},{"category":"violent-crime","location_type":"Force","location":{"latitude":"51.514311","street":{"id":957693,"name":"On or near St Dunstan's Avenue"},"longitude":"-0.261345"},"context":"","outcome_status":{"category":"Offender given a caution","date":"2016-07"},"persistent_id":"7cd19361ecd73112a4ed97e9824930d0f207a734418b64d721db29524a60e06b","id":49997461,"location_subtype":"","month":"2016-07"},{"category":"violent-crime","location_type":"Force","location":{"latitude":"51.510072","street":{"id":957744,"name":"On or near Stuart Road"},"longitude":"-0.270859"},"context":"","outcome_status":{"category":"Investigation complete; no suspect identified","date":"2016-09"},"persistent_id":"1a90a29344b0922e3d42edb4b6698c56ceeb6b8238e24573d073d72c21e02c49","id":49958221,"location_subtype":"","month":"2016-07"},{"category":"violent-crime","location_type":"Force","location":{"latitude":"51.506921","street":{"id":952232,"name":"On or near High Street"},"longitude":"-0.269999"},"context":"","outcome_status":{"category":"Investigation complete; no suspect identified","date":"2016-10"},"persistent_id":"9bf75be4c4836e3caf3d1f323a0b0fdcdf1491ba096decb51a7a141690d32fb8","id":50004171,"location_subtype":"","month":"2016-07"},{"category":"violent-crime","location_type":"Force","location":{"latitude":"51.509597","street":{"id":957746,"name":"On or near Spencer Road"},"longitude":"-0.267894"},"context":"","outcome_status":{"category":"Offender given a caution","date":"2016-07"},"persistent_id":"40989214d6155791714b31c4d774e920522c865a3faa199d36a2398880ec057b","id":50004061,"location_subtype":"","month":"2016-07"},{"category":"violent-crime","location_type":"Force","location":{"latitude":"51.521401","street":{"id":959769,"name":"On or near Park View"},"longitude":"-0.268960"},"context":"","outcome_status":{"category":"Investigation complete; no suspect identified","date":"2016-08"},"persistent_id":"66d0e870b372838a255fd5bbcf2a6db395a003b3caef32733296f1a378c44c6f","id":49983701,"location_subtype":"","month":"2016-07"},{"category":"violent-crime","location_type":"Force","location":{"latitude":"51.514144","street":{"id":957823,"name":"On or near Twyford Avenue"},"longitude":"-0.282365"},"context":"","outcome_status":{"category":"Investigation complete; no suspect identified","date":"2016-07"},"persistent_id":"babfa166da9daf5ac97b0a2be5f5e63e128183a524325a1add90dea3e9b96523","id":50007904,"location_subtype":"","month":"2016-07"},{"category":"violent-crime","location_type":"Force","location":{"latitude":"51.513136","street":{"id":957816,"name":"On or near Creswick Road"},"longitude":"-0.274332"},"context":"","outcome_status":{"category":"Status update unavailable","date":"2016-11"},"persistent_id":"26a9be70ade83dc23d9347df314c00d0b88cae1531377828473707b8c79ae8ed","id":49961334,"location_subtype":"","month":"2016-07"},{"category":"violent-crime","location_type":"Force","location":{"latitude":"51.508524","street":{"id":957762,"name":"On or near Churchfield Road"},"longitude":"-0.267128"},"context":"","outcome_status":{"category":"Investigation complete; no suspect identified","date":"2017-06"},"persistent_id":"37a092512986e68e2d0fe3dc68b80207567d8da523c59b066332b2d52b7917a2","id":49993875,"location_subtype":"","month":"2016-07"},{"category":"violent-crime","location_type":"Force","location":{"latitude":"51.509341","street":{"id":957748,"name":"On or near Newburgh Road"},"longitude":"-0.269460"},"context":"","outcome_status":{"category":"Investigation complete; no suspect identified","date":"2016-09"},"persistent_id":"1b539338df5c3553c0441dab0ebc1db59750368c29d4105d9d489ef86b272a36","id":49980989,"location_subtype":"","month":"2016-07"},{"category":"violent-crime","location_type":"Force","location":{"latitude":"51.506921","street":{"id":952232,"name":"On or near High Street"},"longitude":"-0.269999"},"context":"","outcome_status":{"category":"Investigation complete; no suspect identified","date":"2016-07"},"persistent_id":"14e5a14ddbf5ca70c770cd86c22f1b6f44ddfda8bb84c4525fb420b537533c0b","id":49988092,"location_subtype":"","month":"2016-07"},{"category":"violent-crime","location_type":"Force","location":{"latitude":"51.509226","street":{"id":957846,"name":"On or near Lexden Road"},"longitude":"-0.274480"},"context":"","outcome_status":{"category":"Investigation complete; no suspect identified","date":"2016-09"},"persistent_id":"326837723a0c192e8a3bce08c4156622bc13214ce5ebbfac3b898eb9f6eb2ce7","id":49962947,"location_subtype":"","month":"2016-07"},{"category":"violent-crime","location_type":"Force","location":{"latitude":"51.507717","street":{"id":957766,"name":"On or near Birkbeck Road"},"longitude":"-0.264205"},"context":"","outcome_status":{"category":"Offender given a caution","date":"2016-07"},"persistent_id":"80d563b0a4514bc2810fc9bc104774928726d9850d9967fe512b0a1e08e4898d","id":49963772,"location_subtype":"","month":"2016-07"},{"category":"violent-crime","location_type":"Force","location":{"latitude":"51.509788","street":{"id":957753,"name":"On or near Horn Lane"},"longitude":"-0.271720"},"context":"","outcome_status":{"category":"Investigation complete; no suspect identified","date":"2017-01"},"persistent_id":"7399bc7a1bf9bd624a9efa604a442b399459500437c807cd9b3c792a4f908b41","id":49980558,"location_subtype":"","month":"2016-07"},{"category":"violent-crime","location_type":"Force","location":{"latitude":"51.510209","street":{"id":957741,"name":"On or near Shakespeare Road"},"longitude":"-0.265537"},"context":"","outcome_status":{"category":"Investigation complete; no suspect identified","date":"2017-02"},"persistent_id":"9509331b03afd5da49b6e94f2dd98553d05ffda3dc452b5e79b40f78fe30e6e3","id":49980663,"location_subtype":"","month":"2016-07"},{"category":"violent-crime","location_type":"Force","location":{"latitude":"51.513636","street":{"id":957639,"name":"On or near Shalimar Gardens"},"longitude":"-0.271070"},"context":"","outcome_status":{"category":"Investigation complete; no suspect identified","date":"2016-08"},"persistent_id":"93b67dccfcc73fdb138841b153e02c828d5eb47e2430dd4072426e4ddf6fbb3e","id":49958911,"location_subtype":"","month":"2016-07"},{"category":"violent-crime","location_type":"Force","location":{"latitude":"51.512062","street":{"id":957643,"name":"On or near Maldon Road"},"longitude":"-0.266792"},"context":"","outcome_status":{"category":"Investigation complete; no suspect identified","date":"2016-09"},"persistent_id":"1e80e4ae9a09abc48ca8058b32d2a5cc97f8feff57b93fce6c18e32e5e3ad6df","id":49980360,"location_subtype":"","month":"2016-07"},{"category":"violent-crime","location_type":"Force","location":{"latitude":"51.508907","street":{"id":957747,"name":"On or near Rectory Road"},"longitude":"-0.272316"},"context":"","outcome_status":{"category":"Investigation complete; no suspect identified","date":"2016-09"},"persistent_id":"928f712dbdccf4eed7684cfb333a9c7f422acb386fbb10f4234b0d487f9b1ddb","id":49997868,"location_subtype":"","month":"2016-07"},{"category":"violent-crime","location_type":"Force","location":{"latitude":"51.515934","street":{"id":957668,"name":"On or near Supermarket"},"longitude":"-0.267740"},"context":"","outcome_status":{"category":"Status update unavailable","date":"2016-11"},"persistent_id":"0d44be1d2d68048f8586ebcc06e5fb36b25564bfb633c97b80effd9a4f20110f","id":50004960,"location_subtype":"","month":"2016-07"},{"category":"violent-crime","location_type":"Force","location":{"latitude":"51.509341","street":{"id":957748,"name":"On or near Newburgh Road"},"longitude":"-0.269460"},"context":"","outcome_status":{"category":"Investigation complete; no suspect identified","date":"2016-08"},"persistent_id":"489867c1d22e5e011a5486b8795c399e6d1c2763c21efcb8bada88bb79c32da9","id":49980008,"location_subtype":"","month":"2016-07"},{"category":"violent-crime","location_type":"Force","location":{"latitude":"51.516770","street":{"id":957653,"name":"On or near Friary Park Court"},"longitude":"-0.265907"},"context":"","outcome_status":{"category":"Investigation complete; no suspect identified","date":"2016-08"},"persistent_id":"5bef4fd775394fd024f879735eb5dae6151df1fa0c510257dbab86a52d94a95a","id":49993832,"location_subtype":"","month":"2016-07"},{"category":"violent-crime","location_type":"Force","location":{"latitude":"51.515934","street":{"id":957668,"name":"On or near Supermarket"},"longitude":"-0.267740"},"context":"","outcome_status":{"category":"Investigation complete; no suspect identified","date":"2016-08"},"persistent_id":"95e564a8c35bda336acee00e927ecdb39268d7ce6f9b47c31bc62445601600ff","id":49993960,"location_subtype":"","month":"2016-07"},{"category":"violent-crime","location_type":"Force","location":{"latitude":"51.507639","street":{"id":957752,"name":"On or near Market Place"},"longitude":"-0.271153"},"context":"","outcome_status":{"category":"Investigation complete; no suspect identified","date":"2016-08"},"persistent_id":"f2cc504b3de910c4536e7c7493d7cb6f56baf4eb1ad0cbecf47e4613b2838919","id":49980936,"location_subtype":"","month":"2016-07"},{"category":"violent-crime","location_type":"Force","location":{"latitude":"51.507823","street":{"id":957754,"name":"On or near Hooper's Mews"},"longitude":"-0.270786"},"context":"","outcome_status":{"category":"Investigation complete; no suspect identified","date":"2016-08"},"persistent_id":"62e4f68fb4022c7a31244c6d1705398293a1f15c268b1f76bf795f463aacbbf4","id":49991499,"location_subtype":"","month":"2016-07"},{"category":"violent-crime","location_type":"Force","location":{"latitude":"51.508396","street":{"id":957764,"name":"On or near Burlington Mews"},"longitude":"-0.265764"},"context":"","outcome_status":{"category":"Investigation complete; no suspect identified","date":"2016-08"},"persistent_id":"8f8d6cf5f3de8ff1616a617d503b8cf64b201cfb3a1b75d4f14c94cdfbaa8175","id":50009236,"location_subtype":"","month":"2016-07"},{"category":"violent-crime","location_type":"Force","location":{"latitude":"51.507639","street":{"id":957752,"name":"On or near Market Place"},"longitude":"-0.271153"},"context":"","outcome_status":{"category":"Investigation complete; no suspect identified","date":"2016-08"},"persistent_id":"f5ef0e094d8065a97889996ca0371fde69cf472b4b08844e9fdaafdad3b8636c","id":49990411,"location_subtype":"","month":"2016-07"},{"category":"violent-crime","location_type":"Force","location":{"latitude":"51.509445","street":{"id":957750,"name":"On or near Myrtle Road"},"longitude":"-0.265522"},"context":"","outcome_status":{"category":"Status update unavailable","date":"2016-11"},"persistent_id":"7ef0c44eca68ec01875b2ed59b77e8a9c3c166500bbbc4ac4db4b504a97bd86c","id":49983202,"location_subtype":"","month":"2016-07"},{"category":"violent-crime","location_type":"Force","location":{"latitude":"51.516946","street":{"id":957645,"name":"On or near Joseph Avenue"},"longitude":"-0.263796"},"context":"","outcome_status":{"category":"Investigation complete; no suspect identified","date":"2016-08"},"persistent_id":"4e7d158e8ce0dfba578646997982c1adfe7b707cf44b1c7d48ea37efac5b67b1","id":49983207,"location_subtype":"","month":"2016-07"},{"category":"violent-crime","location_type":"Force","location":{"latitude":"51.512991","street":{"id":957661,"name":"On or near Crane Avenue"},"longitude":"-0.265157"},"context":"","outcome_status":{"category":"Investigation complete; no suspect identified","date":"2016-11"},"persistent_id":"8cd2aece58a26e60739e8bef8fbf8f838b57fadf2e3d4703fba3305b2e033d80","id":50015039,"location_subtype":"","month":"2016-07"},{"category":"violent-crime","location_type":"Force","location":{"latitude":"51.507717","street":{"id":957766,"name":"On or near Birkbeck Road"},"longitude":"-0.264205"},"context":"","outcome_status":{"category":"Investigation complete; no suspect identified","date":"2016-09"},"persistent_id":"416b13ab9c9596ae342b9cb22abde798a17d54ecfb1244b486b826f032727806","id":49989589,"location_subtype":"","month":"2016-07"},{"category":"violent-crime","location_type":"Force","location":{"latitude":"51.507823","street":{"id":957754,"name":"On or near Hooper's Mews"},"longitude":"-0.270786"},"context":"","outcome_status":{"category":"Investigation complete; no suspect identified","date":"2016-10"},"persistent_id":"fc45316b15b109bda128e19d2d64b2fe630299b978a3b25eaa09b992b1498fe3","id":50016060,"location_subtype":"","month":"2016-07"},{"category":"violent-crime","location_type":"Force","location":{"latitude":"51.508524","street":{"id":957762,"name":"On or near Churchfield Road"},"longitude":"-0.267128"},"context":"","outcome_status":{"category":"Status update unavailable","date":"2016-11"},"persistent_id":"3bf616dab7304288a5b366a7c9f16519e4b480a906ae91a4460afc7eb77faff6","id":49986931,"location_subtype":"","month":"2016-07"},{"category":"violent-crime","location_type":"Force","location":{"latitude":"51.508907","street":{"id":957747,"name":"On or near Rectory Road"},"longitude":"-0.272316"},"context":"","outcome_status":{"category":"Status update unavailable","date":"2016-11"},"persistent_id":"9c8ab9c46a763fe6ebe44c6b802e965ab033a32fcf059fdc81a3c0f4e8fafc94","id":50017534,"location_subtype":"","month":"2016-07"},{"category":"violent-crime","location_type":"Force","location":{"latitude":"51.508524","street":{"id":957762,"name":"On or near Churchfield Road"},"longitude":"-0.267128"},"context":"","outcome_status":{"category":"Status update unavailable","date":"2016-11"},"persistent_id":"3bf616dab7304288a5b366a7c9f16519e4b480a906ae91a4460afc7eb77faff6","id":49986930,"location_subtype":"","month":"2016-07"}]