[{"category":"anti-social-behaviour","location_type":"Force","location":{"latitude":"51.367751","street":{"id":926294,"name":"On or near Parking Area"},"longitude":"-0.306107"},"context":"","outcome_status":null,"persistent_id":"","id":49932636,"location_subtype":"","month":"2016-07"},{"category":"anti-social-behaviour","location_type":"Force","location":{"latitude":"51.367751","street":{"id":926294,"name":"On or near Parking Area"},"longitude":"-0.306107"},"context":"","outcome_status":null,"persistent_id":"","id":49932635,"location_subtype":"","month":"2016-07"},{"category":"anti-social-behaviour","location_type":"Force","location":{"latitude":"51.367604","street":{"id":926274,"name":"On or near Cricketers Close"},"longitude":"-0.311514"},"context":"","outcome_status":null,"persistent_id":"","id":49932715,"location_subtype":"","month":"2016-07"},{"category":"anti-social-behaviour","location_type":"Force","location":{"latitude":"51.365191","street":{"id":926270,"name":"On or near Woodgate Avenue"},"longitude":"-0.310683"},"context":"","outcome_status":null,"persistent_id":"","id":49932706,"location_subtype":"","month":"2016-07"},{"category":"anti-social-behaviour","location_type":"Force","location":{"latitude":"51.367522","street":{"id":926299,"name":"On or near Bramham Gardens"},"longitude":"-0.308299"},"context":"","outcome_status":null,"persistent_id":"","id":49932678,"location_subtype":"","month":"2016-07"},{"category":"anti-social-behaviour","location_type":"Force","location":{"latitude":"51.366441","street":{"id":926344,"name":"On or near Mount Road"},"longitude":"-0.293930"},"context":"","outcome_status":null,"persistent_id":"","id":49931378,"location_subtype":"","month":"2016-07"},{"category":"anti-social-behaviour","location_type":"Force","location":{"latitude":"51.367266","street":{"id":926355,"name":"On or near Sanger Avenue"},"longitude":"-0.298137"},"context":"","outcome_status":null,"persistent_id":"","id":49931413,"location_subtype":"","month":"2016-07"},{"category":"anti-social-behaviour","location_type":"Force","location":{"latitude":"51.368131","street":{"id":926255,"name":"On or near Clayton Road"},"longitude":"-0.312500"},"context":"","outcome_status":null,"persistent_id":"","id":49932739,"location_subtype":"","month":"2016-07"},{"category":"anti-social-behaviour","location_type":"Force","location":{"latitude":"51.365053","street":{"id":926266,"name":"On or near Holsworthy Way"},"longitude":"-0.314869"},"context":"","outcome_status":null,"persistent_id":"","id":49932756,"location_subtype":"","month":"2016-07"},{"category":"anti-social-behaviour","location_type":"Force","location":{"latitude":"51.367751","street":{"id":926294,"name":"On or near Parking Area"},"longitude":"-0.306107"},"context":"","outcome_status":null,"persistent_id":"","id":49932639,"location_subtype":"","month":"2016-07"},{"category":"anti-social-behaviour","location_type":"Force","location":{"latitude":"51.365550","street":{"id":926353,"name":"On or near Buckland Road"},"longitude":"-0.297612"},"context":"","outcome_status":null,"persistent_id":"","id":49931414,"location_subtype":"","month":"2016-07"},{"category":"anti-social-behaviour","location_type":"Force","location":{"latitude":"51.364292","street":{"id":926342,"name":"On or near North Parade"},"longitude":"-0.298909"},"context":"","outcome_status":null,"persistent_id":"","id":49931426,"location_subtype":"","month":"2016-07"},{"category":"anti-social-behaviour","location_type":"Force","location":{"latitude":"51.364529","street":{"id":926291,"name":"On or near Albury Road"},"longitude":"-0.305335"},"context":"","outcome_status":null,"persistent_id":"","id":49931487,"location_subtype":"","month":"2016-07"},{"category":"anti-social-behaviour","location_type":"Force","location":{"latitude":"51.367751","street":{"id":926294,"name":"On or near Parking Area"},"longitude":"-0.306107"},"context":"","outcome_status":null,"persistent_id":"","id":49932638,"location_subtype":"","month":"2016-07"},{"category":"anti-social-behaviour","location_type":"Force","location":{"latitude":"51.367751","street":{"id":926294,"name":"On or near Parking Area"},"longitude":"-0.306107"},"context":"","outcome_status":null,"persistent_id":"","id":49932634,"location_subtype":"","month":"2016-07"},{"category":"anti-social-behaviour","location_type":"Force","location":{"latitude":"51.366964","street":{"id":926356,"name":"On or near Roebuck Road"},"longitude":"-0.289702"},"context":"","outcome_status":null,"persistent_id":"","id":49931338,"location_subtype":"","month":"2016-07"},{"category":"burglary","location_type":"Force","location":{"latitude":"51.364649","street":{"id":926279,"name":"On or near Station Road"},"longitude":"-0.301222"},"context":"","outcome_status":{"category":"Investigation complete; no suspect identified","date":"2016-08"},"persistent_id":"375b4f66274f505011bea70be92374c81236d161b76714c5d65ea2e99763f6c5","id":49956137,"location_subtype":"","month":"2016-07"},{"category":"burglary","location_type":"Force","location":{"latitude":"51.364653","street":{"id":926287,"name":"On or near Hartfield Road"},"longitude":"-0.309554"},"context":"","outcome_status":{"category":"Investigation complete; no suspect identified","date":"2016-08"},"persistent_id":"55b0023547272a2d1fcb2fa3bb15416a03566f5ba054627cb6ca3f24451ee3b8","id":49992654,"location_subtype":"","month":"2016-07"},{"category":"criminal-damage-arson","location_type":"Force","location":{"latitude":"51.367044","street":{"id":926357,"name":"On or near Coutts Avenue"},"longitude":"-0.299539"},"context":"","outcome_status":{"category":"Investigation complete; no suspect identified","date":"2016-08"},"persistent_id":"3e2d215df642af917afca4d3bfd809ed26558b3c5871ee9107a6855f212b34fa","id":49984822,"location_subtype":"","month":"2016-07"},{"category":"criminal-damage-arson","location_type":"Force","location":{"latitude":"51.364529","street":{"id":926291,"name":"On or near Albury Road"},"longitude":"-0.305335"},"context":"","outcome_status":{"category":"Status update unavailable","date":"2016-11"},"persistent_id":"a33e764a2568f8f35bb7327416cb17f502138d94d03028e29db7b2bc1843b72b","id":49992373,"location_subtype":"","month":"2016-07"},{"category":"criminal-damage-arson","location_type":"Force","location":{"latitude":"51.367266","street":{"id":926355,"name":"On or near Sanger Avenue"},"longitude":"-0.298137"},"context":"","outcome_status":{"category":"Status update unavailable","date":"2016-11"},"persistent_id":"e74923c668ccfef4ec012b64044fe42bd26d652cd7de781e73efa534eaf64134","id":49966257,"location_subtype":"","month":"2016-07"},{"category":"criminal-damage-arson","location_type":"Force","location":{"latitude":"51.366391","street":{"id":926285,"name":"On or near Hook Road"},"longitude":"-0.306588"},"context":"","outcome_status":{"category":"Offender given a caution","date":"2016-08"},"persistent_id":"3f5f0190fbe9ab89f2e3df93c6a709b72df1b64fbd57913be37f23454e013bc4","id":49996857,"location_subtype":"","month":"2016-07"},{"category":"criminal-damage-arson","location_type":"Force","location":{"latitude":"51.364051","street":{"id":926288,"name":"On or near Frimley Road"},"longitude":"-0.304635"},"context":"","outcome_status":{"category":"Investigation complete; no suspect identified","date":"2016-08"},"persistent_id":"49eafe94cf8fb73202410a14e7b837a6dd03201473118261aa6962c6dc56f44d","id":49965284,"location_subtype":"","month":"2016-07"},{"category":"criminal-damage-arson","location_type":"Force","location":{"latitude":"51.367746","street":{"id":926276,"name":"On or near Devon Way"},"longitude":"-0.314497"},"context":"","outcome_status":{"category":"Unable to prosecute suspect","date":"2016-08"},"persistent_id":"1eafec89f1754d32b67dbf7864f82cd02b3e52bec9be340255e3612e715d5d91","id":50034880,"location_subtype":"","month":"2016-07"},{"category":"drugs","location_type":"Force","location":{"latitude":"51.371024","street":{"id":926232,"name":"On or near Hunters Road"},"longitude":"-0.301762"},"context":"","outcome_status":{"category":"Local resolution","date":"2016-08"},"persistent_id":"164aae8f4531cc1a4f8adf35e5da8c8927919d3ec513e54450b38f77eac57383","id":49954969,"location_subtype":"","month":"2016-07"},{"category":"drugs","location_type":"Force","location":{"latitude":"51.366028","street":{"id":926360,"name":"On or near Finlays Close"},"longitude":"-0.288458"},"context":"","outcome_status":{"category":"Offender given a drugs possession warning","date":"2016-08"},"persistent_id":"29e5e40088cf637bef341db33cc1b04772b935f4088db1d9b532c05bcff43289","id":49991311,"location_subtype":"","month":"2016-07"},{"category":"drugs","location_type":"Force","location":{"latitude":"51.371024","street":{"id":926232,"name":"On or near Hunters Road"},"longitude":"-0.301762"},"context":"","outcome_status":{"category":"Local resolution","date":"2016-08"},"persistent_id":"3495825c9eb2b69f10dbed72c88e351a3b5c18a630a093817002b7f70f3f580b","id":49959580,"location_subtype":"","month":"2016-07"},{"category":"other-theft","location_type":"Force","location":{"latitude":"51.370624","street":{"id":926237,"name":"On or near Grange Road"},"longitude":"-0.302711"},"context":"","outcome_status":{"category":"Status update unavailable","date":"2016-11"},"persistent_id":"50d4733de39d04e4d2fdc9ff3b26006680dab624dae65e973a38fb66eb156199","id":50014762,"location_subtype":"","month":"2016-07"},{"category":"shoplifting","location_type":"Force","location":{"latitude":"51.364038","street":{"id":926354,"name":"On or near Supermarket"},"longitude":"-0.298774"},"context":"","outcome_status":{"category":"Investigation complete; no suspect identified","date":"2016-11"},"persistent_id":"feea197e4109c17ab145493ef09e2058aed7c2ba2fa0ce683eca8c9181fb7f4e","id":49959245,"location_subtype":"","month":"2016-07"},{"category":"theft-from-the-person","location_type":"Force","location":{"latitude":"51.364038","street":{"id":926354,"name":"On or near Supermarket"},"longitude":"-0.298774"},"context":"","outcome_status":{"category":"Defendant found not guilty","date":"2017-03"},"persistent_id":"efc1b510baa0d1b59746128a25eb137a3acc3ccbf8f2eb5935ad5e70556f9ec1","id":50002434,"location_subtype":"","month":"2016-07"},{"category":"vehicle-crime","location_type":"Force","location":{"latitude":"51.371139","street":{"id":926258,"name":"On or near Sports\/recreation Area"},"longitude":"-0.312849"},"context":"","outcome_status":{"category":"Status update unavailable","date":"2016-11"},"persistent_id":"8521a36478b1535b3221a4eca6ce399e3038f40e3da090c89a99cd244136e6d3","id":49979638,"location_subtype":"","month":"2016-07"},{"category":"vehicle-crime","location_type":"Force","location":{"latitude":"51.364219","street":{"id":926341,"name":"On or near Osborne Way"},"longitude":"-0.298193"},"context":"","outcome_status":{"category":"Investigation complete; no suspect identified","date":"2016-08"},"persistent_id":"3836429c44491364b409cb65749b6a4350d17b7b491e2cb384e385f108df3774","id":49992450,"location_subtype":"","month":"2016-07"},{"category":"vehicle-crime","location_type":"Force","location":{"latitude":"51.369522","street":{"id":926254,"name":"On or near Oaklands Close"},"longitude":"-0.313598"},"context":"","outcome_status":{"category":"Investigation complete; no suspect identified","date":"2016-10"},"persistent_id":"90622b54fe3ed0dcd12be8160223c9c1d620b7997b07222d9091339e1a1ab4eb","id":49967564,"location_subtype":"","month":"2016-07"},{"category":"vehicle-crime","location_type":"Force","location":{"latitude":"51.368374","street":{"id":926219,"name":"On or near St Paul's Close"},"longitude":"-0.307549"},"context":"","outcome_status":{"category":"Status update unavailable","date":"2016-11"},"persistent_id":"b36c0c3800cf94856e1024c61d6526e46817e840231d5fbedb23858e253fdd4f","id":49958953,"location_subtype":"","month":"2016-07"},{"category":"violent-crime","location_type":"Force","location":{"latitude":"51.367044","street":{"id":926357,"name":"On or near Coutts Avenue"},"longitude":"-0.299539"},"context":"","outcome_status":{"category":"Status update unavailable","date":"2016-11"},"persistent_id":"c393b657fb2aea462fa2ad06da9b5b22960cacf0ddd663d3cb148124d4d27196","id":49956666,"location_subtype":"","month":"2016-07"},{"category":"violent-crime","location_type":"Force","location":{"latitude":"51.365906","street":{"id":926267,"name":"On or near Hereford Way"},"longitude":"-0.313501"},"context":"","outcome_status":{"category":"Investigation complete; no suspect identified","date":"2017-05"},"persistent_id":"283eb7fa27694ea5bf0b15297d66e27b3890f4c229243b6ecfbc1ea55a8470fa","id":49961101,"location_subtype":"","month":"2016-07"},{"category":"violent-crime","location_type":"Force","location":{"latitude":"51.368605","street":{"id":926243,"name":"On or near Cecil Close"},"longitude":"-0.307383"},"context":"","outcome_status":{"category":"Investigation complete; no suspect identified","date":"2016-12"},"persistent_id":"d5ce65a5cf5196edd00d06084f079ffa68f622dac03ac6f844aecdb4d570e420","id":49966087,"location_subtype":"","month":"2016-07"},{"category":"violent-crime","location_type":"Force","location":{"latitude":"51.365453","street":{"id":926263,"name":"On or near Ripon Gardens"},"longitude":"-0.312627"},"context":"","outcome_status":{"category":"Status update unavailable","date":"2016-11"},"persistent_id":"d7f7221d5e15fd35956d4fa358c2c1a91bb8ae4b4e6c4e2085f1f03ae5ad9ab8","id":49978680,"location_subtype":"","month":"2016-07"},{"category":"violent-crime","location_type":"Force","location":{"latitude":"51.366981","street":{"id":926275,"name":"On or near Newlands Way"},"longitude":"-0.313835"},"context":"","outcome_status":{"category":"Investigation complete; no suspect identified","date":"2017-04"},"persistent_id":"d89c8a8e77ae67f03d319c92b4b5621be1c3ed66d3023ac08e7efcb341f78c5f","id":49972452,"location_subtype":"","month":"2016-07"},{"category":"violent-crime","location_type":"Force","location":{"latitude":"51.366441","street":{"id":926344,"name":"On or near Mount Road"},"longitude":"-0.293930"},"context":"","outcome_status":{"category":"Investigation complete; no suspect identified","date":"2016-07"},"persistent_id":"6e1706b1a94ed3399055898c4abc77875c31f12c6b5de05896dbc8256bf0260f","id":49993048,"location_subtype":"","month":"2016-07"},{"category":"violent-crime","location_type":"Force","location":{"latitude":"51.364051","street":{"id":926288,"name":"On or near Frimley Road"},"longitude":"-0.304635"},"context":"","outcome_status":{"category":"Investigation complete; no suspect identified","date":"2017-03"},"persistent_id":"91a1a7cae0e130f605e965f84290e63d7e45061d690a11754b06d26d2be8c17c","id":50003379,"location_subtype":"","month":"2016-07"},{"category":"violent-crime","location_type":"Force","location":{"latitude":"51.367226","street":{"id":926296,"name":"On or near Tudor Close"},"longitude":"-0.300897"},"context":"","outcome_status":{"category":"Investigation complete; no suspect identified","date":"2016-07"},"persistent_id":"782e71ccbc72e65bb232c69ca43da99f703028af56358996aa79830e3c1ee24b","id":49965287,"location_subtype":"","month":"2016-07"},{"category":"violent-crime","location_type":"Force","location":{"latitude":"51.364385","street":{"id":926337,"name":"On or near Sopwith Avenue"},"longitude":"-0.299738"},"context":"","outcome_status":{"category":"Offender given a caution","date":"2016-07"},"persistent_id":"c415cb858761f48f1e32e742ad4d9fe16c9aa0a6a8cdac444f3c9d3298647307","id":49977656,"location_subtype":"","month":"2016-07"},{"category":"violent-crime","location_type":"Force","location":{"latitude":"51.364529","street":{"id":926291,"name":"On or near Albury Road"},"longitude":"-0.305335"},"context":"","outcome_status":{"category":"Investigation complete; no suspect identified","date":"2016-09"},"persistent_id":"7168aef91f725b28da3cdea1c848c71edc427db1b012ab0656198368734afccd","id":50014709,"location_subtype":"","month":"2016-07"},{"category":"violent-crime","location_type":"Force","location":{"latitude":"51.367522","street":{"id":926299,"name":"On or near Bramham Gardens"},"longitude":"-0.308299"},"context":"","outcome_status":{"category":"Local resolution","date":"2016-08"},"persistent_id":"2c86512e16f78620343ae6315d73f4aecf029e93ee2b9c5920e1d0fdf96d6480","id":50006146,"location_subtype":"","month":"2016-07"},{"category":"violent-crime","location_type":"Force","location":{"latitude":"51.365453","street":{"id":926263,"name":"On or near Ripon Gardens"},"longitude":"-0.312627"},"context":"","outcome_status":{"category":"Investigation complete; no suspect identified","date":"2016-07"},"persistent_id":"ae15e48ed408dc669f0ecdad553bfcdae3832279ae58f21ed5d7ffaf5acb8abf","id":49978846,"location_subtype":"","month":"2016-07"},{"category":"violent-crime","location_type":"Force","location":{"latitude":"51.367044","street":{"id":926357,"name":"On or near Coutts Avenue"},"longitude":"-0.299539"},"context":"","outcome_status":{"category":"Investigation complete; no suspect identified","date":"2016-08"},"persistent_id":"c393b657fb2aea462fa2ad06da9b5b22960cacf0ddd663d3cb148124d4d27196","id":49956667,"location_subtype":"","month":"2016-07"},{"category":"other-crime","location_type":"Force","location":{"latitude":"51.364653","street":{"id":926287,"name":"On or near Hartfield Road"},"longitude":"-0.309554"},"context":"","outcome_status":{"category":"Investigation complete; no suspect identified","date":"2016-07"},"persistent_id":"931601c9136564b73ddb4f08e60523c506e8eb659638f0da93e7551a8db41e75","id":50003971,"location_subtype":"","month":"2016-07"},{"category":"other-crime","location_type":"Force","location":{"latitude":"51.364038","street":{"id":926354,"name":"On or near Supermarket"},"longitude":"-0.298774"},"context":"","outcome_status":{"category":"Investigation complete; no suspect identified","date":"2016-09"},"persistent_id":"838e57ad775a95ea01a0bf7a841b741fc4fc8f8cffeecda86d992e8911e84ed5","id":49989915,"location_subtype":"","month":"2016-07"},{"category":"other-crime","location_type":"Force","location":{"latitude":"51.367266","street":{"id":926355,"name":"On or near Sanger Avenue"},"longitude":"-0.298137"},"context":"","outcome_status":{"category":"Investigation complete; no suspect identified","date":"2018-01"},"persistent_id":"8850c296746ee01e71b93251cf422d76a94d98c7a91884d3a12cddb43ef293a2","id":50002402,"location_subtype":"","month":"2016-07"}]