[{"category":"anti-social-behaviour","location_type":"Force","location":{"latitude":"51.489271","street":{"id":949520,"name":"On or near Othello Close"},"longitude":"-0.106025"},"context":"","outcome_status":null,"persistent_id":"","id":61783759,"location_subtype":"","month":"2017-12"},{"category":"anti-social-behaviour","location_type":"Force","location":{"latitude":"51.490107","street":{"id":949268,"name":"On or near Opal Street"},"longitude":"-0.105414"},"context":"","outcome_status":null,"persistent_id":"","id":61783746,"location_subtype":"","month":"2017-12"},{"category":"anti-social-behaviour","location_type":"Force","location":{"latitude":"51.495030","street":{"id":953455,"name":"On or near Brook Drive"},"longitude":"-0.109604"},"context":"","outcome_status":null,"persistent_id":"","id":61783351,"location_subtype":"","month":"2017-12"},{"category":"anti-social-behaviour","location_type":"Force","location":{"latitude":"51.486711","street":{"id":949518,"name":"On or near Radcot Street"},"longitude":"-0.108983"},"context":"","outcome_status":null,"persistent_id":"","id":61783345,"location_subtype":"","month":"2017-12"},{"category":"anti-social-behaviour","location_type":"Force","location":{"latitude":"51.488911","street":{"id":949492,"name":"On or near Petrol Station"},"longitude":"-0.122792"},"context":"","outcome_status":null,"persistent_id":"","id":61784712,"location_subtype":"","month":"2017-12"},{"category":"anti-social-behaviour","location_type":"Force","location":{"latitude":"51.488911","street":{"id":949492,"name":"On or near Petrol Station"},"longitude":"-0.122792"},"context":"","outcome_status":null,"persistent_id":"","id":61784711,"location_subtype":"","month":"2017-12"},{"category":"anti-social-behaviour","location_type":"Force","location":{"latitude":"51.488911","street":{"id":949492,"name":"On or near Petrol Station"},"longitude":"-0.122792"},"context":"","outcome_status":null,"persistent_id":"","id":61784710,"location_subtype":"","month":"2017-12"},{"category":"anti-social-behaviour","location_type":"Force","location":{"latitude":"51.487032","street":{"id":949495,"name":"On or near Nightclub"},"longitude":"-0.122221"},"context":"","outcome_status":null,"persistent_id":"","id":61784721,"location_subtype":"","month":"2017-12"},{"category":"anti-social-behaviour","location_type":"Force","location":{"latitude":"51.488642","street":{"id":949483,"name":"On or near Glasshouse Walk"},"longitude":"-0.121161"},"context":"","outcome_status":null,"persistent_id":"","id":61784702,"location_subtype":"","month":"2017-12"},{"category":"anti-social-behaviour","location_type":"Force","location":{"latitude":"51.486516","street":{"id":949486,"name":"On or near Bridgefoot"},"longitude":"-0.124821"},"context":"","outcome_status":null,"persistent_id":"","id":61784748,"location_subtype":"","month":"2017-12"},{"category":"anti-social-behaviour","location_type":"Force","location":{"latitude":"51.489903","street":{"id":949463,"name":"On or near Vauxhall Walk"},"longitude":"-0.120159"},"context":"","outcome_status":null,"persistent_id":"","id":61784675,"location_subtype":"","month":"2017-12"},{"category":"anti-social-behaviour","location_type":"Force","location":{"latitude":"51.487032","street":{"id":949495,"name":"On or near Nightclub"},"longitude":"-0.122221"},"context":"","outcome_status":null,"persistent_id":"","id":61784730,"location_subtype":"","month":"2017-12"},{"category":"anti-social-behaviour","location_type":"Force","location":{"latitude":"51.487032","street":{"id":949495,"name":"On or near Nightclub"},"longitude":"-0.122221"},"context":"","outcome_status":null,"persistent_id":"","id":61784729,"location_subtype":"","month":"2017-12"},{"category":"anti-social-behaviour","location_type":"Force","location":{"latitude":"51.488184","street":{"id":949477,"name":"On or near Laud Street"},"longitude":"-0.120071"},"context":"","outcome_status":null,"persistent_id":"","id":61784670,"location_subtype":"","month":"2017-12"},{"category":"anti-social-behaviour","location_type":"Force","location":{"latitude":"51.486456","street":{"id":949482,"name":"On or near Glyn Street"},"longitude":"-0.120516"},"context":"","outcome_status":null,"persistent_id":"","id":61784318,"location_subtype":"","month":"2017-12"},{"category":"anti-social-behaviour","location_type":"Force","location":{"latitude":"51.489753","street":{"id":949479,"name":"On or near Jonathan Street"},"longitude":"-0.118623"},"context":"","outcome_status":null,"persistent_id":"","id":61784310,"location_subtype":"","month":"2017-12"},{"category":"anti-social-behaviour","location_type":"Force","location":{"latitude":"51.487479","street":{"id":949467,"name":"On or near St Oswald's Place"},"longitude":"-0.118703"},"context":"","outcome_status":null,"persistent_id":"","id":61784295,"location_subtype":"","month":"2017-12"},{"category":"anti-social-behaviour","location_type":"Force","location":{"latitude":"51.491656","street":{"id":949543,"name":"On or near Gibson Road"},"longitude":"-0.116744"},"context":"","outcome_status":null,"persistent_id":"","id":61784285,"location_subtype":"","month":"2017-12"},{"category":"anti-social-behaviour","location_type":"Force","location":{"latitude":"51.493106","street":{"id":953547,"name":"On or near Lambeth High Street"},"longitude":"-0.120257"},"context":"","outcome_status":null,"persistent_id":"","id":61784683,"location_subtype":"","month":"2017-12"},{"category":"anti-social-behaviour","location_type":"Force","location":{"latitude":"51.488812","street":{"id":949522,"name":"On or near Newburn Street"},"longitude":"-0.115493"},"context":"","outcome_status":null,"persistent_id":"","id":61784262,"location_subtype":"","month":"2017-12"},{"category":"anti-social-behaviour","location_type":"Force","location":{"latitude":"51.489256","street":{"id":949521,"name":"On or near Orsett Street"},"longitude":"-0.116267"},"context":"","outcome_status":null,"persistent_id":"","id":61784259,"location_subtype":"","month":"2017-12"},{"category":"anti-social-behaviour","location_type":"Force","location":{"latitude":"51.490811","street":{"id":949526,"name":"On or near Marylee Way"},"longitude":"-0.114518"},"context":"","outcome_status":null,"persistent_id":"","id":61784252,"location_subtype":"","month":"2017-12"},{"category":"anti-social-behaviour","location_type":"Force","location":{"latitude":"51.493106","street":{"id":953547,"name":"On or near Lambeth High Street"},"longitude":"-0.120257"},"context":"","outcome_status":null,"persistent_id":"","id":61784684,"location_subtype":"","month":"2017-12"},{"category":"anti-social-behaviour","location_type":"Force","location":{"latitude":"51.490190","street":{"id":949540,"name":"On or near Hotspur Street"},"longitude":"-0.112800"},"context":"","outcome_status":null,"persistent_id":"","id":61783857,"location_subtype":"","month":"2017-12"},{"category":"anti-social-behaviour","location_type":"Force","location":{"latitude":"51.490842","street":{"id":949562,"name":"On or near Petrol Station"},"longitude":"-0.111448"},"context":"","outcome_status":null,"persistent_id":"","id":61783809,"location_subtype":"","month":"2017-12"},{"category":"anti-social-behaviour","location_type":"Force","location":{"latitude":"51.490842","street":{"id":949562,"name":"On or near Petrol Station"},"longitude":"-0.111448"},"context":"","outcome_status":null,"persistent_id":"","id":61783808,"location_subtype":"","month":"2017-12"},{"category":"anti-social-behaviour","location_type":"Force","location":{"latitude":"51.493337","street":{"id":953584,"name":"On or near Bishop's Terrace"},"longitude":"-0.110005"},"context":"","outcome_status":null,"persistent_id":"","id":61783800,"location_subtype":"","month":"2017-12"},{"category":"anti-social-behaviour","location_type":"Force","location":{"latitude":"51.493662","street":{"id":953560,"name":"On or near Sullivan Road"},"longitude":"-0.107283"},"context":"","outcome_status":null,"persistent_id":"","id":61783768,"location_subtype":"","month":"2017-12"},{"category":"anti-social-behaviour","location_type":"Force","location":{"latitude":"51.491806","street":{"id":949470,"name":"On or near Salamanca Place"},"longitude":"-0.120498"},"context":"","outcome_status":null,"persistent_id":"","id":61784708,"location_subtype":"","month":"2017-12"},{"category":"bicycle-theft","location_type":"Force","location":{"latitude":"51.493662","street":{"id":953560,"name":"On or near Sullivan Road"},"longitude":"-0.107283"},"context":"","outcome_status":{"category":"Status update unavailable","date":"2018-04"},"persistent_id":"343c71c3f38d1bb7ca36f34e1bde4bf4a48785f8e8f18a954982a4fa616742e3","id":61812367,"location_subtype":"","month":"2017-12"},{"category":"bicycle-theft","location_type":"Force","location":{"latitude":"51.487204","street":{"id":949506,"name":"On or near Wigton Place"},"longitude":"-0.110576"},"context":"","outcome_status":{"category":"Status update unavailable","date":"2018-04"},"persistent_id":"550e6d8cdff2f71ff7ccf6a17659a22eb0b12b3835ebf46f06b385c328fe9130","id":61837788,"location_subtype":"","month":"2017-12"},{"category":"bicycle-theft","location_type":"Force","location":{"latitude":"51.489787","street":{"id":949496,"name":"On or near Nightclub"},"longitude":"-0.121906"},"context":"","outcome_status":{"category":"Status update unavailable","date":"2018-04"},"persistent_id":"320c6e01933d592afc3beaffcc9f39d2f5ba15b2520f0690984cd60e5cee2c80","id":61802401,"location_subtype":"","month":"2017-12"},{"category":"bicycle-theft","location_type":"Force","location":{"latitude":"51.486456","street":{"id":949482,"name":"On or near Glyn Street"},"longitude":"-0.120516"},"context":"","outcome_status":{"category":"Status update unavailable","date":"2018-04"},"persistent_id":"54a9364f26762c18f09441343ff5fd5beffa96ec6bbb5ace53076529f125a578","id":61817186,"location_subtype":"","month":"2017-12"},{"category":"bicycle-theft","location_type":"Force","location":{"latitude":"51.492069","street":{"id":953557,"name":"On or near Wincott Street"},"longitude":"-0.109453"},"context":"","outcome_status":{"category":"Status update unavailable","date":"2018-04"},"persistent_id":"b7e3808665bd66bbbb369d31e03d059c408a973a0d19cafbe2be4dfb425b9ced","id":61842570,"location_subtype":"","month":"2017-12"},{"category":"burglary","location_type":"Force","location":{"latitude":"51.492920","street":{"id":953570,"name":"On or near Nightingale Mews"},"longitude":"-0.107012"},"context":"","outcome_status":{"category":"Investigation complete; no suspect identified","date":"2017-12"},"persistent_id":"6dc4877a72f332f49993a5dd633c54736b98fbc62b100fda52ead574292a04a8","id":61851332,"location_subtype":"","month":"2017-12"},{"category":"burglary","location_type":"Force","location":{"latitude":"51.488141","street":{"id":949504,"name":"On or near Wynyard Terrace"},"longitude":"-0.115103"},"context":"","outcome_status":{"category":"Status update unavailable","date":"2018-04"},"persistent_id":"00adb0734b3db08c9a874e204cb37bf63a5c75975243df62ad8999b860295ba9","id":61849270,"location_subtype":"","month":"2017-12"},{"category":"burglary","location_type":"Force","location":{"latitude":"51.492856","street":{"id":953569,"name":"On or near Oakden Street"},"longitude":"-0.109737"},"context":"","outcome_status":{"category":"Investigation complete; no suspect identified","date":"2018-02"},"persistent_id":"a0584f7bb4c4befde7f79979494689cd702a30b53e95b98b0b3877e035402419","id":61820810,"location_subtype":"","month":"2017-12"},{"category":"burglary","location_type":"Force","location":{"latitude":"51.491656","street":{"id":949543,"name":"On or near Gibson Road"},"longitude":"-0.116744"},"context":"","outcome_status":{"category":"Awaiting court outcome","date":"2018-05"},"persistent_id":"469453c6f91471831cb4dee902e7d40a693ae87be9f28c5ae7e485e958afd966","id":61848832,"location_subtype":"","month":"2017-12"},{"category":"criminal-damage-arson","location_type":"Force","location":{"latitude":"51.493927","street":{"id":953583,"name":"On or near Brook Drive"},"longitude":"-0.106451"},"context":"","outcome_status":{"category":"Investigation complete; no suspect identified","date":"2018-01"},"persistent_id":"8538f68d02d7db77eae2af72b6a6e13db603b7c54cbd9bc0f016070549b1c423","id":61831398,"location_subtype":"","month":"2017-12"},{"category":"criminal-damage-arson","location_type":"Force","location":{"latitude":"51.488812","street":{"id":949522,"name":"On or near Newburn Street"},"longitude":"-0.115493"},"context":"","outcome_status":{"category":"Investigation complete; no suspect identified","date":"2018-01"},"persistent_id":"d22987d3eb1a3d8ecdfb4433ebea9ab999234859749eed467162c27ff6d8297d","id":61834723,"location_subtype":"","month":"2017-12"},{"category":"criminal-damage-arson","location_type":"Force","location":{"latitude":"51.488184","street":{"id":949477,"name":"On or near Laud Street"},"longitude":"-0.120071"},"context":"","outcome_status":{"category":"Status update unavailable","date":"2018-04"},"persistent_id":"43dbaa2e1f40de038e74e3a677ba222da430f0cac60990ff9f1907156d392057","id":61835612,"location_subtype":"","month":"2017-12"},{"category":"criminal-damage-arson","location_type":"Force","location":{"latitude":"51.495030","street":{"id":953455,"name":"On or near Brook Drive"},"longitude":"-0.109604"},"context":"","outcome_status":{"category":"Status update unavailable","date":"2018-04"},"persistent_id":"11ab66de7234c80b676b2ae8e2f1fb405ef7f8a21c7b0dfaca8be9ab2936d484","id":61808683,"location_subtype":"","month":"2017-12"},{"category":"criminal-damage-arson","location_type":"Force","location":{"latitude":"51.495030","street":{"id":953455,"name":"On or near Brook Drive"},"longitude":"-0.109604"},"context":"","outcome_status":{"category":"Status update unavailable","date":"2018-04"},"persistent_id":"186571ff9ce5bd1d9a99e96f3d49805a82a39e87f075c088be3707aa184a9c56","id":61841470,"location_subtype":"","month":"2017-12"},{"category":"criminal-damage-arson","location_type":"Force","location":{"latitude":"51.489787","street":{"id":949496,"name":"On or near Nightclub"},"longitude":"-0.121906"},"context":"","outcome_status":{"category":"Status update unavailable","date":"2018-04"},"persistent_id":"19efb381f28892089a32c6ffcb712796c58e9753613fe0e51e7da7670d3e9f56","id":61839525,"location_subtype":"","month":"2017-12"},{"category":"criminal-damage-arson","location_type":"Force","location":{"latitude":"51.492093","street":{"id":953581,"name":"On or near Distin Street"},"longitude":"-0.112578"},"context":"","outcome_status":{"category":"Investigation complete; no suspect identified","date":"2018-06"},"persistent_id":"5ff5fea3d4c7dab921874d54cc6e14ab354f632722d748dcbd5f767c5d04aef3","id":61811549,"location_subtype":"","month":"2017-12"},{"category":"drugs","location_type":"Force","location":{"latitude":"51.491806","street":{"id":949470,"name":"On or near Salamanca Place"},"longitude":"-0.120498"},"context":"","outcome_status":{"category":"Offender given a drugs possession warning","date":"2017-12"},"persistent_id":"63a5894a1855b785493bc4a44d7ba29a5845d633b8abcadd950fd893cf6eacb1","id":61849686,"location_subtype":"","month":"2017-12"},{"category":"drugs","location_type":"Force","location":{"latitude":"51.486456","street":{"id":949482,"name":"On or near Glyn Street"},"longitude":"-0.120516"},"context":"","outcome_status":{"category":"Court result unavailable","date":"2018-06"},"persistent_id":"406715a26071bdfe830ba69060cb27d3567e5a7fb6505fd7f0d137da4e2e7ce4","id":61849691,"location_subtype":"","month":"2017-12"},{"category":"drugs","location_type":"Force","location":{"latitude":"51.486456","street":{"id":949482,"name":"On or near Glyn Street"},"longitude":"-0.120516"},"context":"","outcome_status":{"category":"Court result unavailable","date":"2018-06"},"persistent_id":"73dc5cf323da63a1b1d46b03f20ee02819c10600b9a3c882a37d67d71f91399a","id":61849684,"location_subtype":"","month":"2017-12"},{"category":"drugs","location_type":"Force","location":{"latitude":"51.489753","street":{"id":949479,"name":"On or near Jonathan Street"},"longitude":"-0.118623"},"context":"","outcome_status":{"category":"Offender fined","date":"2017-12"},"persistent_id":"620332cb93b40b7b2665468378e343ef79740bffc86e047e13106ac151b67c05","id":61849775,"location_subtype":"","month":"2017-12"},{"category":"drugs","location_type":"Force","location":{"latitude":"51.486456","street":{"id":949482,"name":"On or near Glyn Street"},"longitude":"-0.120516"},"context":"","outcome_status":{"category":"Court result unavailable","date":"2018-06"},"persistent_id":"d1d4160c437b675247ebc9aca906e5af04a08de9186638deea62793968befcf1","id":61849883,"location_subtype":"","month":"2017-12"},{"category":"drugs","location_type":"Force","location":{"latitude":"51.487032","street":{"id":949495,"name":"On or near Nightclub"},"longitude":"-0.122221"},"context":"","outcome_status":{"category":"Offender fined","date":"2018-02"},"persistent_id":"e376714d69639d96ee6e7d176678f5c66744ed85336dd8a5af79ed3e2865c4c9","id":61842372,"location_subtype":"","month":"2017-12"},{"category":"drugs","location_type":"Force","location":{"latitude":"51.486799","street":{"id":949489,"name":"On or near Auckland Street"},"longitude":"-0.120617"},"context":"","outcome_status":{"category":"Offender given a caution","date":"2018-01"},"persistent_id":"246c4787faee74272a86a62fa34948ccd4e0886b65fca621b1de8cf42f5601ed","id":61844505,"location_subtype":"","month":"2017-12"},{"category":"drugs","location_type":"Force","location":{"latitude":"51.491806","street":{"id":949470,"name":"On or near Salamanca Place"},"longitude":"-0.120498"},"context":"","outcome_status":{"category":"Offender given a drugs possession warning","date":"2017-12"},"persistent_id":"31fce1f1b34f92bcec7dda1ef736e2264b323a6e27d74a5081a42ef035636151","id":61849524,"location_subtype":"","month":"2017-12"},{"category":"drugs","location_type":"Force","location":{"latitude":"51.493106","street":{"id":953547,"name":"On or near Lambeth High Street"},"longitude":"-0.120257"},"context":"","outcome_status":{"category":"Court result unavailable","date":"2018-06"},"persistent_id":"598ca832bbd6a20cd20815c6aeb94b9f3e8d29feba3672f7e1e0b9b63c2e1400","id":61848848,"location_subtype":"","month":"2017-12"},{"category":"drugs","location_type":"Force","location":{"latitude":"51.487032","street":{"id":949495,"name":"On or near Nightclub"},"longitude":"-0.122221"},"context":"","outcome_status":{"category":"Offender given a caution","date":"2017-12"},"persistent_id":"ddd8e0f545f443b079de178ef7847503473511de6a989eaf19db32dedb1654c3","id":61846585,"location_subtype":"","month":"2017-12"},{"category":"drugs","location_type":"Force","location":{"latitude":"51.490811","street":{"id":949526,"name":"On or near Marylee Way"},"longitude":"-0.114518"},"context":"","outcome_status":{"category":"Offender given a caution","date":"2018-01"},"persistent_id":"8d91312687af7121fca9957a04a141f25188f63fd01f8dfd95d26f5aefa688f6","id":61848110,"location_subtype":"","month":"2017-12"},{"category":"drugs","location_type":"Force","location":{"latitude":"51.491806","street":{"id":949470,"name":"On or near Salamanca Place"},"longitude":"-0.120498"},"context":"","outcome_status":{"category":"Offender given a drugs possession warning","date":"2018-01"},"persistent_id":"71b1e11d1ce5844647b083f17e35fcbcd731819b12b6326cacca8404a531889b","id":61845712,"location_subtype":"","month":"2017-12"},{"category":"drugs","location_type":"Force","location":{"latitude":"51.487964","street":{"id":949499,"name":"On or near Further\/higher Educational Building"},"longitude":"-0.123738"},"context":"","outcome_status":{"category":"Offender given a drugs possession warning","date":"2018-01"},"persistent_id":"9e5a6e47e7aa1dbdd94eb96e4c90d0c82717f8d4e6a57fd10c8b8ccbeb215121","id":61847690,"location_subtype":"","month":"2017-12"},{"category":"drugs","location_type":"Force","location":{"latitude":"51.488911","street":{"id":949492,"name":"On or near Petrol Station"},"longitude":"-0.122792"},"context":"","outcome_status":{"category":"Status update unavailable","date":"2018-04"},"persistent_id":"15ecfcf191354d67072ccee4093b04c45701808123fec0e30fa86da8534532c9","id":61848582,"location_subtype":"","month":"2017-12"},{"category":"drugs","location_type":"Force","location":{"latitude":"51.486516","street":{"id":949486,"name":"On or near Bridgefoot"},"longitude":"-0.124821"},"context":"","outcome_status":{"category":"Offender given a drugs possession warning","date":"2017-12"},"persistent_id":"3f820dc3406d1ec48eb0001330fbb15fd505b192d79cf2b325164a639a782ac7","id":61848583,"location_subtype":"","month":"2017-12"},{"category":"drugs","location_type":"Force","location":{"latitude":"51.487032","street":{"id":949495,"name":"On or near Nightclub"},"longitude":"-0.122221"},"context":"","outcome_status":{"category":"Court result unavailable","date":"2018-06"},"persistent_id":"6c58bcfe09236adc6a91aa3670101d35e90253b3405926c59866752ba3714ab4","id":61848678,"location_subtype":"","month":"2017-12"},{"category":"other-theft","location_type":"Force","location":{"latitude":"51.488642","street":{"id":949483,"name":"On or near Glasshouse Walk"},"longitude":"-0.121161"},"context":"","outcome_status":{"category":"Status update unavailable","date":"2018-04"},"persistent_id":"4d7c2ffe1b11890227aed005842b6118c464d439e2ba6be6fc81d8a7dd708641","id":61837020,"location_subtype":"","month":"2017-12"},{"category":"other-theft","location_type":"Force","location":{"latitude":"51.486387","street":{"id":949493,"name":"On or near Theatre\/concert Hall"},"longitude":"-0.121830"},"context":"","outcome_status":{"category":"Investigation complete; no suspect identified","date":"2018-01"},"persistent_id":"a8799cae923e190b7e2a7f2703692fc6246d50bc92f3f38399494c9a5ca4e232","id":61806705,"location_subtype":"","month":"2017-12"},{"category":"other-theft","location_type":"Force","location":{"latitude":"51.487092","street":{"id":949561,"name":"On or near Petrol Station"},"longitude":"-0.115305"},"context":"","outcome_status":{"category":"Investigation complete; no suspect identified","date":"2018-01"},"persistent_id":"3630d25cab543804835b9d3fe00993f2403787f489c37a08d93c07ad71798956","id":61831290,"location_subtype":"","month":"2017-12"},{"category":"other-theft","location_type":"Force","location":{"latitude":"51.487430","street":{"id":949544,"name":"On or near Dolland Street"},"longitude":"-0.116242"},"context":"","outcome_status":{"category":"Status update unavailable","date":"2018-04"},"persistent_id":"1838adbac2cf42d2198926c676508ca5df89fca75412517532f28d46b0b158df","id":61814510,"location_subtype":"","month":"2017-12"},{"category":"other-theft","location_type":"Force","location":{"latitude":"51.491377","street":{"id":949475,"name":"On or near Lilac Place"},"longitude":"-0.118412"},"context":"","outcome_status":{"category":"Status update unavailable","date":"2018-04"},"persistent_id":"478c0d8b1e9b3369f0b167389f13281d6189c9fa54a4d2c791a7619a817dda58","id":61794443,"location_subtype":"","month":"2017-12"},{"category":"other-theft","location_type":"Force","location":{"latitude":"51.487032","street":{"id":949495,"name":"On or near Nightclub"},"longitude":"-0.122221"},"context":"","outcome_status":{"category":"Status update unavailable","date":"2018-04"},"persistent_id":"a79bcd01a744ca1a34bb6e3e2995a26968cb9355caa8133dce5d1943ee93c049","id":61822810,"location_subtype":"","month":"2017-12"},{"category":"other-theft","location_type":"Force","location":{"latitude":"51.485764","street":{"id":949510,"name":"On or near Stannary Street"},"longitude":"-0.109915"},"context":"","outcome_status":{"category":"Status update unavailable","date":"2018-04"},"persistent_id":"ddbd2b807cced25763efa1da721b550ca4a1e3376d52b32e275a6afbd98f889c","id":61837856,"location_subtype":"","month":"2017-12"},{"category":"other-theft","location_type":"Force","location":{"latitude":"51.487092","street":{"id":949561,"name":"On or near Petrol Station"},"longitude":"-0.115305"},"context":"","outcome_status":{"category":"Status update unavailable","date":"2018-04"},"persistent_id":"7657f1d2df3142732a52dd1ea27e2bbc1c937b55f4589dc9289c4ed8fb7b28ba","id":61806800,"location_subtype":"","month":"2017-12"},{"category":"other-theft","location_type":"Force","location":{"latitude":"51.487092","street":{"id":949561,"name":"On or near Petrol Station"},"longitude":"-0.115305"},"context":"","outcome_status":{"category":"Status update unavailable","date":"2018-04"},"persistent_id":"6518901e43f54b2a735d9a9c091f9f4d2cca3895acc25a260b43815f8b0acdff","id":61795067,"location_subtype":"","month":"2017-12"},{"category":"other-theft","location_type":"Force","location":{"latitude":"51.487092","street":{"id":949561,"name":"On or near Petrol Station"},"longitude":"-0.115305"},"context":"","outcome_status":{"category":"Status update unavailable","date":"2018-04"},"persistent_id":"e88807df7d70f362842f51e45cb1b291cfa36154acf74e77067f864142c61ae7","id":61798839,"location_subtype":"","month":"2017-12"},{"category":"other-theft","location_type":"Force","location":{"latitude":"51.492365","street":{"id":953572,"name":"On or near Lollard Street"},"longitude":"-0.113863"},"context":"","outcome_status":{"category":"Status update unavailable","date":"2018-04"},"persistent_id":"7ca77e035135d679178f44392b87ab21ce38792927db03d0222aa73928f34eda","id":61799136,"location_subtype":"","month":"2017-12"},{"category":"other-theft","location_type":"Force","location":{"latitude":"51.487964","street":{"id":949499,"name":"On or near Further\/higher Educational Building"},"longitude":"-0.123738"},"context":"","outcome_status":{"category":"Status update unavailable","date":"2018-04"},"persistent_id":"96278a0b40db8e6187f547391c470c7a6205082494a1d82d19692bb0282aea1e","id":61813620,"location_subtype":"","month":"2017-12"},{"category":"other-theft","location_type":"Force","location":{"latitude":"51.487092","street":{"id":949561,"name":"On or near Petrol Station"},"longitude":"-0.115305"},"context":"","outcome_status":{"category":"Investigation complete; no suspect identified","date":"2017-12"},"persistent_id":"e78c9eb8a11a5ae084431d13ac467a9c86ae6c5c1e155863d9d9e7a406b5159e","id":61815465,"location_subtype":"","month":"2017-12"},{"category":"other-theft","location_type":"Force","location":{"latitude":"51.488141","street":{"id":949504,"name":"On or near Wynyard Terrace"},"longitude":"-0.115103"},"context":"","outcome_status":{"category":"Status update unavailable","date":"2018-04"},"persistent_id":"77d881d29ce4dc2d4add1df417ac0ba72d82c1218405e8b32e0ae16ce127b5b1","id":61817404,"location_subtype":"","month":"2017-12"},{"category":"other-theft","location_type":"Force","location":{"latitude":"51.487092","street":{"id":949561,"name":"On or near Petrol Station"},"longitude":"-0.115305"},"context":"","outcome_status":{"category":"Status update unavailable","date":"2018-04"},"persistent_id":"f792c415ee8fed41e865c71bc1b8689900e6eb7a2bae5e920b16e7550a427f6d","id":61821334,"location_subtype":"","month":"2017-12"},{"category":"other-theft","location_type":"Force","location":{"latitude":"51.495030","street":{"id":953455,"name":"On or near Brook Drive"},"longitude":"-0.109604"},"context":"","outcome_status":{"category":"Investigation complete; no suspect identified","date":"2018-01"},"persistent_id":"5011847a221b5c55830ff271da0428d8e34b29d9c9d0665a9accc7dcdb7f58a9","id":61824454,"location_subtype":"","month":"2017-12"},{"category":"other-theft","location_type":"Force","location":{"latitude":"51.493746","street":{"id":953555,"name":"On or near Conference\/exhibition Centre"},"longitude":"-0.120908"},"context":"","outcome_status":{"category":"Status update unavailable","date":"2018-04"},"persistent_id":"e07ad195f270da1963db3e50621729c0bfdde45364d305d68e03f10cb54c49fd","id":61838068,"location_subtype":"","month":"2017-12"},{"category":"other-theft","location_type":"Force","location":{"latitude":"51.488983","street":{"id":949538,"name":"On or near Kennington Lane"},"longitude":"-0.110992"},"context":"","outcome_status":{"category":"Status update unavailable","date":"2018-04"},"persistent_id":"9bbf2a7d092e437cf6e9fa494131cfcc72ff37ba6b6cb16a8c6e00f260eab80f","id":61838494,"location_subtype":"","month":"2017-12"},{"category":"other-theft","location_type":"Force","location":{"latitude":"51.492740","street":{"id":953543,"name":"On or near Whitgift Street"},"longitude":"-0.119293"},"context":"","outcome_status":{"category":"Status update unavailable","date":"2018-04"},"persistent_id":"824d4295d8249432a896082e34b42ef3d62102786b3def0de38857c4079295ff","id":61840876,"location_subtype":"","month":"2017-12"},{"category":"other-theft","location_type":"Force","location":{"latitude":"51.487032","street":{"id":949495,"name":"On or near Nightclub"},"longitude":"-0.122221"},"context":"","outcome_status":{"category":"Status update unavailable","date":"2018-04"},"persistent_id":"1924b408a7f1f1b0f6249b3b2e30c3ea0f1d8df3abc4bca18e67e1ed79cd72d3","id":61842197,"location_subtype":"","month":"2017-12"},{"category":"other-theft","location_type":"Force","location":{"latitude":"51.493106","street":{"id":953547,"name":"On or near Lambeth High Street"},"longitude":"-0.120257"},"context":"","outcome_status":{"category":"Status update unavailable","date":"2018-04"},"persistent_id":"a92c80495581e9b6e2953b859be7ba9e33a4b9c0448f137b6f979f43695392b9","id":61842535,"location_subtype":"","month":"2017-12"},{"category":"other-theft","location_type":"Force","location":{"latitude":"51.489271","street":{"id":949520,"name":"On or near Othello Close"},"longitude":"-0.106025"},"context":"","outcome_status":{"category":"Status update unavailable","date":"2018-04"},"persistent_id":"6db7244a5e99bf5803f5f14274db80062aee770665918f2118abb5d52ed99ffd","id":61842634,"location_subtype":"","month":"2017-12"},{"category":"other-theft","location_type":"Force","location":{"latitude":"51.488141","street":{"id":949504,"name":"On or near Wynyard Terrace"},"longitude":"-0.115103"},"context":"","outcome_status":{"category":"Investigation complete; no suspect identified","date":"2018-01"},"persistent_id":"f145cb01b1c9b05df66f503b2ba8f386989425fd90eac082815dbb0116c746a2","id":61843867,"location_subtype":"","month":"2017-12"},{"category":"other-theft","location_type":"Force","location":{"latitude":"51.487092","street":{"id":949561,"name":"On or near Petrol Station"},"longitude":"-0.115305"},"context":"","outcome_status":{"category":"Status update unavailable","date":"2018-04"},"persistent_id":"763b489322479b1b83831a5a9f44b23a13b063a5f33cee4b9dcb659391b6bd38","id":61833997,"location_subtype":"","month":"2017-12"},{"category":"possession-of-weapons","location_type":"Force","location":{"latitude":"51.490811","street":{"id":949526,"name":"On or near Marylee Way"},"longitude":"-0.114518"},"context":"","outcome_status":{"category":"Offender given community sentence","date":"2018-02"},"persistent_id":"a08a1b5205236a957efff1e9160b1d0d823996ab2f596173776ce4fa78f06fcb","id":61820441,"location_subtype":"","month":"2017-12"},{"category":"public-order","location_type":"Force","location":{"latitude":"51.491806","street":{"id":949470,"name":"On or near Salamanca Place"},"longitude":"-0.120498"},"context":"","outcome_status":{"category":"Status update unavailable","date":"2018-04"},"persistent_id":"6f16791dc44f9f68a638fc7ace15613a6180c6dc938a4861ed37d711b085b70a","id":61841739,"location_subtype":"","month":"2017-12"},{"category":"public-order","location_type":"Force","location":{"latitude":"51.489224","street":{"id":949515,"name":"On or near Sancroft Street"},"longitude":"-0.114252"},"context":"","outcome_status":{"category":"Status update unavailable","date":"2018-04"},"persistent_id":"2d9ef3f3fb180f1c91d11514f264d31b711d3a83910396a95f9401b1cfe36e8b","id":61817924,"location_subtype":"","month":"2017-12"},{"category":"public-order","location_type":"Force","location":{"latitude":"51.493106","street":{"id":953547,"name":"On or near Lambeth High Street"},"longitude":"-0.120257"},"context":"","outcome_status":{"category":"Investigation complete; no suspect identified","date":"2017-12"},"persistent_id":"99d904e8763e441242dce241f4126d33caea10ce51421989873e0a64c26b5abe","id":61812544,"location_subtype":"","month":"2017-12"},{"category":"public-order","location_type":"Force","location":{"latitude":"51.492692","street":{"id":953545,"name":"On or near Newport Street"},"longitude":"-0.117998"},"context":"","outcome_status":{"category":"Investigation complete; no suspect identified","date":"2018-01"},"persistent_id":"f28c2a211747029cfcb3c4eb74741cc8b94ba59e6d9cb6b3bada4319fcd27074","id":61807638,"location_subtype":"","month":"2017-12"},{"category":"public-order","location_type":"Force","location":{"latitude":"51.486799","street":{"id":949489,"name":"On or near Auckland Street"},"longitude":"-0.120617"},"context":"","outcome_status":{"category":"Status update unavailable","date":"2018-04"},"persistent_id":"9d439faff2bdc0f3e258b231e4cbbdca0a284db12e01495a7c43439d76c2427f","id":61810613,"location_subtype":"","month":"2017-12"},{"category":"robbery","location_type":"Force","location":{"latitude":"51.487032","street":{"id":949495,"name":"On or near Nightclub"},"longitude":"-0.122221"},"context":"","outcome_status":{"category":"Investigation complete; no suspect identified","date":"2018-01"},"persistent_id":"fef7aab2126ec49ce965f834be18ec7f4e1d273a6fafeb328cb566e2c1989b21","id":61812215,"location_subtype":"","month":"2017-12"},{"category":"robbery","location_type":"Force","location":{"latitude":"51.490107","street":{"id":949268,"name":"On or near Opal Street"},"longitude":"-0.105414"},"context":"","outcome_status":{"category":"Status update unavailable","date":"2018-04"},"persistent_id":"de3ef84990a54c2c892c29f214030feae8fdc0e43f687e2761dccee200483bc0","id":61818211,"location_subtype":"","month":"2017-12"},{"category":"robbery","location_type":"Force","location":{"latitude":"51.489224","street":{"id":949515,"name":"On or near Sancroft Street"},"longitude":"-0.114252"},"context":"","outcome_status":{"category":"Investigation complete; no suspect identified","date":"2018-02"},"persistent_id":"6a497ea5134629d18207e23d126877f3e728204fe370e1c1729454104841f55b","id":61828819,"location_subtype":"","month":"2017-12"},{"category":"robbery","location_type":"Force","location":{"latitude":"51.485764","street":{"id":949510,"name":"On or near Stannary Street"},"longitude":"-0.109915"},"context":"","outcome_status":{"category":"Investigation complete; no suspect identified","date":"2018-03"},"persistent_id":"2f6d1fcd8274d6c24273b80c8d9ff6b977f78f9a0caaabe29573c521d3640cca","id":61812289,"location_subtype":"","month":"2017-12"},{"category":"robbery","location_type":"Force","location":{"latitude":"51.487032","street":{"id":949495,"name":"On or near Nightclub"},"longitude":"-0.122221"},"context":"","outcome_status":{"category":"Status update unavailable","date":"2018-04"},"persistent_id":"76e1b395da7695ca12c6e2105a34de471b4565edde2a3c5955bf9779c0e0fbcf","id":61827595,"location_subtype":"","month":"2017-12"},{"category":"robbery","location_type":"Force","location":{"latitude":"51.487032","street":{"id":949495,"name":"On or near Nightclub"},"longitude":"-0.122221"},"context":"","outcome_status":{"category":"Status update unavailable","date":"2018-04"},"persistent_id":"6acd10d04d9d955001c8996b252a338dee8f09650c87174abd08fa917a9ff0c2","id":61827594,"location_subtype":"","month":"2017-12"},{"category":"shoplifting","location_type":"Force","location":{"latitude":"51.495030","street":{"id":953455,"name":"On or near Brook Drive"},"longitude":"-0.109604"},"context":"","outcome_status":{"category":"Status update unavailable","date":"2018-04"},"persistent_id":"adf0409462895e32915ecc39ca226ed38ea9e7537fc446655113e8f431e077fa","id":61810700,"location_subtype":"","month":"2017-12"},{"category":"shoplifting","location_type":"Force","location":{"latitude":"51.495030","street":{"id":953455,"name":"On or near Brook Drive"},"longitude":"-0.109604"},"context":"","outcome_status":{"category":"Investigation complete; no suspect identified","date":"2018-01"},"persistent_id":"4fbae8048fd5bf33e644331e7e9e4917c28a6b96e76cc1bb0a02cda7e26c7069","id":61842636,"location_subtype":"","month":"2017-12"},{"category":"theft-from-the-person","location_type":"Force","location":{"latitude":"51.491656","street":{"id":949543,"name":"On or near Gibson Road"},"longitude":"-0.116744"},"context":"","outcome_status":{"category":"Status update unavailable","date":"2018-04"},"persistent_id":"c1357c2a691a33eff898baf5cb7630ed1f83b68c327de482d2cb08ff01aeacf7","id":61796034,"location_subtype":"","month":"2017-12"},{"category":"theft-from-the-person","location_type":"Force","location":{"latitude":"51.493106","street":{"id":953547,"name":"On or near Lambeth High Street"},"longitude":"-0.120257"},"context":"","outcome_status":{"category":"Status update unavailable","date":"2018-04"},"persistent_id":"24a0afd58d7a508027bd32e2633a880dff44491f3019ac7834d3a1663273e4b4","id":61794740,"location_subtype":"","month":"2017-12"},{"category":"theft-from-the-person","location_type":"Force","location":{"latitude":"51.493746","street":{"id":953555,"name":"On or near Conference\/exhibition Centre"},"longitude":"-0.120908"},"context":"","outcome_status":{"category":"Status update unavailable","date":"2018-04"},"persistent_id":"73fb5af0ca14e8798cf209126f255a0564dc9b9a3df97e48585975163c638b0f","id":61807948,"location_subtype":"","month":"2017-12"},{"category":"theft-from-the-person","location_type":"Force","location":{"latitude":"51.487032","street":{"id":949495,"name":"On or near Nightclub"},"longitude":"-0.122221"},"context":"","outcome_status":{"category":"Investigation complete; no suspect identified","date":"2018-01"},"persistent_id":"5729b68da29d24691a7805b38d6dc561e15e355bb20b4f2ce8f09b6d64dfc225","id":61820877,"location_subtype":"","month":"2017-12"},{"category":"theft-from-the-person","location_type":"Force","location":{"latitude":"51.487964","street":{"id":949499,"name":"On or near Further\/higher Educational Building"},"longitude":"-0.123738"},"context":"","outcome_status":{"category":"Status update unavailable","date":"2018-04"},"persistent_id":"5e7f45145da4f2779540f599537089a9c6453fd867a6d8c4159f29e682abad58","id":61807130,"location_subtype":"","month":"2017-12"},{"category":"theft-from-the-person","location_type":"Force","location":{"latitude":"51.488642","street":{"id":949483,"name":"On or near Glasshouse Walk"},"longitude":"-0.121161"},"context":"","outcome_status":{"category":"Status update unavailable","date":"2018-04"},"persistent_id":"c673d52930d3643378f1e53a3206eb860b3a6318fb0e6ee4a779016d87417942","id":61805505,"location_subtype":"","month":"2017-12"},{"category":"theft-from-the-person","location_type":"Force","location":{"latitude":"51.486582","street":{"id":949517,"name":"On or near Ravensdon Street"},"longitude":"-0.109334"},"context":"","outcome_status":{"category":"Status update unavailable","date":"2018-04"},"persistent_id":"adc6293bd38e12feac04f48b419652d231626ec28072361abdc997c6224914aa","id":61816845,"location_subtype":"","month":"2017-12"},{"category":"vehicle-crime","location_type":"Force","location":{"latitude":"51.490831","street":{"id":949471,"name":"On or near Randall Road"},"longitude":"-0.120826"},"context":"","outcome_status":{"category":"Status update unavailable","date":"2018-04"},"persistent_id":"4eb1a9523443e8f2e641280cb431fb0366fe4c3bdd948b77f0858819a8cbd779","id":61814839,"location_subtype":"","month":"2017-12"},{"category":"vehicle-crime","location_type":"Force","location":{"latitude":"51.494202","street":{"id":953559,"name":"On or near Walcot Square"},"longitude":"-0.108961"},"context":"","outcome_status":{"category":"Status update unavailable","date":"2018-04"},"persistent_id":"ff0fb8edc0814d4adcf17a9557cc02615ed5b6f1b76c33e2a1503b355948ef7f","id":61844266,"location_subtype":"","month":"2017-12"},{"category":"vehicle-crime","location_type":"Force","location":{"latitude":"51.493511","street":{"id":953561,"name":"On or near St Mary's Walk"},"longitude":"-0.108529"},"context":"","outcome_status":{"category":"Status update unavailable","date":"2018-04"},"persistent_id":"2c65afb1ca096f8999bd1e6d13f3767ac3122dd84aad72d74c4261a637ffe2f4","id":61815644,"location_subtype":"","month":"2017-12"},{"category":"vehicle-crime","location_type":"Force","location":{"latitude":"51.489787","street":{"id":949496,"name":"On or near Nightclub"},"longitude":"-0.121906"},"context":"","outcome_status":{"category":"Investigation complete; no suspect identified","date":"2018-03"},"persistent_id":"641083c7eb738e30da81aec1bf48b84c5813e2baa2b55cb164db03b1d9c567e5","id":61836626,"location_subtype":"","month":"2017-12"},{"category":"vehicle-crime","location_type":"Force","location":{"latitude":"51.492659","street":{"id":953563,"name":"On or near Saunders Street"},"longitude":"-0.114269"},"context":"","outcome_status":{"category":"Awaiting court outcome","date":"2018-01"},"persistent_id":"12d20a9f7eb8521e14a435410d30bfcf7cbbf1c1bbf35e8976f054946ca3a997","id":61843034,"location_subtype":"","month":"2017-12"},{"category":"vehicle-crime","location_type":"Force","location":{"latitude":"51.491806","street":{"id":949470,"name":"On or near Salamanca Place"},"longitude":"-0.120498"},"context":"","outcome_status":{"category":"Investigation complete; no suspect identified","date":"2018-01"},"persistent_id":"91163bcca0c771a9134712add45b6f76d5ee00fa86714c55a8153f7d5ec43731","id":61838314,"location_subtype":"","month":"2017-12"},{"category":"vehicle-crime","location_type":"Force","location":{"latitude":"51.492069","street":{"id":953557,"name":"On or near Wincott Street"},"longitude":"-0.109453"},"context":"","outcome_status":{"category":"Status update unavailable","date":"2018-04"},"persistent_id":"fdb953bf2da23d23290db1f2815e53e595c71623293646c4390f8ba3d01d9299","id":61822338,"location_subtype":"","month":"2017-12"},{"category":"vehicle-crime","location_type":"Force","location":{"latitude":"51.492274","street":{"id":953778,"name":"On or near Dugard Way"},"longitude":"-0.105396"},"context":"","outcome_status":{"category":"Investigation complete; no suspect identified","date":"2018-01"},"persistent_id":"f26034d8b225d0c307bf759a7e3c779234f56473332f4c1b033b9ce0b9eb4663","id":61843546,"location_subtype":"","month":"2017-12"},{"category":"vehicle-crime","location_type":"Force","location":{"latitude":"51.490831","street":{"id":949471,"name":"On or near Randall Road"},"longitude":"-0.120826"},"context":"","outcome_status":{"category":"Status update unavailable","date":"2018-04"},"persistent_id":"343911a678047039e2a8aec14fd5b4221a5ce5b5d9815fe65e3f9f85466d5f0f","id":61842509,"location_subtype":"","month":"2017-12"},{"category":"vehicle-crime","location_type":"Force","location":{"latitude":"51.487032","street":{"id":949495,"name":"On or near Nightclub"},"longitude":"-0.122221"},"context":"","outcome_status":{"category":"Status update unavailable","date":"2018-04"},"persistent_id":"a1ef232dc696d7a81e857e1ca00cf619a9d716601b6c9b42ebee9428ed9ace3b","id":61796126,"location_subtype":"","month":"2017-12"},{"category":"vehicle-crime","location_type":"Force","location":{"latitude":"51.485764","street":{"id":949510,"name":"On or near Stannary Street"},"longitude":"-0.109915"},"context":"","outcome_status":{"category":"Investigation complete; no suspect identified","date":"2018-04"},"persistent_id":"f3ddf04e21113115afeafe5edebc586f2209cb6afa69788a8a200328cfa2fc69","id":61815707,"location_subtype":"","month":"2017-12"},{"category":"vehicle-crime","location_type":"Force","location":{"latitude":"51.490831","street":{"id":949471,"name":"On or near Randall Road"},"longitude":"-0.120826"},"context":"","outcome_status":{"category":"Status update unavailable","date":"2018-04"},"persistent_id":"e4939b6e90e0909ada6a0ba37c44f2eb111adce3031c73ec20303834c704d3fe","id":61821095,"location_subtype":"","month":"2017-12"},{"category":"violent-crime","location_type":"Force","location":{"latitude":"51.487092","street":{"id":949561,"name":"On or near Petrol Station"},"longitude":"-0.115305"},"context":"","outcome_status":{"category":"Investigation complete; no suspect identified","date":"2018-02"},"persistent_id":"a753e8b6b3b8475b2262a952e5720357b54fe17fb2a9ba01a36ac10918691534","id":61808240,"location_subtype":"","month":"2017-12"},{"category":"violent-crime","location_type":"Force","location":{"latitude":"51.493106","street":{"id":953547,"name":"On or near Lambeth High Street"},"longitude":"-0.120257"},"context":"","outcome_status":{"category":"Investigation complete; no suspect identified","date":"2017-12"},"persistent_id":"b3433a67bd6bbcd13cc52a3966424ca3fa5bdcf85229a05e4a5fa1286b1255d5","id":61847771,"location_subtype":"","month":"2017-12"},{"category":"violent-crime","location_type":"Force","location":{"latitude":"51.487032","street":{"id":949495,"name":"On or near Nightclub"},"longitude":"-0.122221"},"context":"","outcome_status":{"category":"Status update unavailable","date":"2018-04"},"persistent_id":"6c58bcfe09236adc6a91aa3670101d35e90253b3405926c59866752ba3714ab4","id":61808113,"location_subtype":"","month":"2017-12"},{"category":"violent-crime","location_type":"Force","location":{"latitude":"51.489271","street":{"id":949520,"name":"On or near Othello Close"},"longitude":"-0.106025"},"context":"","outcome_status":{"category":"Investigation complete; no suspect identified","date":"2017-12"},"persistent_id":"4e1341272d3c8bea063b8dcf8ae3fd4d8fd01aaf10d18237235afae6fb7efa3c","id":61808241,"location_subtype":"","month":"2017-12"},{"category":"violent-crime","location_type":"Force","location":{"latitude":"51.490056","street":{"id":949529,"name":"On or near Kennington Road"},"longitude":"-0.111164"},"context":"","outcome_status":{"category":"Status update unavailable","date":"2018-04"},"persistent_id":"d88c635b3cdec624d95f2939c066926d076827bf6f86e28495b4198cc9c225fe","id":61831551,"location_subtype":"","month":"2017-12"},{"category":"violent-crime","location_type":"Force","location":{"latitude":"51.486456","street":{"id":949482,"name":"On or near Glyn Street"},"longitude":"-0.120516"},"context":"","outcome_status":{"category":"Investigation complete; no suspect identified","date":"2018-01"},"persistent_id":"85dfb23be23546cb6298a63c446045d9ea02a1fa307d7426659caaf722a24f9f","id":61819558,"location_subtype":"","month":"2017-12"},{"category":"violent-crime","location_type":"Force","location":{"latitude":"51.489787","street":{"id":949496,"name":"On or near Nightclub"},"longitude":"-0.121906"},"context":"","outcome_status":{"category":"Investigation complete; no suspect identified","date":"2018-01"},"persistent_id":"77384b0f05076c90abec3791a5bdd72fc745d6c5a3125db29a6295f0a1996448","id":61807865,"location_subtype":"","month":"2017-12"},{"category":"violent-crime","location_type":"Force","location":{"latitude":"51.490107","street":{"id":949268,"name":"On or near Opal Street"},"longitude":"-0.105414"},"context":"","outcome_status":{"category":"Investigation complete; no suspect identified","date":"2018-01"},"persistent_id":"261a601ef987e616a736265a321ee5fcf4b9d39e510aa4f489b83f1ff510dbb5","id":61819933,"location_subtype":"","month":"2017-12"},{"category":"violent-crime","location_type":"Force","location":{"latitude":"51.491806","street":{"id":949470,"name":"On or near Salamanca Place"},"longitude":"-0.120498"},"context":"","outcome_status":{"category":"Status update unavailable","date":"2018-04"},"persistent_id":"16c3926a4bcaafae6f15a483d690931d917212364c37bb9e62dd408b1b04ccb2","id":61820128,"location_subtype":"","month":"2017-12"},{"category":"violent-crime","location_type":"Force","location":{"latitude":"51.490190","street":{"id":949540,"name":"On or near Hotspur Street"},"longitude":"-0.112800"},"context":"","outcome_status":{"category":"Status update unavailable","date":"2018-04"},"persistent_id":"93114f22ff6e82c7229099dfea320eb94a4070b3f0eb0933aee8476588c9b444","id":61805504,"location_subtype":"","month":"2017-12"},{"category":"violent-crime","location_type":"Force","location":{"latitude":"51.492920","street":{"id":953570,"name":"On or near Nightingale Mews"},"longitude":"-0.107012"},"context":"","outcome_status":{"category":"Status update unavailable","date":"2018-04"},"persistent_id":"1536825aaed489008155994ac1e2dfb0f11bc307780763caf8c97a4ca21dbc1c","id":61846153,"location_subtype":"","month":"2017-12"},{"category":"violent-crime","location_type":"Force","location":{"latitude":"51.486799","street":{"id":949489,"name":"On or near Auckland Street"},"longitude":"-0.120617"},"context":"","outcome_status":{"category":"Investigation complete; no suspect identified","date":"2017-12"},"persistent_id":"c07ea865fcc1459699b7ddb4741b2c9c047b9e0ef9486e0c914c2c0e7b712208","id":61844751,"location_subtype":"","month":"2017-12"},{"category":"violent-crime","location_type":"Force","location":{"latitude":"51.492740","street":{"id":953543,"name":"On or near Whitgift Street"},"longitude":"-0.119293"},"context":"","outcome_status":{"category":"Defendant found not guilty","date":"2018-01"},"persistent_id":"ea1591f68988a7c695eaf96a59fdd8d2ad9e207e553340c876bcb710aa956091","id":61847221,"location_subtype":"","month":"2017-12"},{"category":"violent-crime","location_type":"Force","location":{"latitude":"51.489224","street":{"id":949515,"name":"On or near Sancroft Street"},"longitude":"-0.114252"},"context":"","outcome_status":{"category":"Investigation complete; no suspect identified","date":"2018-01"},"persistent_id":"de831d22e1e5fb00fb8be9c170afaba1986ccbd738c850f53cd392d40e97a76b","id":61804882,"location_subtype":"","month":"2017-12"},{"category":"violent-crime","location_type":"Force","location":{"latitude":"51.492365","street":{"id":953572,"name":"On or near Lollard Street"},"longitude":"-0.113863"},"context":"","outcome_status":{"category":"Investigation complete; no suspect identified","date":"2018-02"},"persistent_id":"8802164fda98229ddb6bc63b0d2c1187cb18ea9f05346c31d91f8a32055c20ab","id":61825592,"location_subtype":"","month":"2017-12"},{"category":"violent-crime","location_type":"Force","location":{"latitude":"51.489048","street":{"id":949507,"name":"On or near White Hart Street"},"longitude":"-0.108901"},"context":"","outcome_status":{"category":"Investigation complete; no suspect identified","date":"2018-01"},"persistent_id":"abad0e3c2086bdda33b0424d2aca6605debc1af7ef5c30197a6ccee65159267a","id":61824567,"location_subtype":"","month":"2017-12"},{"category":"violent-crime","location_type":"Force","location":{"latitude":"51.490190","street":{"id":949540,"name":"On or near Hotspur Street"},"longitude":"-0.112800"},"context":"","outcome_status":{"category":"Status update unavailable","date":"2018-04"},"persistent_id":"285f1fee09ec9764aa4e349147f939502765f2538cbad08c382513cd747567f8","id":61816022,"location_subtype":"","month":"2017-12"},{"category":"violent-crime","location_type":"Force","location":{"latitude":"51.490056","street":{"id":949529,"name":"On or near Kennington Road"},"longitude":"-0.111164"},"context":"","outcome_status":{"category":"Status update unavailable","date":"2018-04"},"persistent_id":"6df02932fc00765f6556b1bfac9241eea31fc0f5f0c19efe8991f20ab6c478ca","id":61816259,"location_subtype":"","month":"2017-12"},{"category":"violent-crime","location_type":"Force","location":{"latitude":"51.492069","street":{"id":953557,"name":"On or near Wincott Street"},"longitude":"-0.109453"},"context":"","outcome_status":{"category":"Investigation complete; no suspect identified","date":"2017-12"},"persistent_id":"b5a7621cd090b2d1b49eeca1ba88a38b859ffacd0bf45488d69a85deb91f1150","id":61803451,"location_subtype":"","month":"2017-12"},{"category":"violent-crime","location_type":"Force","location":{"latitude":"51.489271","street":{"id":949520,"name":"On or near Othello Close"},"longitude":"-0.106025"},"context":"","outcome_status":{"category":"Status update unavailable","date":"2018-04"},"persistent_id":"f13cec938d87d67777d9c8f4b6978830633c77e8134328c4dec5fca2ae68b706","id":61803377,"location_subtype":"","month":"2017-12"},{"category":"violent-crime","location_type":"Force","location":{"latitude":"51.493203","street":{"id":953574,"name":"On or near Lambeth Walk"},"longitude":"-0.116191"},"context":"","outcome_status":{"category":"Investigation complete; no suspect identified","date":"2018-01"},"persistent_id":"cdb121dc3152af0cc2ec8c1dcfba00ff3204b71611cfed46ec42fbb154feb569","id":61838656,"location_subtype":"","month":"2017-12"},{"category":"violent-crime","location_type":"Force","location":{"latitude":"51.487032","street":{"id":949495,"name":"On or near Nightclub"},"longitude":"-0.122221"},"context":"","outcome_status":{"category":"Investigation complete; no suspect identified","date":"2018-01"},"persistent_id":"13a9329dba04b24eb5057ee61f6d6020923ef3dc9d15395676f48343818c4bc6","id":61839589,"location_subtype":"","month":"2017-12"},{"category":"violent-crime","location_type":"Force","location":{"latitude":"51.491292","street":{"id":949539,"name":"On or near Kempsford Road"},"longitude":"-0.108087"},"context":"","outcome_status":{"category":"Investigation complete; no suspect identified","date":"2018-03"},"persistent_id":"ebf2afce0047e0fe1ab50b01b12fa4cf652fefa18217984cd99b49ab0b75bfa6","id":61794455,"location_subtype":"","month":"2017-12"},{"category":"violent-crime","location_type":"Force","location":{"latitude":"51.490811","street":{"id":949526,"name":"On or near Marylee Way"},"longitude":"-0.114518"},"context":"","outcome_status":{"category":"Investigation complete; no suspect identified","date":"2018-03"},"persistent_id":"3393c8ab48b8a4a0f1121bab696e8c407bfe1e17804500250c5e66939fa7afcf","id":61815053,"location_subtype":"","month":"2017-12"},{"category":"violent-crime","location_type":"Force","location":{"latitude":"51.489753","street":{"id":949479,"name":"On or near Jonathan Street"},"longitude":"-0.118623"},"context":"","outcome_status":{"category":"Status update unavailable","date":"2018-04"},"persistent_id":"b8e6b357253da9b78d72ee3532b45f87671a2ab8689d9fb02db5a52cfa7a0d79","id":61841760,"location_subtype":"","month":"2017-12"},{"category":"violent-crime","location_type":"Force","location":{"latitude":"51.489768","street":{"id":949550,"name":"On or near Cottington Street"},"longitude":"-0.107301"},"context":"","outcome_status":{"category":"Investigation complete; no suspect identified","date":"2018-01"},"persistent_id":"023cf672b71323734abc86313c81011da6fafdd6134bd3ff98fe973aa9eddd23","id":61818012,"location_subtype":"","month":"2017-12"},{"category":"violent-crime","location_type":"Force","location":{"latitude":"51.491806","street":{"id":949470,"name":"On or near Salamanca Place"},"longitude":"-0.120498"},"context":"","outcome_status":{"category":"Investigation complete; no suspect identified","date":"2018-04"},"persistent_id":"63419a5cc1903847820c1854620281a767b8234676724373e3f359b62968c15f","id":61840238,"location_subtype":"","month":"2017-12"},{"category":"violent-crime","location_type":"Force","location":{"latitude":"51.491377","street":{"id":949475,"name":"On or near Lilac Place"},"longitude":"-0.118412"},"context":"","outcome_status":{"category":"Investigation complete; no suspect identified","date":"2017-12"},"persistent_id":"f048af844f55a526f6f1343fd284bc2fcc96e282fc41bf8ac175414aca3397bb","id":61810083,"location_subtype":"","month":"2017-12"},{"category":"violent-crime","location_type":"Force","location":{"latitude":"51.490811","street":{"id":949526,"name":"On or near Marylee Way"},"longitude":"-0.114518"},"context":"","outcome_status":{"category":"Investigation complete; no suspect identified","date":"2018-03"},"persistent_id":"77b8362a9fc12daa20c9494cc1fa0b7c9be35523ef675240f98e7000576eac0e","id":61843465,"location_subtype":"","month":"2017-12"},{"category":"violent-crime","location_type":"Force","location":{"latitude":"51.489753","street":{"id":949479,"name":"On or near Jonathan Street"},"longitude":"-0.118623"},"context":"","outcome_status":{"category":"Investigation complete; no suspect identified","date":"2018-04"},"persistent_id":"08f4e58815a60b50f66eeabfe157fa51ec7e91bd7cd8a29a2d10d9d3ef8aed97","id":61810241,"location_subtype":"","month":"2017-12"},{"category":"violent-crime","location_type":"Force","location":{"latitude":"51.493489","street":{"id":953542,"name":"On or near Park\/open Space"},"longitude":"-0.118887"},"context":"","outcome_status":{"category":"Investigation complete; no suspect identified","date":"2018-03"},"persistent_id":"a202843a958da71e5e34c59d55c9a124a72bd9aa85ed1b99c8507504f87d6acb","id":61843912,"location_subtype":"","month":"2017-12"},{"category":"violent-crime","location_type":"Force","location":{"latitude":"51.490831","street":{"id":949471,"name":"On or near Randall Road"},"longitude":"-0.120826"},"context":"","outcome_status":{"category":"Status update unavailable","date":"2018-04"},"persistent_id":"9e7283e6424e08030bb9aef4027aa7e0fd3f2b16f63ab798991f4dd2e1ebce2c","id":61809007,"location_subtype":"","month":"2017-12"},{"category":"violent-crime","location_type":"Force","location":{"latitude":"51.488911","street":{"id":949492,"name":"On or near Petrol Station"},"longitude":"-0.122792"},"context":"","outcome_status":{"category":"Offender given a caution","date":"2017-12"},"persistent_id":"066f528ee545c6561bb640c792b4d1fba8cd6df44c6a8333a5b19ae2741d42cc","id":61812834,"location_subtype":"","month":"2017-12"},{"category":"violent-crime","location_type":"Force","location":{"latitude":"51.494202","street":{"id":953559,"name":"On or near Walcot Square"},"longitude":"-0.108961"},"context":"","outcome_status":{"category":"Investigation complete; no suspect identified","date":"2018-01"},"persistent_id":"2f41ad582aeb4475988a89b158c0d79253f7e2832e76b26597e54701d61f26a8","id":61827653,"location_subtype":"","month":"2017-12"},{"category":"violent-crime","location_type":"Force","location":{"latitude":"51.490190","street":{"id":949540,"name":"On or near Hotspur Street"},"longitude":"-0.112800"},"context":"","outcome_status":{"category":"Investigation complete; no suspect identified","date":"2017-12"},"persistent_id":"297f6d7af28545682dc82ebda0f1d135819eac0346a04e22b446b06b17ca62a0","id":61795147,"location_subtype":"","month":"2017-12"},{"category":"violent-crime","location_type":"Force","location":{"latitude":"51.493337","street":{"id":953584,"name":"On or near Bishop's Terrace"},"longitude":"-0.110005"},"context":"","outcome_status":{"category":"Investigation complete; no suspect identified","date":"2017-12"},"persistent_id":"dc2f2a6dafd3c7a2183a016212e4ba65b20f1476588a4882866c4568614d3da0","id":61816388,"location_subtype":"","month":"2017-12"},{"category":"violent-crime","location_type":"Force","location":{"latitude":"51.488184","street":{"id":949477,"name":"On or near Laud Street"},"longitude":"-0.120071"},"context":"","outcome_status":{"category":"Offender given a caution","date":"2018-05"},"persistent_id":"4fb7fdfe8aedbf1ca14ec0894f50a581eca2e5b0279d9ba44364d23b8b78ad0e","id":61812820,"location_subtype":"","month":"2017-12"}]