[{"category":"anti-social-behaviour","location_type":"Force","location":{"latitude":"51.543168","street":{"id":969488,"name":"On or near Shakespeare Crescent"},"longitude":"0.059178"},"context":"","outcome_status":null,"persistent_id":"","id":61786609,"location_subtype":"","month":"2017-12"},{"category":"anti-social-behaviour","location_type":"Force","location":{"latitude":"51.540531","street":{"id":963288,"name":"On or near Supermarket"},"longitude":"0.051069"},"context":"","outcome_status":null,"persistent_id":"","id":61786664,"location_subtype":"","month":"2017-12"},{"category":"anti-social-behaviour","location_type":"Force","location":{"latitude":"51.540531","street":{"id":963288,"name":"On or near Supermarket"},"longitude":"0.051069"},"context":"","outcome_status":null,"persistent_id":"","id":61786665,"location_subtype":"","month":"2017-12"},{"category":"anti-social-behaviour","location_type":"Force","location":{"latitude":"51.543646","street":{"id":969484,"name":"On or near High Street North"},"longitude":"0.049825"},"context":"","outcome_status":null,"persistent_id":"","id":61786676,"location_subtype":"","month":"2017-12"},{"category":"anti-social-behaviour","location_type":"Force","location":{"latitude":"51.543646","street":{"id":969484,"name":"On or near High Street North"},"longitude":"0.049825"},"context":"","outcome_status":null,"persistent_id":"","id":61786677,"location_subtype":"","month":"2017-12"},{"category":"anti-social-behaviour","location_type":"Force","location":{"latitude":"51.543646","street":{"id":969484,"name":"On or near High Street North"},"longitude":"0.049825"},"context":"","outcome_status":null,"persistent_id":"","id":61786678,"location_subtype":"","month":"2017-12"},{"category":"anti-social-behaviour","location_type":"Force","location":{"latitude":"51.545001","street":{"id":969376,"name":"On or near Hathaway Crescent"},"longitude":"0.061294"},"context":"","outcome_status":null,"persistent_id":"","id":61786576,"location_subtype":"","month":"2017-12"},{"category":"anti-social-behaviour","location_type":"Force","location":{"latitude":"51.545001","street":{"id":969376,"name":"On or near Hathaway Crescent"},"longitude":"0.061294"},"context":"","outcome_status":null,"persistent_id":"","id":61786574,"location_subtype":"","month":"2017-12"},{"category":"anti-social-behaviour","location_type":"Force","location":{"latitude":"51.538766","street":{"id":963518,"name":"On or near Katherine Road"},"longitude":"0.041400"},"context":"","outcome_status":null,"persistent_id":"","id":61787071,"location_subtype":"","month":"2017-12"},{"category":"anti-social-behaviour","location_type":"Force","location":{"latitude":"51.538766","street":{"id":963518,"name":"On or near Katherine Road"},"longitude":"0.041400"},"context":"","outcome_status":null,"persistent_id":"","id":61787070,"location_subtype":"","month":"2017-12"},{"category":"anti-social-behaviour","location_type":"Force","location":{"latitude":"51.545001","street":{"id":969376,"name":"On or near Hathaway Crescent"},"longitude":"0.061294"},"context":"","outcome_status":null,"persistent_id":"","id":61786575,"location_subtype":"","month":"2017-12"},{"category":"anti-social-behaviour","location_type":"Force","location":{"latitude":"51.538766","street":{"id":963518,"name":"On or near Katherine Road"},"longitude":"0.041400"},"context":"","outcome_status":null,"persistent_id":"","id":61787069,"location_subtype":"","month":"2017-12"},{"category":"anti-social-behaviour","location_type":"Force","location":{"latitude":"51.538766","street":{"id":963518,"name":"On or near Katherine Road"},"longitude":"0.041400"},"context":"","outcome_status":null,"persistent_id":"","id":61787068,"location_subtype":"","month":"2017-12"},{"category":"anti-social-behaviour","location_type":"Force","location":{"latitude":"51.538766","street":{"id":963518,"name":"On or near Katherine Road"},"longitude":"0.041400"},"context":"","outcome_status":null,"persistent_id":"","id":61787067,"location_subtype":"","month":"2017-12"},{"category":"anti-social-behaviour","location_type":"Force","location":{"latitude":"51.538766","street":{"id":963518,"name":"On or near Katherine Road"},"longitude":"0.041400"},"context":"","outcome_status":null,"persistent_id":"","id":61787066,"location_subtype":"","month":"2017-12"},{"category":"anti-social-behaviour","location_type":"Force","location":{"latitude":"51.538766","street":{"id":963518,"name":"On or near Katherine Road"},"longitude":"0.041400"},"context":"","outcome_status":null,"persistent_id":"","id":61787065,"location_subtype":"","month":"2017-12"},{"category":"anti-social-behaviour","location_type":"Force","location":{"latitude":"51.545001","street":{"id":969376,"name":"On or near Hathaway Crescent"},"longitude":"0.061294"},"context":"","outcome_status":null,"persistent_id":"","id":61786573,"location_subtype":"","month":"2017-12"},{"category":"anti-social-behaviour","location_type":"Force","location":{"latitude":"51.540704","street":{"id":963484,"name":"On or near Shrewsbury Road"},"longitude":"0.043708"},"context":"","outcome_status":null,"persistent_id":"","id":61786711,"location_subtype":"","month":"2017-12"},{"category":"anti-social-behaviour","location_type":"Force","location":{"latitude":"51.541519","street":{"id":963291,"name":"On or near Woodhouse Grove"},"longitude":"0.047552"},"context":"","outcome_status":null,"persistent_id":"","id":61786691,"location_subtype":"","month":"2017-12"},{"category":"anti-social-behaviour","location_type":"Force","location":{"latitude":"51.545001","street":{"id":969376,"name":"On or near Hathaway Crescent"},"longitude":"0.061294"},"context":"","outcome_status":null,"persistent_id":"","id":61786577,"location_subtype":"","month":"2017-12"},{"category":"anti-social-behaviour","location_type":"Force","location":{"latitude":"51.548038","street":{"id":969478,"name":"On or near Bluebell Avenue"},"longitude":"0.049128"},"context":"","outcome_status":null,"persistent_id":"","id":61786684,"location_subtype":"","month":"2017-12"},{"category":"anti-social-behaviour","location_type":"Force","location":{"latitude":"51.545001","street":{"id":969376,"name":"On or near Hathaway Crescent"},"longitude":"0.061294"},"context":"","outcome_status":null,"persistent_id":"","id":61786578,"location_subtype":"","month":"2017-12"},{"category":"anti-social-behaviour","location_type":"Force","location":{"latitude":"51.548038","street":{"id":969478,"name":"On or near Bluebell Avenue"},"longitude":"0.049128"},"context":"","outcome_status":null,"persistent_id":"","id":61786683,"location_subtype":"","month":"2017-12"},{"category":"anti-social-behaviour","location_type":"Force","location":{"latitude":"51.543168","street":{"id":969488,"name":"On or near Shakespeare Crescent"},"longitude":"0.059178"},"context":"","outcome_status":null,"persistent_id":"","id":61786600,"location_subtype":"","month":"2017-12"},{"category":"burglary","location_type":"Force","location":{"latitude":"51.546486","street":{"id":969368,"name":"On or near Sheridan Road"},"longitude":"0.054568"},"context":"","outcome_status":{"category":"Status update unavailable","date":"2018-04"},"persistent_id":"e272a87c8e97310e8410ef79abd4f1a17b47549ee22f11284ed439335ed91fa2","id":61851702,"location_subtype":"","month":"2017-12"},{"category":"burglary","location_type":"Force","location":{"latitude":"51.544402","street":{"id":969370,"name":"On or near Rosebery Avenue"},"longitude":"0.054431"},"context":"","outcome_status":{"category":"Investigation complete; no suspect identified","date":"2018-05"},"persistent_id":"5e88772ee5b6de8750b8ea4c6cbeed65763fedea8115853c6c727de0f582d7e2","id":61807277,"location_subtype":"","month":"2017-12"},{"category":"burglary","location_type":"Force","location":{"latitude":"51.543646","street":{"id":969484,"name":"On or near High Street North"},"longitude":"0.049825"},"context":"","outcome_status":{"category":"Investigation complete; no suspect identified","date":"2018-01"},"persistent_id":"503c629753d5ca4824450fba5f157cde5ab95bb57238679010daf2b364693c06","id":61823760,"location_subtype":"","month":"2017-12"},{"category":"burglary","location_type":"Force","location":{"latitude":"51.541465","street":{"id":963269,"name":"On or near Wordsworth Avenue"},"longitude":"0.049107"},"context":"","outcome_status":{"category":"Status update unavailable","date":"2018-04"},"persistent_id":"e87619ad5b4cb77359b63c65686f7c73a808f9ba5a6a836366f8fcfaa147346e","id":61849481,"location_subtype":"","month":"2017-12"},{"category":"burglary","location_type":"Force","location":{"latitude":"51.538766","street":{"id":963518,"name":"On or near Katherine Road"},"longitude":"0.041400"},"context":"","outcome_status":{"category":"Status update unavailable","date":"2018-04"},"persistent_id":"a872ea8d716d995a1e4d7ce6908522baffecf15ac915ece3fd5b0ede3b09fbd9","id":61807412,"location_subtype":"","month":"2017-12"},{"category":"burglary","location_type":"Force","location":{"latitude":"51.543168","street":{"id":969488,"name":"On or near Shakespeare Crescent"},"longitude":"0.059178"},"context":"","outcome_status":{"category":"Status update unavailable","date":"2018-04"},"persistent_id":"976fac225981a4969814f2f15ee8a8eb5de929ccb64a89b13e327e467aa4fa48","id":61798014,"location_subtype":"","month":"2017-12"},{"category":"criminal-damage-arson","location_type":"Force","location":{"latitude":"51.543322","street":{"id":969483,"name":"On or near Shelley Avenue"},"longitude":"0.050878"},"context":"","outcome_status":{"category":"Investigation complete; no suspect identified","date":"2018-01"},"persistent_id":"570b263bd4e5e9d2e125791a5b893b60efb2017a116a8b24607da5e00ea42777","id":61827549,"location_subtype":"","month":"2017-12"},{"category":"criminal-damage-arson","location_type":"Force","location":{"latitude":"51.538766","street":{"id":963518,"name":"On or near Katherine Road"},"longitude":"0.041400"},"context":"","outcome_status":{"category":"Status update unavailable","date":"2018-04"},"persistent_id":"6b83dd6c74b55cf3eb9a02f87b9dca8d7bfd49ea53209a86acd458a498864c35","id":61807497,"location_subtype":"","month":"2017-12"},{"category":"criminal-damage-arson","location_type":"Force","location":{"latitude":"51.540523","street":{"id":963353,"name":"On or near East Avenue"},"longitude":"0.053045"},"context":"","outcome_status":{"category":"Status update unavailable","date":"2018-04"},"persistent_id":"14644fab37941afd9e26258791f42fbbffa84de161b3cba422d6a3ae3841e9cb","id":61832511,"location_subtype":"","month":"2017-12"},{"category":"criminal-damage-arson","location_type":"Force","location":{"latitude":"51.546108","street":{"id":969449,"name":"On or near High Street North"},"longitude":"0.048940"},"context":"","outcome_status":{"category":"Offender fined","date":"2017-12"},"persistent_id":"8a6333213dca2e5a161540d4d470ff95ba8e92ad0dcf40fcba9eabb28e8649c5","id":61825446,"location_subtype":"","month":"2017-12"},{"category":"criminal-damage-arson","location_type":"Force","location":{"latitude":"51.538766","street":{"id":963518,"name":"On or near Katherine Road"},"longitude":"0.041400"},"context":"","outcome_status":{"category":"Status update unavailable","date":"2018-04"},"persistent_id":"8722aa341bed94b19457b61d49929b319aeece8485d34cfa5830d6186596c2b9","id":61811131,"location_subtype":"","month":"2017-12"},{"category":"criminal-damage-arson","location_type":"Force","location":{"latitude":"51.540531","street":{"id":963288,"name":"On or near Supermarket"},"longitude":"0.051069"},"context":"","outcome_status":{"category":"Investigation complete; no suspect identified","date":"2018-01"},"persistent_id":"1b4a60231f49f879cc7a4d87ea57d5b88aae304faa6fa73f927649f86de2a95c","id":61803459,"location_subtype":"","month":"2017-12"},{"category":"criminal-damage-arson","location_type":"Force","location":{"latitude":"51.540523","street":{"id":963353,"name":"On or near East Avenue"},"longitude":"0.053045"},"context":"","outcome_status":{"category":"Status update unavailable","date":"2018-04"},"persistent_id":"4ffc3ab3b88f08ab59722b25e9b4a0a5b82ba9399b22d45662ca72f5b64bc9ec","id":61821930,"location_subtype":"","month":"2017-12"},{"category":"drugs","location_type":"Force","location":{"latitude":"51.541519","street":{"id":963291,"name":"On or near Woodhouse Grove"},"longitude":"0.047552"},"context":"","outcome_status":{"category":"Offender given a drugs possession warning","date":"2017-12"},"persistent_id":"8ca7bc873b0842ee092c5ba6f538e106cbd36c0e5ce3a44fd46ff7008d0ebd25","id":61848573,"location_subtype":"","month":"2017-12"},{"category":"drugs","location_type":"Force","location":{"latitude":"51.540814","street":{"id":963271,"name":"On or near Tennyson Avenue"},"longitude":"0.049294"},"context":"","outcome_status":{"category":"Offender given community sentence","date":"2018-01"},"persistent_id":"a683bb50049eceaecde219fa9c8ec691e3a60fb1c93b16c1f88e44f2858bd25f","id":61829610,"location_subtype":"","month":"2017-12"},{"category":"other-theft","location_type":"Force","location":{"latitude":"51.546108","street":{"id":969449,"name":"On or near High Street North"},"longitude":"0.048940"},"context":"","outcome_status":{"category":"Investigation complete; no suspect identified","date":"2017-12"},"persistent_id":"4c76677cb1bd218aeedcd3e4b4140f521945c551007cfb15fa48903f380ad56b","id":61808723,"location_subtype":"","month":"2017-12"},{"category":"other-theft","location_type":"Force","location":{"latitude":"51.546108","street":{"id":969449,"name":"On or near High Street North"},"longitude":"0.048940"},"context":"","outcome_status":{"category":"Status update unavailable","date":"2018-04"},"persistent_id":"5f7565f13ade8f6e4043e17627b0ea63e54da329fcbf2f775a87fbaa6bbdcab5","id":61810042,"location_subtype":"","month":"2017-12"},{"category":"other-theft","location_type":"Force","location":{"latitude":"51.540824","street":{"id":963325,"name":"On or near Sibley Grove"},"longitude":"0.055394"},"context":"","outcome_status":{"category":"Investigation complete; no suspect identified","date":"2017-12"},"persistent_id":"681bd3a65c65d54d1d157b4a76ee43e7eaf96b18bab62d3b5ec76cf41b80841f","id":61800688,"location_subtype":"","month":"2017-12"},{"category":"other-theft","location_type":"Force","location":{"latitude":"51.540531","street":{"id":963288,"name":"On or near Supermarket"},"longitude":"0.051069"},"context":"","outcome_status":{"category":"Investigation complete; no suspect identified","date":"2018-02"},"persistent_id":"e825783a247652014a7c7857cf76922fd1fd46213988fb4bd69fc9601c501048","id":61804961,"location_subtype":"","month":"2017-12"},{"category":"other-theft","location_type":"Force","location":{"latitude":"51.547647","street":{"id":969419,"name":"On or near Leaming Close"},"longitude":"0.053510"},"context":"","outcome_status":{"category":"Investigation complete; no suspect identified","date":"2018-03"},"persistent_id":"e9b2dccda9d787226a30f4c5f2a7cc7994a3ff77fa20b14c31814f96e0c5efc3","id":61842581,"location_subtype":"","month":"2017-12"},{"category":"public-order","location_type":"Force","location":{"latitude":"51.546108","street":{"id":969449,"name":"On or near High Street North"},"longitude":"0.048940"},"context":"","outcome_status":{"category":"Investigation complete; no suspect identified","date":"2018-01"},"persistent_id":"089a9fd2a10adfd3fd70ec6dbb69322aaba6882660c65e3270d68a7651ddbc52","id":61802888,"location_subtype":"","month":"2017-12"},{"category":"public-order","location_type":"Force","location":{"latitude":"51.540531","street":{"id":963288,"name":"On or near Supermarket"},"longitude":"0.051069"},"context":"","outcome_status":{"category":"Investigation complete; no suspect identified","date":"2018-01"},"persistent_id":"056dfd1aff2ad5a0a2d104dac6261b017c08722b0523faa24a47279345cf3be0","id":61795203,"location_subtype":"","month":"2017-12"},{"category":"robbery","location_type":"Force","location":{"latitude":"51.540531","street":{"id":963288,"name":"On or near Supermarket"},"longitude":"0.051069"},"context":"","outcome_status":{"category":"Investigation complete; no suspect identified","date":"2018-04"},"persistent_id":"57e16a43599b3b64498e00d309b3e4cc2c1c9421437e58d983148a37f1c6a4ff","id":61833138,"location_subtype":"","month":"2017-12"},{"category":"robbery","location_type":"Force","location":{"latitude":"51.539075","street":{"id":963534,"name":"On or near Edith Road"},"longitude":"0.043318"},"context":"","outcome_status":{"category":"Investigation complete; no suspect identified","date":"2018-01"},"persistent_id":"2b495aef06524c88729d6ae1c56bdad97f1e4bcecdade7b37d1c42f3cbace3a2","id":61818194,"location_subtype":"","month":"2017-12"},{"category":"robbery","location_type":"Force","location":{"latitude":"51.540531","street":{"id":963288,"name":"On or near Supermarket"},"longitude":"0.051069"},"context":"","outcome_status":{"category":"Status update unavailable","date":"2018-04"},"persistent_id":"6784a1d87520f0f2341b7c4e328cc98fd6bf6d756669765522980a40c64725fe","id":61820052,"location_subtype":"","month":"2017-12"},{"category":"theft-from-the-person","location_type":"Force","location":{"latitude":"51.540531","street":{"id":963288,"name":"On or near Supermarket"},"longitude":"0.051069"},"context":"","outcome_status":{"category":"Status update unavailable","date":"2018-04"},"persistent_id":"527f166e053d581f0aadd649504cd218c7c2aeee01dd08024b96300e8c901739","id":61815686,"location_subtype":"","month":"2017-12"},{"category":"theft-from-the-person","location_type":"Force","location":{"latitude":"51.540814","street":{"id":963271,"name":"On or near Tennyson Avenue"},"longitude":"0.049294"},"context":"","outcome_status":{"category":"Investigation complete; no suspect identified","date":"2018-03"},"persistent_id":"406e24f618a0be0218a3d43cc80151d7b81bceebfd6b604029dce45b234f2922","id":61799999,"location_subtype":"","month":"2017-12"},{"category":"vehicle-crime","location_type":"Force","location":{"latitude":"51.544873","street":{"id":969377,"name":"On or near Goldsmith Avenue"},"longitude":"0.052692"},"context":"","outcome_status":{"category":"Status update unavailable","date":"2018-04"},"persistent_id":"f556eb6392f5b1c9aed18001cbd1d9f3089e14132dd758d3a5f547fed4e7503f","id":61790420,"location_subtype":"","month":"2017-12"},{"category":"vehicle-crime","location_type":"Force","location":{"latitude":"51.545632","street":{"id":969378,"name":"On or near Essex Road"},"longitude":"0.052986"},"context":"","outcome_status":{"category":"Status update unavailable","date":"2018-04"},"persistent_id":"bb364f567d2e99f5ca389c2648b5b00ca0fe48541eea70a4b5bb7cf2c1eced29","id":61821744,"location_subtype":"","month":"2017-12"},{"category":"vehicle-crime","location_type":"Force","location":{"latitude":"51.547682","street":{"id":969467,"name":"On or near Warwick Road"},"longitude":"0.049920"},"context":"","outcome_status":{"category":"Status update unavailable","date":"2018-04"},"persistent_id":"9445b76324404da23df836b4417fc156577c942be136025faf613724ee9d6769","id":61801788,"location_subtype":"","month":"2017-12"},{"category":"vehicle-crime","location_type":"Force","location":{"latitude":"51.541281","street":{"id":963488,"name":"On or near Rutland Road"},"longitude":"0.043114"},"context":"","outcome_status":{"category":"Status update unavailable","date":"2018-04"},"persistent_id":"24c1b7a69ce4ea8d5ba6600fe39bf3df2f9a00945c584f5b6b63c039dd86b635","id":61833772,"location_subtype":"","month":"2017-12"},{"category":"vehicle-crime","location_type":"Force","location":{"latitude":"51.546948","street":{"id":969448,"name":"On or near Rixsen Road"},"longitude":"0.051300"},"context":"","outcome_status":{"category":"Status update unavailable","date":"2018-04"},"persistent_id":"9d4e20614d31deadb3c255463e374c2d5adaf8202250a332876aefc4f5a91d70","id":61814968,"location_subtype":"","month":"2017-12"},{"category":"vehicle-crime","location_type":"Force","location":{"latitude":"51.547682","street":{"id":969467,"name":"On or near Warwick Road"},"longitude":"0.049920"},"context":"","outcome_status":{"category":"Investigation complete; no suspect identified","date":"2018-06"},"persistent_id":"b3263ff60fd11b8d9602c871d52b9750a072ad868440aab5c80f07bb6f90439b","id":61821713,"location_subtype":"","month":"2017-12"},{"category":"violent-crime","location_type":"Force","location":{"latitude":"51.540531","street":{"id":963288,"name":"On or near Supermarket"},"longitude":"0.051069"},"context":"","outcome_status":{"category":"Status update unavailable","date":"2018-04"},"persistent_id":"9cca570011113aaebb66d772d5878f807b4f2e928288e2c14f264d0ec0be8c80","id":61808931,"location_subtype":"","month":"2017-12"},{"category":"violent-crime","location_type":"Force","location":{"latitude":"51.545632","street":{"id":969378,"name":"On or near Essex Road"},"longitude":"0.052986"},"context":"","outcome_status":{"category":"Defendant found not guilty","date":"2018-01"},"persistent_id":"0f81aa9567178a7b54526891613bc169b3256beae37e018a4687fdfaea350cf8","id":61816228,"location_subtype":"","month":"2017-12"},{"category":"violent-crime","location_type":"Force","location":{"latitude":"51.538694","street":{"id":963295,"name":"On or near Milton Avenue"},"longitude":"0.047122"},"context":"","outcome_status":{"category":"Investigation complete; no suspect identified","date":"2018-01"},"persistent_id":"a72abf5f38d19de03350515c51fb2e6ab025f08cb1c06df403a5a0ee6c01b54e","id":61813130,"location_subtype":"","month":"2017-12"},{"category":"violent-crime","location_type":"Force","location":{"latitude":"51.541465","street":{"id":963269,"name":"On or near Wordsworth Avenue"},"longitude":"0.049107"},"context":"","outcome_status":{"category":"Investigation complete; no suspect identified","date":"2018-01"},"persistent_id":"78c99b3a78e9eb18d07dc49f261f6963c195150ca274213e2af8cb504c614822","id":61840406,"location_subtype":"","month":"2017-12"},{"category":"violent-crime","location_type":"Force","location":{"latitude":"51.540523","street":{"id":963353,"name":"On or near East Avenue"},"longitude":"0.053045"},"context":"","outcome_status":{"category":"Investigation complete; no suspect identified","date":"2018-01"},"persistent_id":"145f519bcd4ea0bc43dbbb544e1a2442618162c84c5d7e8e46f67f7c410823fd","id":61820780,"location_subtype":"","month":"2017-12"},{"category":"violent-crime","location_type":"Force","location":{"latitude":"51.544007","street":{"id":969491,"name":"On or near Browning Road"},"longitude":"0.054932"},"context":"","outcome_status":{"category":"Investigation complete; no suspect identified","date":"2018-02"},"persistent_id":"b676c7161200530b3c599e9671061dce5240eac6a907e3e817dc7e56b0c3ed13","id":61809079,"location_subtype":"","month":"2017-12"},{"category":"violent-crime","location_type":"Force","location":{"latitude":"51.541353","street":{"id":963352,"name":"On or near Gladstone Avenue"},"longitude":"0.052923"},"context":"","outcome_status":{"category":"Investigation complete; no suspect identified","date":"2018-02"},"persistent_id":"5410ff47a9e7c94c9c5b0c1316f814400e1eaa2a25c161e6b74ef3320a127f24","id":61829426,"location_subtype":"","month":"2017-12"},{"category":"violent-crime","location_type":"Force","location":{"latitude":"51.538766","street":{"id":963518,"name":"On or near Katherine Road"},"longitude":"0.041400"},"context":"","outcome_status":{"category":"Offender given a caution","date":"2017-12"},"persistent_id":"2253f5139a04af2f0eacf0cf7952b295e448607722a787d6dc34a6883992b024","id":61806224,"location_subtype":"","month":"2017-12"},{"category":"violent-crime","location_type":"Force","location":{"latitude":"51.540171","street":{"id":963542,"name":"On or near Chester Road"},"longitude":"0.041824"},"context":"","outcome_status":{"category":"Court result unavailable","date":"2018-06"},"persistent_id":"99957e295b76bd292c7468f7fd97ce338e986192e1eb67c5d12cbba84a624c4c","id":61829968,"location_subtype":"","month":"2017-12"},{"category":"violent-crime","location_type":"Force","location":{"latitude":"51.541465","street":{"id":963269,"name":"On or near Wordsworth Avenue"},"longitude":"0.049107"},"context":"","outcome_status":{"category":"Investigation complete; no suspect identified","date":"2018-01"},"persistent_id":"81d3828fe635b8054d9ee4ca17b59bb51691f5ec222fb09c9e8e56b08ed8a39f","id":61838139,"location_subtype":"","month":"2017-12"},{"category":"violent-crime","location_type":"Force","location":{"latitude":"51.540171","street":{"id":963542,"name":"On or near Chester Road"},"longitude":"0.041824"},"context":"","outcome_status":{"category":"Status update unavailable","date":"2018-04"},"persistent_id":"aeed56470a2aef55b16600a9de1f22517f42ee1a9308889505051cc9b72e3bdc","id":61830778,"location_subtype":"","month":"2017-12"},{"category":"violent-crime","location_type":"Force","location":{"latitude":"51.540171","street":{"id":963542,"name":"On or near Chester Road"},"longitude":"0.041824"},"context":"","outcome_status":{"category":"Awaiting court outcome","date":"2018-01"},"persistent_id":"aeed56470a2aef55b16600a9de1f22517f42ee1a9308889505051cc9b72e3bdc","id":61830779,"location_subtype":"","month":"2017-12"},{"category":"violent-crime","location_type":"Force","location":{"latitude":"51.547338","street":{"id":969414,"name":"On or near Morris Avenue"},"longitude":"0.055731"},"context":"","outcome_status":{"category":"Investigation complete; no suspect identified","date":"2017-12"},"persistent_id":"ccdee14f6880c2a105f57ef4fef9830ecaeabb2da41f45272a08f21c0b487182","id":61810356,"location_subtype":"","month":"2017-12"},{"category":"violent-crime","location_type":"Force","location":{"latitude":"51.544402","street":{"id":969370,"name":"On or near Rosebery Avenue"},"longitude":"0.054431"},"context":"","outcome_status":{"category":"Investigation complete; no suspect identified","date":"2018-01"},"persistent_id":"7e456452205890d387a41ed0fc9f3d306418e7b50cbc29bd66a69bf4eb0c1257","id":61832721,"location_subtype":"","month":"2017-12"},{"category":"violent-crime","location_type":"Force","location":{"latitude":"51.546419","street":{"id":969447,"name":"On or near Stanley Road"},"longitude":"0.050166"},"context":"","outcome_status":{"category":"Investigation complete; no suspect identified","date":"2018-01"},"persistent_id":"697bb26e56c5e9a9f45e7fe2ebedc58f7b92274fcc5c6f7e18e6114dfa8417dc","id":61810080,"location_subtype":"","month":"2017-12"},{"category":"violent-crime","location_type":"Force","location":{"latitude":"51.545586","street":{"id":969369,"name":"On or near Ruskin Avenue"},"longitude":"0.053604"},"context":"","outcome_status":{"category":"Investigation complete; no suspect identified","date":"2018-01"},"persistent_id":"4511dc259390808729140216107a3e6e53ec14950b2d3860a80315344afb52b3","id":61795386,"location_subtype":"","month":"2017-12"},{"category":"violent-crime","location_type":"Force","location":{"latitude":"51.544873","street":{"id":969377,"name":"On or near Goldsmith Avenue"},"longitude":"0.052692"},"context":"","outcome_status":{"category":"Investigation complete; no suspect identified","date":"2018-06"},"persistent_id":"935bc2b3e824fca9d2e51f7d6cdb6ddb0a1e222d1730e61f55098c994cdc1b8f","id":61848603,"location_subtype":"","month":"2017-12"},{"category":"violent-crime","location_type":"Force","location":{"latitude":"51.540704","street":{"id":963484,"name":"On or near Shrewsbury Road"},"longitude":"0.043708"},"context":"","outcome_status":{"category":"Investigation complete; no suspect identified","date":"2017-12"},"persistent_id":"5a81210ae98d89e4ee54577dca262327f643284bcfcb591e465d4f4a5352312a","id":61826131,"location_subtype":"","month":"2017-12"},{"category":"violent-crime","location_type":"Force","location":{"latitude":"51.539075","street":{"id":963534,"name":"On or near Edith Road"},"longitude":"0.043318"},"context":"","outcome_status":{"category":"Status update unavailable","date":"2018-04"},"persistent_id":"44381ccc8de6fafc8760f037e81477e81ce9327d5c1be6c6ed0b48ef2253b76e","id":61843341,"location_subtype":"","month":"2017-12"},{"category":"violent-crime","location_type":"Force","location":{"latitude":"51.544007","street":{"id":969491,"name":"On or near Browning Road"},"longitude":"0.054932"},"context":"","outcome_status":{"category":"Investigation complete; no suspect identified","date":"2018-04"},"persistent_id":"cf653c72307f454357b1531bbaa6f4275656e8fb7e73d4c275204cd485ca1f65","id":61822505,"location_subtype":"","month":"2017-12"},{"category":"violent-crime","location_type":"Force","location":{"latitude":"51.545910","street":{"id":969450,"name":"On or near Coleridge Avenue"},"longitude":"0.051008"},"context":"","outcome_status":{"category":"Investigation complete; no suspect identified","date":"2018-01"},"persistent_id":"49d803ba787abaaed5cda93bb33c94f6d054203f3418b7b7497bd336549ddc5b","id":61804721,"location_subtype":"","month":"2017-12"},{"category":"violent-crime","location_type":"Force","location":{"latitude":"51.543168","street":{"id":969488,"name":"On or near Shakespeare Crescent"},"longitude":"0.059178"},"context":"","outcome_status":{"category":"Investigation complete; no suspect identified","date":"2018-01"},"persistent_id":"f7aae769bc3aff9a63175735976c804f9df293cc9e87999fa695fe9f9cd635a2","id":61818687,"location_subtype":"","month":"2017-12"},{"category":"violent-crime","location_type":"Force","location":{"latitude":"51.540778","street":{"id":963489,"name":"On or near Rutland Road"},"longitude":"0.041043"},"context":"","outcome_status":{"category":"Investigation complete; no suspect identified","date":"2018-01"},"persistent_id":"f80b461de7c23627897cdb83be6cb1ff853fb546c9106455e57b72c698c0c033","id":61819372,"location_subtype":"","month":"2017-12"}]