[{"category":"anti-social-behaviour","location_type":"Force","location":{"latitude":"51.533483","street":{"id":964809,"name":"On or near Chapel Market"},"longitude":"-0.109107"},"context":"","outcome_status":null,"persistent_id":"","id":63844912,"location_subtype":"","month":"2018-03"},{"category":"anti-social-behaviour","location_type":"Force","location":{"latitude":"51.533148","street":{"id":964811,"name":"On or near Shopping Area"},"longitude":"-0.109525"},"context":"","outcome_status":null,"persistent_id":"","id":63844909,"location_subtype":"","month":"2018-03"},{"category":"anti-social-behaviour","location_type":"Force","location":{"latitude":"51.539890","street":{"id":964711,"name":"On or near Lonsdale Square"},"longitude":"-0.108221"},"context":"","outcome_status":null,"persistent_id":"","id":63844907,"location_subtype":"","month":"2018-03"},{"category":"anti-social-behaviour","location_type":"Force","location":{"latitude":"51.534022","street":{"id":964812,"name":"On or near Supermarket"},"longitude":"-0.107383"},"context":"","outcome_status":null,"persistent_id":"","id":63844881,"location_subtype":"","month":"2018-03"},{"category":"anti-social-behaviour","location_type":"Force","location":{"latitude":"51.538523","street":{"id":964688,"name":"On or near Sheen Grove"},"longitude":"-0.112114"},"context":"","outcome_status":null,"persistent_id":"","id":63844953,"location_subtype":"","month":"2018-03"},{"category":"anti-social-behaviour","location_type":"Force","location":{"latitude":"51.536411","street":{"id":964743,"name":"On or near Cloudesley Street"},"longitude":"-0.108308"},"context":"","outcome_status":null,"persistent_id":"","id":63844899,"location_subtype":"","month":"2018-03"},{"category":"anti-social-behaviour","location_type":"Force","location":{"latitude":"51.541740","street":{"id":964765,"name":"On or near Barnsbury Square"},"longitude":"-0.111461"},"context":"","outcome_status":null,"persistent_id":"","id":63844942,"location_subtype":"","month":"2018-03"},{"category":"anti-social-behaviour","location_type":"Force","location":{"latitude":"51.534022","street":{"id":964812,"name":"On or near Supermarket"},"longitude":"-0.107383"},"context":"","outcome_status":null,"persistent_id":"","id":63844882,"location_subtype":"","month":"2018-03"},{"category":"anti-social-behaviour","location_type":"Force","location":{"latitude":"51.531879","street":{"id":964794,"name":"On or near Cumming Street"},"longitude":"-0.115561"},"context":"","outcome_status":null,"persistent_id":"","id":63844975,"location_subtype":"","month":"2018-03"},{"category":"anti-social-behaviour","location_type":"Force","location":{"latitude":"51.533259","street":{"id":964805,"name":"On or near Risinghill Street"},"longitude":"-0.111899"},"context":"","outcome_status":null,"persistent_id":"","id":63844941,"location_subtype":"","month":"2018-03"},{"category":"anti-social-behaviour","location_type":"Force","location":{"latitude":"51.532811","street":{"id":964789,"name":"On or near Penton Street"},"longitude":"-0.111442"},"context":"","outcome_status":null,"persistent_id":"","id":63844940,"location_subtype":"","month":"2018-03"},{"category":"anti-social-behaviour","location_type":"Force","location":{"latitude":"51.544164","street":{"id":964674,"name":"On or near Westbourne Road"},"longitude":"-0.110640"},"context":"","outcome_status":null,"persistent_id":"","id":63844935,"location_subtype":"","month":"2018-03"},{"category":"anti-social-behaviour","location_type":"Force","location":{"latitude":"51.532811","street":{"id":964789,"name":"On or near Penton Street"},"longitude":"-0.111442"},"context":"","outcome_status":null,"persistent_id":"","id":63844929,"location_subtype":"","month":"2018-03"},{"category":"anti-social-behaviour","location_type":"Force","location":{"latitude":"51.536373","street":{"id":964766,"name":"On or near Barnsbury Road"},"longitude":"-0.110963"},"context":"","outcome_status":null,"persistent_id":"","id":63844928,"location_subtype":"","month":"2018-03"},{"category":"bicycle-theft","location_type":"Force","location":{"latitude":"51.537397","street":{"id":964744,"name":"On or near Cloudesley Square"},"longitude":"-0.108642"},"context":"","outcome_status":{"category":"Under investigation","date":"2018-03"},"persistent_id":"fe870ec24d0be16d699cf9add8b67f836afbf4b046e8a38c66c768dbfad691db","id":63884344,"location_subtype":"","month":"2018-03"},{"category":"bicycle-theft","location_type":"Force","location":{"latitude":"51.532537","street":{"id":964790,"name":"On or near Penton Grove"},"longitude":"-0.110112"},"context":"","outcome_status":{"category":"Under investigation","date":"2018-03"},"persistent_id":"1ed0b9a0f64af0b7f4c1d057d383d123ea21642aaf820295527116f3ec0b34b0","id":63916878,"location_subtype":"","month":"2018-03"},{"category":"bicycle-theft","location_type":"Force","location":{"latitude":"51.537397","street":{"id":964744,"name":"On or near Cloudesley Square"},"longitude":"-0.108642"},"context":"","outcome_status":{"category":"Under investigation","date":"2018-03"},"persistent_id":"2f050b8013973d93770e3d71c124cdca8d1c1d242e6a14dd6ed68a361a7b874e","id":63911190,"location_subtype":"","month":"2018-03"},{"category":"bicycle-theft","location_type":"Force","location":{"latitude":"51.534491","street":{"id":964736,"name":"On or near Dewey Road"},"longitude":"-0.110781"},"context":"","outcome_status":{"category":"Under investigation","date":"2018-03"},"persistent_id":"ab188cfae68d64bfe99b21ba8ee2e7d35a1b44e6ca428bd0bb95a1474d3ac61d","id":63861483,"location_subtype":"","month":"2018-03"},{"category":"bicycle-theft","location_type":"Force","location":{"latitude":"51.543209","street":{"id":964776,"name":"On or near Further\/higher Educational Building"},"longitude":"-0.109410"},"context":"","outcome_status":{"category":"Under investigation","date":"2018-03"},"persistent_id":"cdaecd5512e6e02b6677ff3340a921086d6ccca7b06df644df19003d262da7df","id":63885990,"location_subtype":"","month":"2018-03"},{"category":"bicycle-theft","location_type":"Force","location":{"latitude":"51.532640","street":{"id":964795,"name":"On or near Baron Street"},"longitude":"-0.109243"},"context":"","outcome_status":{"category":"Under investigation","date":"2018-03"},"persistent_id":"06a09cafd288a37b1ad1bed5c5b5ac2c28063a3f6685e3ff0360775b896c7c40","id":63926362,"location_subtype":"","month":"2018-03"},{"category":"bicycle-theft","location_type":"Force","location":{"latitude":"51.534772","street":{"id":964690,"name":"On or near Ritchie Street"},"longitude":"-0.108160"},"context":"","outcome_status":{"category":"Under investigation","date":"2018-03"},"persistent_id":"724a3924d7886c02719d4ed2b1183650d95a0b3bcc9fe21be36258e26c5ead12","id":63872008,"location_subtype":"","month":"2018-03"},{"category":"burglary","location_type":"Force","location":{"latitude":"51.532067","street":{"id":964796,"name":"On or near Angel Mews"},"longitude":"-0.107147"},"context":"","outcome_status":{"category":"Under investigation","date":"2018-03"},"persistent_id":"b6b327b0b2e051de7ac2c371c637adf271c3d97c2bb6de17ea3b3f8f6c99a31b","id":63901895,"location_subtype":"","month":"2018-03"},{"category":"burglary","location_type":"Force","location":{"latitude":"51.535974","street":{"id":964747,"name":"On or near Charlotte Terrace"},"longitude":"-0.113027"},"context":"","outcome_status":{"category":"Under investigation","date":"2018-03"},"persistent_id":"d4bd9d71a5bd0808607e5aff2f2deb6bfca2fd4dae8ec8d9dd787d240e84ba24","id":63891238,"location_subtype":"","month":"2018-03"},{"category":"burglary","location_type":"Force","location":{"latitude":"51.533630","street":{"id":964808,"name":"On or near Chapel Place"},"longitude":"-0.108164"},"context":"","outcome_status":{"category":"Under investigation","date":"2018-03"},"persistent_id":"4fe275cd90678ba1d7a89466293a968b7d6b236e520c4944f91018ef0f1b17da","id":63857071,"location_subtype":"","month":"2018-03"},{"category":"burglary","location_type":"Force","location":{"latitude":"51.543035","street":{"id":964767,"name":"On or near Barnsbury Park"},"longitude":"-0.108625"},"context":"","outcome_status":{"category":"Under investigation","date":"2018-03"},"persistent_id":"e83c60896b92b798f1e9abd8ecb43f2445e605446b33e511099c5a38648fe7ff","id":63901894,"location_subtype":"","month":"2018-03"},{"category":"burglary","location_type":"Force","location":{"latitude":"51.532537","street":{"id":964790,"name":"On or near Penton Grove"},"longitude":"-0.110112"},"context":"","outcome_status":{"category":"Under investigation","date":"2018-03"},"persistent_id":"cfea00d28f53d094f70f1d9ade593af75ba082165f3d09fb3bd5580a0d8b0481","id":63857904,"location_subtype":"","month":"2018-03"},{"category":"criminal-damage-arson","location_type":"Force","location":{"latitude":"51.532414","street":{"id":964820,"name":"On or near Collier Street"},"longitude":"-0.115856"},"context":"","outcome_status":{"category":"Investigation complete; no suspect identified","date":"2018-04"},"persistent_id":"f18fdc5c63c4c99783cc9e92f47b85ee5b42646054518bce41cc4e0b77c3f2ce","id":63895847,"location_subtype":"","month":"2018-03"},{"category":"criminal-damage-arson","location_type":"Force","location":{"latitude":"51.533148","street":{"id":964811,"name":"On or near Shopping Area"},"longitude":"-0.109525"},"context":"","outcome_status":{"category":"Under investigation","date":"2018-03"},"persistent_id":"bf819d50eca836e4832cdf7675f3d3f782b8c93ba1d3b48636b40b9853463d2b","id":63921318,"location_subtype":"","month":"2018-03"},{"category":"criminal-damage-arson","location_type":"Force","location":{"latitude":"51.538644","street":{"id":964733,"name":"On or near Dowrey Street"},"longitude":"-0.109023"},"context":"","outcome_status":{"category":"Under investigation","date":"2018-03"},"persistent_id":"644bc95f9a8551357d9fae35028d95b0682560f959abfb3d52906804253b8a2a","id":63854691,"location_subtype":"","month":"2018-03"},{"category":"criminal-damage-arson","location_type":"Force","location":{"latitude":"51.532640","street":{"id":964795,"name":"On or near Baron Street"},"longitude":"-0.109243"},"context":"","outcome_status":{"category":"Under investigation","date":"2018-03"},"persistent_id":"5b09b08c5029d423861f10e4541bf1865b49ee05c6c09cf04438d03c8c24403d","id":63858921,"location_subtype":"","month":"2018-03"},{"category":"criminal-damage-arson","location_type":"Force","location":{"latitude":"51.538458","street":{"id":964683,"name":"On or near Stonefield Street"},"longitude":"-0.108108"},"context":"","outcome_status":{"category":"Under investigation","date":"2018-03"},"persistent_id":"d8656ba0e4ac511641a1e685064d7cf1f3b5ffe19ac797a966187083552b84c1","id":63896067,"location_subtype":"","month":"2018-03"},{"category":"criminal-damage-arson","location_type":"Force","location":{"latitude":"51.534772","street":{"id":964690,"name":"On or near Ritchie Street"},"longitude":"-0.108160"},"context":"","outcome_status":{"category":"Offender given a caution","date":"2018-04"},"persistent_id":"7d94e9daf6edfaff19d15311ccaa9c62ae788599f84d46d274fb32afe435a66f","id":63912077,"location_subtype":"","month":"2018-03"},{"category":"criminal-damage-arson","location_type":"Force","location":{"latitude":"51.533483","street":{"id":964809,"name":"On or near Chapel Market"},"longitude":"-0.109107"},"context":"","outcome_status":{"category":"Local resolution","date":"2018-03"},"persistent_id":"2ba80993644b73dcd3382c454298fc72417676d3f2cab32f04e51912ac54f42e","id":63929841,"location_subtype":"","month":"2018-03"},{"category":"drugs","location_type":"Force","location":{"latitude":"51.533537","street":{"id":964806,"name":"On or near Grant Street"},"longitude":"-0.110763"},"context":"","outcome_status":{"category":"Under investigation","date":"2018-03"},"persistent_id":"da3a25b11fde025fc1def7abb4ab0a56984f58d4363b9221a92b9b0faae31379","id":63935139,"location_subtype":"","month":"2018-03"},{"category":"drugs","location_type":"Force","location":{"latitude":"51.534142","street":{"id":964801,"name":"On or near Wynford Road"},"longitude":"-0.114847"},"context":"","outcome_status":{"category":"Offender given a drugs possession warning","date":"2018-03"},"persistent_id":"6ccc22ce250b4b93527ab4989d3852a4977366d485cba34490302b80454ff21b","id":63856457,"location_subtype":"","month":"2018-03"},{"category":"drugs","location_type":"Force","location":{"latitude":"51.533537","street":{"id":964806,"name":"On or near Grant Street"},"longitude":"-0.110763"},"context":"","outcome_status":{"category":"Awaiting court outcome","date":"2018-03"},"persistent_id":"511bf54bf8e083f8eba9f9dec703967368d6dec0ac214e327a55a4749ee176da","id":63857233,"location_subtype":"","month":"2018-03"},{"category":"drugs","location_type":"Force","location":{"latitude":"51.532414","street":{"id":964820,"name":"On or near Collier Street"},"longitude":"-0.115856"},"context":"","outcome_status":{"category":"Offender given a drugs possession warning","date":"2018-03"},"persistent_id":"c14bfa7ea6ec8ab99fccc2362ed653196c38024e9aab9b4c9a5427b9e0a44863","id":63854049,"location_subtype":"","month":"2018-03"},{"category":"drugs","location_type":"Force","location":{"latitude":"51.532414","street":{"id":964820,"name":"On or near Collier Street"},"longitude":"-0.115856"},"context":"","outcome_status":{"category":"Offender given penalty notice","date":"2018-04"},"persistent_id":"3c571d21df8d1bc75de6445c5c9f2ef0d6c73cae7e0b6b3d74c5e9d4b5bcbfc9","id":63914002,"location_subtype":"","month":"2018-03"},{"category":"drugs","location_type":"Force","location":{"latitude":"51.534406","street":{"id":964642,"name":"On or near Fife Terrace"},"longitude":"-0.116177"},"context":"","outcome_status":{"category":"Offender given a drugs possession warning","date":"2018-03"},"persistent_id":"bf3b3b8388620d25c9a732d22b46170f3ec79d456140a0d7e860506eff59e2d0","id":63930389,"location_subtype":"","month":"2018-03"},{"category":"drugs","location_type":"Force","location":{"latitude":"51.531975","street":{"id":964793,"name":"On or near Cynthia Street"},"longitude":"-0.113149"},"context":"","outcome_status":{"category":"Offender given penalty notice","date":"2018-03"},"persistent_id":"94101f6044e68e926e3cbaac29a96633f703c4926409c4ef577a3bc7b374eb97","id":63876704,"location_subtype":"","month":"2018-03"},{"category":"drugs","location_type":"Force","location":{"latitude":"51.534142","street":{"id":964801,"name":"On or near Wynford Road"},"longitude":"-0.114847"},"context":"","outcome_status":{"category":"Offender given penalty notice","date":"2018-03"},"persistent_id":"80b7c4e801c1c8f74c4d49a34c590aaabfc90077146ecaec584b32341bec76d9","id":63930137,"location_subtype":"","month":"2018-03"},{"category":"drugs","location_type":"Force","location":{"latitude":"51.531975","street":{"id":964793,"name":"On or near Cynthia Street"},"longitude":"-0.113149"},"context":"","outcome_status":{"category":"Offender given penalty notice","date":"2018-03"},"persistent_id":"74cc43a0bcff8edabd4969f469c8eef30474ec9e68b831e7403ae6a7d2e99cad","id":63925551,"location_subtype":"","month":"2018-03"},{"category":"drugs","location_type":"Force","location":{"latitude":"51.531879","street":{"id":964794,"name":"On or near Cumming Street"},"longitude":"-0.115561"},"context":"","outcome_status":{"category":"Offender given a drugs possession warning","date":"2018-03"},"persistent_id":"3d3a0f7b10a58ab46a16b7372ee55ea9436e04e465e23cf8647d0c38a25dfce1","id":63910414,"location_subtype":"","month":"2018-03"},{"category":"drugs","location_type":"Force","location":{"latitude":"51.532414","street":{"id":964820,"name":"On or near Collier Street"},"longitude":"-0.115856"},"context":"","outcome_status":{"category":"Offender given penalty notice","date":"2018-04"},"persistent_id":"c94fe667e2d0c4f30fdc4923b99f0c5e9c2ee004e957bc67657fba8bd13894cb","id":63908558,"location_subtype":"","month":"2018-03"},{"category":"drugs","location_type":"Force","location":{"latitude":"51.542873","street":{"id":964749,"name":"On or near Carfree Close"},"longitude":"-0.107506"},"context":"","outcome_status":{"category":"Under investigation","date":"2018-03"},"persistent_id":"1369289658992e814cf8ba0d9487a28ed0ca5e36f7f357b66555dfaa18b23b7b","id":63916698,"location_subtype":"","month":"2018-03"},{"category":"drugs","location_type":"Force","location":{"latitude":"51.533668","street":{"id":964802,"name":"On or near White Conduit Street"},"longitude":"-0.108825"},"context":"","outcome_status":{"category":"Local resolution","date":"2018-04"},"persistent_id":"694b854e014eff864ef4f8115890d3716bb076a635e40537c443b67280654c77","id":63930136,"location_subtype":"","month":"2018-03"},{"category":"drugs","location_type":"Force","location":{"latitude":"51.533537","street":{"id":964806,"name":"On or near Grant Street"},"longitude":"-0.110763"},"context":"","outcome_status":{"category":"Offender given a drugs possession warning","date":"2018-03"},"persistent_id":"dd1ac56b5541d1217825dce736c708144380914b1ba8ac05567e294bf000bb77","id":63932613,"location_subtype":"","month":"2018-03"},{"category":"other-theft","location_type":"Force","location":{"latitude":"51.536509","street":{"id":964740,"name":"On or near Copenhagen Street"},"longitude":"-0.112731"},"context":"","outcome_status":{"category":"Investigation complete; no suspect identified","date":"2018-04"},"persistent_id":"bc72d5aa19d73c85d35c1c31ee577a5791a54385f883c8f52e05ee5eaae07614","id":63895544,"location_subtype":"","month":"2018-03"},{"category":"other-theft","location_type":"Force","location":{"latitude":"51.534279","street":{"id":964732,"name":"On or near Eckford Street"},"longitude":"-0.112160"},"context":"","outcome_status":{"category":"Under investigation","date":"2018-03"},"persistent_id":"91e74ec8843aefa90a4306db4e0861731edd2957275e89ad3ee70ecfa6fcee0e","id":63917361,"location_subtype":"","month":"2018-03"},{"category":"other-theft","location_type":"Force","location":{"latitude":"51.533369","street":{"id":964810,"name":"On or near Shopping Area"},"longitude":"-0.107050"},"context":"","outcome_status":{"category":"Under investigation","date":"2018-03"},"persistent_id":"8edd4357c1f10cc4c8b1185226291dabb767d133e8c2c0bbf95c2391a3298661","id":63856198,"location_subtype":"","month":"2018-03"},{"category":"other-theft","location_type":"Force","location":{"latitude":"51.531721","street":{"id":964791,"name":"On or near Hermes Street"},"longitude":"-0.112467"},"context":"","outcome_status":{"category":"Under investigation","date":"2018-03"},"persistent_id":"2ea8c28429a25d86f21534cfa0d653153c70301ef541646f7ea9446c457c8210","id":63855748,"location_subtype":"","month":"2018-03"},{"category":"other-theft","location_type":"Force","location":{"latitude":"51.533148","street":{"id":964811,"name":"On or near Shopping Area"},"longitude":"-0.109525"},"context":"","outcome_status":{"category":"Investigation complete; no suspect identified","date":"2018-04"},"persistent_id":"edc6c43c469a735fdae153a850030831ad599f39c60904fcde7213847cb15d93","id":63855035,"location_subtype":"","month":"2018-03"},{"category":"other-theft","location_type":"Force","location":{"latitude":"51.541261","street":{"id":964677,"name":"On or near Thornhill Road"},"longitude":"-0.109621"},"context":"","outcome_status":{"category":"Investigation complete; no suspect identified","date":"2018-04"},"persistent_id":"5a5916f06e483e9e9f2209e0e9ae0b95c51d42bbe094febe26be889770d1bbee","id":63863031,"location_subtype":"","month":"2018-03"},{"category":"other-theft","location_type":"Force","location":{"latitude":"51.533388","street":{"id":964813,"name":"On or near Supermarket"},"longitude":"-0.108203"},"context":"","outcome_status":{"category":"Investigation complete; no suspect identified","date":"2018-04"},"persistent_id":"e116cc7726f4325ec54fffd69f420a730e39c3d91815046cacf0f5bdfdbd3aea","id":63856164,"location_subtype":"","month":"2018-03"},{"category":"other-theft","location_type":"Force","location":{"latitude":"51.532067","street":{"id":964796,"name":"On or near Angel Mews"},"longitude":"-0.107147"},"context":"","outcome_status":{"category":"Investigation complete; no suspect identified","date":"2018-04"},"persistent_id":"2a1b11ae756b3ec1444e9b0dcdd8454832c2918fcb10b42b7ba9eb56bd2daef4","id":63900710,"location_subtype":"","month":"2018-03"},{"category":"other-theft","location_type":"Force","location":{"latitude":"51.532067","street":{"id":964796,"name":"On or near Angel Mews"},"longitude":"-0.107147"},"context":"","outcome_status":{"category":"Under investigation","date":"2018-03"},"persistent_id":"5889c073275288bab05c0c49276048333a3cde6c03544359bd2a22db2e9cecb4","id":63896806,"location_subtype":"","month":"2018-03"},{"category":"other-theft","location_type":"Force","location":{"latitude":"51.533148","street":{"id":964811,"name":"On or near Shopping Area"},"longitude":"-0.109525"},"context":"","outcome_status":{"category":"Investigation complete; no suspect identified","date":"2018-04"},"persistent_id":"71fb6e37672e52ddf5d8f7a7be97af12bcbb7b020715b4a0ec1963619bcd4bb2","id":63918475,"location_subtype":"","month":"2018-03"},{"category":"other-theft","location_type":"Force","location":{"latitude":"51.532067","street":{"id":964796,"name":"On or near Angel Mews"},"longitude":"-0.107147"},"context":"","outcome_status":{"category":"Under investigation","date":"2018-03"},"persistent_id":"d34b1942545a3c69be13c261640b89c594f5696be2ec2e47409b0a912e553d16","id":63916752,"location_subtype":"","month":"2018-03"},{"category":"other-theft","location_type":"Force","location":{"latitude":"51.532537","street":{"id":964790,"name":"On or near Penton Grove"},"longitude":"-0.110112"},"context":"","outcome_status":{"category":"Investigation complete; no suspect identified","date":"2018-04"},"persistent_id":"f5bb3b3c8a89e1258e91ef76ef4cd7876ff8f1ae74029c0ed9d6719ead72e63a","id":63890837,"location_subtype":"","month":"2018-03"},{"category":"other-theft","location_type":"Force","location":{"latitude":"51.534022","street":{"id":964812,"name":"On or near Supermarket"},"longitude":"-0.107383"},"context":"","outcome_status":{"category":"Under investigation","date":"2018-03"},"persistent_id":"f4e877fb97bbde09f559646d15d93e633f3b80eb453c084df86373c25a9aaa11","id":63921004,"location_subtype":"","month":"2018-03"},{"category":"public-order","location_type":"Force","location":{"latitude":"51.534022","street":{"id":964812,"name":"On or near Supermarket"},"longitude":"-0.107383"},"context":"","outcome_status":{"category":"Investigation complete; no suspect identified","date":"2018-04"},"persistent_id":"d603c55715246f077bf2a3a5db145cbc020e4fbc9f5dbf40646421776cac0263","id":63860960,"location_subtype":"","month":"2018-03"},{"category":"public-order","location_type":"Force","location":{"latitude":"51.534022","street":{"id":964812,"name":"On or near Supermarket"},"longitude":"-0.107383"},"context":"","outcome_status":{"category":"Investigation complete; no suspect identified","date":"2018-04"},"persistent_id":"cd5c670966256a04c8ddc21aea1c593fca69672efc11328d5c41ab0d45c0fe6e","id":63877205,"location_subtype":"","month":"2018-03"},{"category":"public-order","location_type":"Force","location":{"latitude":"51.533537","street":{"id":964806,"name":"On or near Grant Street"},"longitude":"-0.110763"},"context":"","outcome_status":{"category":"Awaiting court outcome","date":"2018-05"},"persistent_id":"0bdab3e801f44643848f1b4bd89876c51e21ba6353a0e1a3fd69e1ae1ede77f5","id":63910038,"location_subtype":"","month":"2018-03"},{"category":"public-order","location_type":"Force","location":{"latitude":"51.533668","street":{"id":964802,"name":"On or near White Conduit Street"},"longitude":"-0.108825"},"context":"","outcome_status":{"category":"Investigation complete; no suspect identified","date":"2018-03"},"persistent_id":"6f72a5aaa703be0f89dc75bdc94f9a87d069ea18caff3054de0edbeba7110266","id":63930390,"location_subtype":"","month":"2018-03"},{"category":"public-order","location_type":"Force","location":{"latitude":"51.533537","street":{"id":964806,"name":"On or near Grant Street"},"longitude":"-0.110763"},"context":"","outcome_status":{"category":"Offender sent to prison","date":"2018-03"},"persistent_id":"3a06d183f73718d055b5b3a896a19868c6f5c93199c51d23cfb4b430630e1cd0","id":63895526,"location_subtype":"","month":"2018-03"},{"category":"public-order","location_type":"Force","location":{"latitude":"51.533537","street":{"id":964806,"name":"On or near Grant Street"},"longitude":"-0.110763"},"context":"","outcome_status":{"category":"Offender fined","date":"2018-03"},"persistent_id":"bb82622c6f313a188edf900ea7aacc307cb026d9eca2cb9e1ef6783c5b7ba7e5","id":63855746,"location_subtype":"","month":"2018-03"},{"category":"public-order","location_type":"Force","location":{"latitude":"51.533537","street":{"id":964806,"name":"On or near Grant Street"},"longitude":"-0.110763"},"context":"","outcome_status":{"category":"Awaiting court outcome","date":"2018-04"},"persistent_id":"d4025ad89e9de944e4a5d9f2a05c66c0f7360122c5e1995e9202b5822a592db7","id":63910033,"location_subtype":"","month":"2018-03"},{"category":"public-order","location_type":"Force","location":{"latitude":"51.533537","street":{"id":964806,"name":"On or near Grant Street"},"longitude":"-0.110763"},"context":"","outcome_status":{"category":"Investigation complete; no suspect identified","date":"2018-04"},"persistent_id":"523a719709176ccdaa5beb5e466631b5d859a64969f8d8231d8dc6ad83123439","id":63853119,"location_subtype":"","month":"2018-03"},{"category":"public-order","location_type":"Force","location":{"latitude":"51.533369","street":{"id":964810,"name":"On or near Shopping Area"},"longitude":"-0.107050"},"context":"","outcome_status":{"category":"Local resolution","date":"2018-03"},"persistent_id":"ba8adac9c14ca1c905bdf330828b4948f2010c5dcec40d2459eb2ded8e2590cd","id":63856626,"location_subtype":"","month":"2018-03"},{"category":"robbery","location_type":"Force","location":{"latitude":"51.535197","street":{"id":964762,"name":"On or near Batchelor Street"},"longitude":"-0.108286"},"context":"","outcome_status":{"category":"Investigation complete; no suspect identified","date":"2018-03"},"persistent_id":"43f872bf90cb0f352c971d013ec349b63b24ca7adfd87035ca9d81e0aaaf6aef","id":63881092,"location_subtype":"","month":"2018-03"},{"category":"robbery","location_type":"Force","location":{"latitude":"51.533708","street":{"id":964814,"name":"On or near Supermarket"},"longitude":"-0.107440"},"context":"","outcome_status":{"category":"Investigation complete; no suspect identified","date":"2018-04"},"persistent_id":"e84cf54a91b1ec28ad48e2493371683511c9f7bb0d9f275b0bbbd14ebd2b591d","id":63914331,"location_subtype":"","month":"2018-03"},{"category":"robbery","location_type":"Force","location":{"latitude":"51.532067","street":{"id":964796,"name":"On or near Angel Mews"},"longitude":"-0.107147"},"context":"","outcome_status":{"category":"Investigation complete; no suspect identified","date":"2018-03"},"persistent_id":"154a37860a6f74c58af09468d51a1f78304bc53b839534e8a5dcee97759ff129","id":63929577,"location_subtype":"","month":"2018-03"},{"category":"shoplifting","location_type":"Force","location":{"latitude":"51.534022","street":{"id":964812,"name":"On or near Supermarket"},"longitude":"-0.107383"},"context":"","outcome_status":{"category":"Investigation complete; no suspect identified","date":"2018-03"},"persistent_id":"3ce3529ae9997c24c6f06bee58800f28d08470957f6116be8838ac1aaa273af9","id":63931324,"location_subtype":"","month":"2018-03"},{"category":"shoplifting","location_type":"Force","location":{"latitude":"51.533708","street":{"id":964814,"name":"On or near Supermarket"},"longitude":"-0.107440"},"context":"","outcome_status":{"category":"Awaiting court outcome","date":"2018-03"},"persistent_id":"a6f32b9217d538d077fc0402b41516b2ca6df09ee33efe5f97cbbac7c0d5d11a","id":63872384,"location_subtype":"","month":"2018-03"},{"category":"shoplifting","location_type":"Force","location":{"latitude":"51.533708","street":{"id":964814,"name":"On or near Supermarket"},"longitude":"-0.107440"},"context":"","outcome_status":{"category":"Investigation complete; no suspect identified","date":"2018-04"},"persistent_id":"8e8b217fa10a93348b455d39d2dbba70d7522c6c6ac6872496e906a92d9531b3","id":63930921,"location_subtype":"","month":"2018-03"},{"category":"shoplifting","location_type":"Force","location":{"latitude":"51.533708","street":{"id":964814,"name":"On or near Supermarket"},"longitude":"-0.107440"},"context":"","outcome_status":{"category":"Local resolution","date":"2018-03"},"persistent_id":"2dfb16340dfb72bf681136b90739480020035466f16254a5c22f3fd48b9f5626","id":63863816,"location_subtype":"","month":"2018-03"},{"category":"shoplifting","location_type":"Force","location":{"latitude":"51.533369","street":{"id":964810,"name":"On or near Shopping Area"},"longitude":"-0.107050"},"context":"","outcome_status":{"category":"Under investigation","date":"2018-03"},"persistent_id":"106cdddcb1b6ce6e7b118db514a2893a567823af3c36787d06e9add7714b4374","id":63903636,"location_subtype":"","month":"2018-03"},{"category":"shoplifting","location_type":"Force","location":{"latitude":"51.534022","street":{"id":964812,"name":"On or near Supermarket"},"longitude":"-0.107383"},"context":"","outcome_status":{"category":"Awaiting court outcome","date":"2018-03"},"persistent_id":"d4249292200ef823076b20416ef5998526bfa674e62470d3cfe43e3699853aa1","id":63899645,"location_subtype":"","month":"2018-03"},{"category":"shoplifting","location_type":"Force","location":{"latitude":"51.540986","street":{"id":964704,"name":"On or near Morland Mews"},"longitude":"-0.107628"},"context":"","outcome_status":{"category":"Offender given penalty notice","date":"2018-03"},"persistent_id":"a3f751ca3a74096fc2a0611d9794831a6d105cd882c2ca6fad8ecd2002e6a689","id":63863238,"location_subtype":"","month":"2018-03"},{"category":"shoplifting","location_type":"Force","location":{"latitude":"51.534022","street":{"id":964812,"name":"On or near Supermarket"},"longitude":"-0.107383"},"context":"","outcome_status":{"category":"Local resolution","date":"2018-03"},"persistent_id":"4786869f50bd40c85eda3e394e3bc6689514ea7611eaf641c67cf13968e59116","id":63916178,"location_subtype":"","month":"2018-03"},{"category":"shoplifting","location_type":"Force","location":{"latitude":"51.533388","street":{"id":964813,"name":"On or near Supermarket"},"longitude":"-0.108203"},"context":"","outcome_status":{"category":"Under investigation","date":"2018-03"},"persistent_id":"3abe4a5edfcae0f2d3b57e542425012e3a33878edd5e80c0b77c6c8593f0688c","id":63931338,"location_subtype":"","month":"2018-03"},{"category":"shoplifting","location_type":"Force","location":{"latitude":"51.533708","street":{"id":964814,"name":"On or near Supermarket"},"longitude":"-0.107440"},"context":"","outcome_status":{"category":"Local resolution","date":"2018-03"},"persistent_id":"124894aa81022b1b7a1e64f42048cf9f1748fb805929a1e821fa3fc3c46e2790","id":63881144,"location_subtype":"","month":"2018-03"},{"category":"shoplifting","location_type":"Force","location":{"latitude":"51.533388","street":{"id":964813,"name":"On or near Supermarket"},"longitude":"-0.108203"},"context":"","outcome_status":{"category":"Offender given penalty notice","date":"2018-03"},"persistent_id":"281c88b7f9f310574598361547ecbf954fb160989c0acf53d76d10ccc6fb9a0e","id":63932649,"location_subtype":"","month":"2018-03"},{"category":"shoplifting","location_type":"Force","location":{"latitude":"51.533388","street":{"id":964813,"name":"On or near Supermarket"},"longitude":"-0.108203"},"context":"","outcome_status":{"category":"Under investigation","date":"2018-03"},"persistent_id":"3992d92651cba84fed2066d85fcc4b3fe5151b27f7e00405f0894cebf1630446","id":63899252,"location_subtype":"","month":"2018-03"},{"category":"shoplifting","location_type":"Force","location":{"latitude":"51.533369","street":{"id":964810,"name":"On or near Shopping Area"},"longitude":"-0.107050"},"context":"","outcome_status":{"category":"Under investigation","date":"2018-03"},"persistent_id":"b9f3af600d1d30f62414f592903f031584b031e9e72a5918d41f392e78ac75ab","id":63905729,"location_subtype":"","month":"2018-03"},{"category":"shoplifting","location_type":"Force","location":{"latitude":"51.533369","street":{"id":964810,"name":"On or near Shopping Area"},"longitude":"-0.107050"},"context":"","outcome_status":{"category":"Under investigation","date":"2018-03"},"persistent_id":"82c4ff3c77b08a01348b3e71a02d496f61336a8d60d0543e7d3cd2dcef9381f4","id":63881825,"location_subtype":"","month":"2018-03"},{"category":"shoplifting","location_type":"Force","location":{"latitude":"51.536509","street":{"id":964740,"name":"On or near Copenhagen Street"},"longitude":"-0.112731"},"context":"","outcome_status":{"category":"Under investigation","date":"2018-03"},"persistent_id":"c969982ded8af18acd1af368706318f7cb294a3de59a386c9cb8838a97dbedcb","id":63918473,"location_subtype":"","month":"2018-03"},{"category":"theft-from-the-person","location_type":"Force","location":{"latitude":"51.532067","street":{"id":964796,"name":"On or near Angel Mews"},"longitude":"-0.107147"},"context":"","outcome_status":{"category":"Under investigation","date":"2018-03"},"persistent_id":"5fcf720715dfc1706c1005891f4610fca6198780fe3dbbd6e52e221858ceb78a","id":63914889,"location_subtype":"","month":"2018-03"},{"category":"theft-from-the-person","location_type":"Force","location":{"latitude":"51.532067","street":{"id":964796,"name":"On or near Angel Mews"},"longitude":"-0.107147"},"context":"","outcome_status":{"category":"Under investigation","date":"2018-03"},"persistent_id":"0ce66a4b79acf83264952f5ba8de485a508a0ea5c4ea021e5140b01fb5a8a8a9","id":63865878,"location_subtype":"","month":"2018-03"},{"category":"theft-from-the-person","location_type":"Force","location":{"latitude":"51.544812","street":{"id":968315,"name":"On or near Epping Place"},"longitude":"-0.107873"},"context":"","outcome_status":{"category":"Under investigation","date":"2018-03"},"persistent_id":"d9873b091f559a360e84c6140d81584dc807da5d991f3176a052ff1adb59ea99","id":63904433,"location_subtype":"","month":"2018-03"},{"category":"theft-from-the-person","location_type":"Force","location":{"latitude":"51.532067","street":{"id":964796,"name":"On or near Angel Mews"},"longitude":"-0.107147"},"context":"","outcome_status":{"category":"Under investigation","date":"2018-03"},"persistent_id":"a23dc3bf78a31e00df908be9d3f4b6847ebe386716161617ac887cd80c7c2cbf","id":63910198,"location_subtype":"","month":"2018-03"},{"category":"theft-from-the-person","location_type":"Force","location":{"latitude":"51.534022","street":{"id":964812,"name":"On or near Supermarket"},"longitude":"-0.107383"},"context":"","outcome_status":{"category":"Under investigation","date":"2018-03"},"persistent_id":"7dc3c0d45be013bf94d8dd60cc395c5eaf07c61c781696003038288389521862","id":63895525,"location_subtype":"","month":"2018-03"},{"category":"theft-from-the-person","location_type":"Force","location":{"latitude":"51.531721","street":{"id":964791,"name":"On or near Hermes Street"},"longitude":"-0.112467"},"context":"","outcome_status":{"category":"Investigation complete; no suspect identified","date":"2018-04"},"persistent_id":"c2c0ed579712ec7bcd05b2f9f5e0863f9ea4894bfe6c657e6c57b56bc280af2b","id":63910745,"location_subtype":"","month":"2018-03"},{"category":"theft-from-the-person","location_type":"Force","location":{"latitude":"51.532640","street":{"id":964795,"name":"On or near Baron Street"},"longitude":"-0.109243"},"context":"","outcome_status":{"category":"Under investigation","date":"2018-03"},"persistent_id":"081647a7075973c3a7acb4dc50ed324f8ff7fe88886a61ef5470adf1b3141728","id":63853750,"location_subtype":"","month":"2018-03"},{"category":"theft-from-the-person","location_type":"Force","location":{"latitude":"51.531879","street":{"id":964794,"name":"On or near Cumming Street"},"longitude":"-0.115561"},"context":"","outcome_status":{"category":"Under investigation","date":"2018-03"},"persistent_id":"9f0f2a2e2edb066c83652318bef1097bd48c458f8faabf3cde226011e501eb22","id":63927311,"location_subtype":"","month":"2018-03"},{"category":"theft-from-the-person","location_type":"Force","location":{"latitude":"51.544812","street":{"id":968315,"name":"On or near Epping Place"},"longitude":"-0.107873"},"context":"","outcome_status":{"category":"Under investigation","date":"2018-03"},"persistent_id":"a9d269abb84e98cf002e0b829014bad3d8ac0109a52792c1b03b9acd0e09db32","id":63866080,"location_subtype":"","month":"2018-03"},{"category":"theft-from-the-person","location_type":"Force","location":{"latitude":"51.539142","street":{"id":964692,"name":"On or near Richmond Crescent"},"longitude":"-0.112578"},"context":"","outcome_status":{"category":"Under investigation","date":"2018-03"},"persistent_id":"a27e83537e731637177dc887c62f8c3315dbf9efd70e48b0e0a2b4e39c0120e6","id":63903030,"location_subtype":"","month":"2018-03"},{"category":"theft-from-the-person","location_type":"Force","location":{"latitude":"51.536373","street":{"id":964766,"name":"On or near Barnsbury Road"},"longitude":"-0.110963"},"context":"","outcome_status":{"category":"Under investigation","date":"2018-03"},"persistent_id":"e2920b2ec479c9801167af65426cd18a7f004727599a626ffb350b28da5fba2e","id":63924826,"location_subtype":"","month":"2018-03"},{"category":"theft-from-the-person","location_type":"Force","location":{"latitude":"51.532067","street":{"id":964796,"name":"On or near Angel Mews"},"longitude":"-0.107147"},"context":"","outcome_status":{"category":"Investigation complete; no suspect identified","date":"2018-04"},"persistent_id":"4bd2046e27b97f2b8410d8e9e42dc778c35bfa6ec9be35257c4b1e1734ef5177","id":63934296,"location_subtype":"","month":"2018-03"},{"category":"theft-from-the-person","location_type":"Force","location":{"latitude":"51.534022","street":{"id":964812,"name":"On or near Supermarket"},"longitude":"-0.107383"},"context":"","outcome_status":{"category":"Under investigation","date":"2018-03"},"persistent_id":"8c483684e6062c19ed1ba3866e7569d402bc5da274ab0ce1d83e1911797b5a61","id":63895354,"location_subtype":"","month":"2018-03"},{"category":"vehicle-crime","location_type":"Force","location":{"latitude":"51.532811","street":{"id":964789,"name":"On or near Penton Street"},"longitude":"-0.111442"},"context":"","outcome_status":{"category":"Investigation complete; no suspect identified","date":"2018-03"},"persistent_id":"009cb60fc968ac8cf73e70058164303bacc46255075538553bbd3d0c935571c4","id":63868948,"location_subtype":"","month":"2018-03"},{"category":"vehicle-crime","location_type":"Force","location":{"latitude":"51.532959","street":{"id":964821,"name":"On or near Calshot Street"},"longitude":"-0.117318"},"context":"","outcome_status":{"category":"Under investigation","date":"2018-03"},"persistent_id":"b56c298d18a1b00f3f3af6c4ccba42c0c3c5346fc9ad628ea79632e453e29f8e","id":63929081,"location_subtype":"","month":"2018-03"},{"category":"violent-crime","location_type":"Force","location":{"latitude":"51.543999","street":{"id":964716,"name":"On or near Legion Close"},"longitude":"-0.108210"},"context":"","outcome_status":{"category":"Investigation complete; no suspect identified","date":"2018-03"},"persistent_id":"0bcbd2d123ee60c27d60788b19163b4bb41bdacbe5e598deb42a19e10132a5f1","id":63893067,"location_subtype":"","month":"2018-03"},{"category":"violent-crime","location_type":"Force","location":{"latitude":"51.531879","street":{"id":964794,"name":"On or near Cumming Street"},"longitude":"-0.115561"},"context":"","outcome_status":{"category":"Under investigation","date":"2018-03"},"persistent_id":"72d46162c65867047de9579c492732e06e8be303366dabc141e09e67c3a5d62f","id":63908960,"location_subtype":"","month":"2018-03"},{"category":"violent-crime","location_type":"Force","location":{"latitude":"51.535974","street":{"id":964747,"name":"On or near Charlotte Terrace"},"longitude":"-0.113027"},"context":"","outcome_status":{"category":"Under investigation","date":"2018-03"},"persistent_id":"eceb4bd36fb8684fe63e812103e02aaa46638d9c32656007801061bd1f3bb3a7","id":63882068,"location_subtype":"","month":"2018-03"},{"category":"violent-crime","location_type":"Force","location":{"latitude":"51.533388","street":{"id":964813,"name":"On or near Supermarket"},"longitude":"-0.108203"},"context":"","outcome_status":{"category":"Under investigation","date":"2018-03"},"persistent_id":"5205a331c07773164f80a6af28b0b7935c90a16fa778f73f623e007af4ec27f4","id":63913192,"location_subtype":"","month":"2018-03"},{"category":"violent-crime","location_type":"Force","location":{"latitude":"51.531879","street":{"id":964794,"name":"On or near Cumming Street"},"longitude":"-0.115561"},"context":"","outcome_status":{"category":"Investigation complete; no suspect identified","date":"2018-04"},"persistent_id":"3305cc180d26bb63d9ae1c0419c14e245c29ab649196fdf0097e253f543d8019","id":63909417,"location_subtype":"","month":"2018-03"},{"category":"violent-crime","location_type":"Force","location":{"latitude":"51.543209","street":{"id":964776,"name":"On or near Further\/higher Educational Building"},"longitude":"-0.109410"},"context":"","outcome_status":{"category":"Under investigation","date":"2018-03"},"persistent_id":"4ec259cd5c27b47cb2126632c57e506d0d658fea39d0d20cb6f7848bd87d6558","id":63909715,"location_subtype":"","month":"2018-03"},{"category":"violent-crime","location_type":"Force","location":{"latitude":"51.532067","street":{"id":964796,"name":"On or near Angel Mews"},"longitude":"-0.107147"},"context":"","outcome_status":{"category":"Under investigation","date":"2018-03"},"persistent_id":"57bb9d083b45e0692d5ed5e93f9a594baa87810f11b824db66b475ddb38665f1","id":63910968,"location_subtype":"","month":"2018-03"},{"category":"violent-crime","location_type":"Force","location":{"latitude":"51.535647","street":{"id":964746,"name":"On or near Cloudesley Place"},"longitude":"-0.108354"},"context":"","outcome_status":{"category":"Under investigation","date":"2018-03"},"persistent_id":"b529a00f653eeac7c9cfb39512c593a29056cc578a260ba00b43b5cac6d9d5d0","id":63911758,"location_subtype":"","month":"2018-03"},{"category":"violent-crime","location_type":"Force","location":{"latitude":"51.542873","street":{"id":964749,"name":"On or near Carfree Close"},"longitude":"-0.107506"},"context":"","outcome_status":{"category":"Awaiting court outcome","date":"2018-06"},"persistent_id":"e38bad6af6514cc291cf0e2252d0965757dce7877abeefab6a304e0af8934953","id":63915451,"location_subtype":"","month":"2018-03"},{"category":"violent-crime","location_type":"Force","location":{"latitude":"51.532067","street":{"id":964796,"name":"On or near Angel Mews"},"longitude":"-0.107147"},"context":"","outcome_status":{"category":"Awaiting court outcome","date":"2018-06"},"persistent_id":"cd42582d67a978a0b9c14cec40b79670ef6bfc10f6e082bcae0ec2ff01aa43bf","id":63895272,"location_subtype":"","month":"2018-03"},{"category":"violent-crime","location_type":"Force","location":{"latitude":"51.536509","street":{"id":964740,"name":"On or near Copenhagen Street"},"longitude":"-0.112731"},"context":"","outcome_status":{"category":"Under investigation","date":"2018-03"},"persistent_id":"c969982ded8af18acd1af368706318f7cb294a3de59a386c9cb8838a97dbedcb","id":63919450,"location_subtype":"","month":"2018-03"},{"category":"violent-crime","location_type":"Force","location":{"latitude":"51.536509","street":{"id":964740,"name":"On or near Copenhagen Street"},"longitude":"-0.112731"},"context":"","outcome_status":{"category":"Under investigation","date":"2018-03"},"persistent_id":"c969982ded8af18acd1af368706318f7cb294a3de59a386c9cb8838a97dbedcb","id":63919630,"location_subtype":"","month":"2018-03"},{"category":"violent-crime","location_type":"Force","location":{"latitude":"51.533388","street":{"id":964813,"name":"On or near Supermarket"},"longitude":"-0.108203"},"context":"","outcome_status":{"category":"Local resolution","date":"2018-04"},"persistent_id":"c680404248e94878b2f712375f790c2b0ee84a737606d5f13f39d35ff54a7ab6","id":63920668,"location_subtype":"","month":"2018-03"},{"category":"violent-crime","location_type":"Force","location":{"latitude":"51.532067","street":{"id":964796,"name":"On or near Angel Mews"},"longitude":"-0.107147"},"context":"","outcome_status":{"category":"Under investigation","date":"2018-03"},"persistent_id":"d9ba8bad68721189d12588776dbfc614db070a7dec0470cc45d048781e46de5c","id":63902379,"location_subtype":"","month":"2018-03"},{"category":"violent-crime","location_type":"Force","location":{"latitude":"51.532640","street":{"id":964795,"name":"On or near Baron Street"},"longitude":"-0.109243"},"context":"","outcome_status":{"category":"Under investigation","date":"2018-03"},"persistent_id":"6e7fa4e5e8cbec210b9366344fc4862b67b3e618f177aff6013301f04bbdf1ca","id":63854278,"location_subtype":"","month":"2018-03"},{"category":"violent-crime","location_type":"Force","location":{"latitude":"51.534521","street":{"id":964708,"name":"On or near Maygood Street"},"longitude":"-0.112092"},"context":"","outcome_status":{"category":"Investigation complete; no suspect identified","date":"2018-04"},"persistent_id":"66339845dd58c7ca01d861c7f4c44bc2464d42983ceb4f71c92ffaebad6e0c07","id":63929659,"location_subtype":"","month":"2018-03"},{"category":"violent-crime","location_type":"Force","location":{"latitude":"51.532811","street":{"id":964789,"name":"On or near Penton Street"},"longitude":"-0.111442"},"context":"","outcome_status":{"category":"Under investigation","date":"2018-03"},"persistent_id":"8c61b1bf39171f66646573f86928f3260a2c106323e487c6d32a7c89d6effec8","id":63934195,"location_subtype":"","month":"2018-03"},{"category":"violent-crime","location_type":"Force","location":{"latitude":"51.532811","street":{"id":964789,"name":"On or near Penton Street"},"longitude":"-0.111442"},"context":"","outcome_status":{"category":"Investigation complete; no suspect identified","date":"2018-04"},"persistent_id":"8c61b1bf39171f66646573f86928f3260a2c106323e487c6d32a7c89d6effec8","id":63934196,"location_subtype":"","month":"2018-03"},{"category":"violent-crime","location_type":"Force","location":{"latitude":"51.533388","street":{"id":964813,"name":"On or near Supermarket"},"longitude":"-0.108203"},"context":"","outcome_status":{"category":"Investigation complete; no suspect identified","date":"2018-04"},"persistent_id":"8c4e7eab43ae31007b93192dd9ba7310298a7c16dfec83919f3583a5a659af44","id":63855148,"location_subtype":"","month":"2018-03"},{"category":"violent-crime","location_type":"Force","location":{"latitude":"51.533388","street":{"id":964813,"name":"On or near Supermarket"},"longitude":"-0.108203"},"context":"","outcome_status":{"category":"Investigation complete; no suspect identified","date":"2018-03"},"persistent_id":"3abe4a5edfcae0f2d3b57e542425012e3a33878edd5e80c0b77c6c8593f0688c","id":63931499,"location_subtype":"","month":"2018-03"},{"category":"violent-crime","location_type":"Force","location":{"latitude":"51.534772","street":{"id":964690,"name":"On or near Ritchie Street"},"longitude":"-0.108160"},"context":"","outcome_status":{"category":"Local resolution","date":"2018-03"},"persistent_id":"5d7f2b2df07594987993b040121d2740fa10129f3fc756f2abdb7955d28200d2","id":63872640,"location_subtype":"","month":"2018-03"},{"category":"violent-crime","location_type":"Force","location":{"latitude":"51.532640","street":{"id":964795,"name":"On or near Baron Street"},"longitude":"-0.109243"},"context":"","outcome_status":{"category":"Under investigation","date":"2018-03"},"persistent_id":"6e7fa4e5e8cbec210b9366344fc4862b67b3e618f177aff6013301f04bbdf1ca","id":63854277,"location_subtype":"","month":"2018-03"},{"category":"violent-crime","location_type":"Force","location":{"latitude":"51.532640","street":{"id":964795,"name":"On or near Baron Street"},"longitude":"-0.109243"},"context":"","outcome_status":{"category":"Under investigation","date":"2018-03"},"persistent_id":"2e24f2cca955e76b0875b9a5165c44f66a89d42c222e69fa262209a32b686906","id":63886424,"location_subtype":"","month":"2018-03"},{"category":"violent-crime","location_type":"Force","location":{"latitude":"51.543836","street":{"id":964699,"name":"On or near Offord Road"},"longitude":"-0.110394"},"context":"","outcome_status":{"category":"Investigation complete; no suspect identified","date":"2018-03"},"persistent_id":"17ee6979c5cfb210022d16d96f75f6916943ce8fd388c505508c01bf8b92ed48","id":63930540,"location_subtype":"","month":"2018-03"},{"category":"violent-crime","location_type":"Force","location":{"latitude":"51.532067","street":{"id":964796,"name":"On or near Angel Mews"},"longitude":"-0.107147"},"context":"","outcome_status":{"category":"Investigation complete; no suspect identified","date":"2018-04"},"persistent_id":"5573b4c194cebff6b3439563a37b83ad7f79b0137960f2550cb9a4ce77b3c682","id":63856214,"location_subtype":"","month":"2018-03"},{"category":"violent-crime","location_type":"Force","location":{"latitude":"51.538525","street":{"id":964757,"name":"On or near Boxworth Grove"},"longitude":"-0.112806"},"context":"","outcome_status":{"category":"Awaiting court outcome","date":"2018-04"},"persistent_id":"778232e24f09756a31b515afd0b3623527cd7262f68bb98994fe7db5fa0fb158","id":63910663,"location_subtype":"","month":"2018-03"},{"category":"violent-crime","location_type":"Force","location":{"latitude":"51.532640","street":{"id":964795,"name":"On or near Baron Street"},"longitude":"-0.109243"},"context":"","outcome_status":{"category":"Under investigation","date":"2018-03"},"persistent_id":"2e24f2cca955e76b0875b9a5165c44f66a89d42c222e69fa262209a32b686906","id":63886422,"location_subtype":"","month":"2018-03"},{"category":"violent-crime","location_type":"Force","location":{"latitude":"51.544578","street":{"id":964770,"name":"On or near Arundel Place"},"longitude":"-0.108993"},"context":"","outcome_status":{"category":"Under investigation","date":"2018-03"},"persistent_id":"1c29d4970f8d22b5586140ca52386bd96d38aceac52d26617ab7b18cc151d9d2","id":63855078,"location_subtype":"","month":"2018-03"},{"category":"violent-crime","location_type":"Force","location":{"latitude":"51.532414","street":{"id":964820,"name":"On or near Collier Street"},"longitude":"-0.115856"},"context":"","outcome_status":{"category":"Investigation complete; no suspect identified","date":"2018-03"},"persistent_id":"30ece900d783fd1d2ad8de75a2aa683256ff9d27f7ec0d1d7727e44b0a5b13cf","id":63921820,"location_subtype":"","month":"2018-03"},{"category":"violent-crime","location_type":"Force","location":{"latitude":"51.533369","street":{"id":964810,"name":"On or near Shopping Area"},"longitude":"-0.107050"},"context":"","outcome_status":{"category":"Under investigation","date":"2018-03"},"persistent_id":"106cdddcb1b6ce6e7b118db514a2893a567823af3c36787d06e9add7714b4374","id":63903326,"location_subtype":"","month":"2018-03"},{"category":"other-crime","location_type":"Force","location":{"latitude":"51.533537","street":{"id":964806,"name":"On or near Grant Street"},"longitude":"-0.110763"},"context":"","outcome_status":{"category":"Defendant found not guilty","date":"2018-03"},"persistent_id":"a0f470c562be68649495976de883258c1284a0abbead626b9b6af3d8ad265d15","id":63933223,"location_subtype":"","month":"2018-03"}]