[{"category":"anti-social-behaviour","location_type":"Force","location":{"latitude":"50.894710","street":{"id":772481,"name":"On or near Parking Area"},"longitude":"-1.019139"},"context":"","outcome_status":null,"persistent_id":"2d9604d3d626615b8dadc73c74de6da85c9eacfe7b42f490d205cb281d605a1b","id":65744588,"location_subtype":"","month":"2018-06"},{"category":"anti-social-behaviour","location_type":"Force","location":{"latitude":"50.898662","street":{"id":774102,"name":"On or near Ashington Close"},"longitude":"-1.017478"},"context":"","outcome_status":null,"persistent_id":"812aadc996e99468741ec07d5b9177bbbb59319f5e980a1b6f3db47b3ccd02a3","id":65732581,"location_subtype":"","month":"2018-06"},{"category":"anti-social-behaviour","location_type":"Force","location":{"latitude":"50.897918","street":{"id":774101,"name":"On or near Brewster Close"},"longitude":"-1.017735"},"context":"","outcome_status":null,"persistent_id":"3a94cf539913b72e3e515511702fa364f30cd2040da13823d2eb3dc1c49b7bf4","id":65749171,"location_subtype":"","month":"2018-06"},{"category":"anti-social-behaviour","location_type":"Force","location":{"latitude":"50.892233","street":{"id":772532,"name":"On or near Pine Tree Gardens"},"longitude":"-1.014357"},"context":"","outcome_status":null,"persistent_id":"f0bc4dd3a2084fb8430541356f0a459291b0481748e9ab551f49c10910995d1f","id":65742766,"location_subtype":"","month":"2018-06"},{"category":"burglary","location_type":"Force","location":{"latitude":"50.887999","street":{"id":772472,"name":"On or near Acre Lane"},"longitude":"-1.005020"},"context":"","outcome_status":{"category":"Under investigation","date":"2018-06"},"persistent_id":"d22bdf2d9263ca7439fe3aaa98b053e064163c4e39c721e8ac8f7151e7f26e0a","id":65748845,"location_subtype":"","month":"2018-06"},{"category":"burglary","location_type":"Force","location":{"latitude":"50.885108","street":{"id":772523,"name":"On or near Sonnet Way"},"longitude":"-1.011863"},"context":"","outcome_status":{"category":"Under investigation","date":"2018-06"},"persistent_id":"5cc757f0f04df9321e41771741e6ceee0da9f13ae0ab88b796c93ee3e3e32f23","id":65740580,"location_subtype":"","month":"2018-06"},{"category":"criminal-damage-arson","location_type":"Force","location":{"latitude":"50.887843","street":{"id":772529,"name":"On or near Ripon Gardens"},"longitude":"-1.008905"},"context":"","outcome_status":{"category":"Investigation complete; no suspect identified","date":"2018-06"},"persistent_id":"0d2e3714f643e2925239460e463e82aec4407830b8883fa4984540bbd5b5d3f1","id":65748197,"location_subtype":"","month":"2018-06"},{"category":"criminal-damage-arson","location_type":"Force","location":{"latitude":"50.900967","street":{"id":774119,"name":"On or near Pyle Close"},"longitude":"-1.018865"},"context":"","outcome_status":{"category":"Under investigation","date":"2018-06"},"persistent_id":"c318469da6bf99926b3a798b181e37cdf65defc25020cfb1320405908673b98d","id":65743184,"location_subtype":"","month":"2018-06"},{"category":"criminal-damage-arson","location_type":"Force","location":{"latitude":"50.893947","street":{"id":772572,"name":"On or near Sports\/recreation Area"},"longitude":"-1.010695"},"context":"","outcome_status":{"category":"Under investigation","date":"2018-06"},"persistent_id":"d44d7cbd7825e0347d0cc3537fa96e3d1f5b156bcb2152bc588c3fa7a57f2b25","id":65748623,"location_subtype":"","month":"2018-06"},{"category":"criminal-damage-arson","location_type":"Force","location":{"latitude":"50.898987","street":{"id":774080,"name":"On or near Masefield Crescent"},"longitude":"-1.024026"},"context":"","outcome_status":{"category":"Investigation complete; no suspect identified","date":"2018-06"},"persistent_id":"943349d2411ed72c3493c44394daaf083ef1e4a3fea7bae9586955e9e4ae8470","id":65733293,"location_subtype":"","month":"2018-06"},{"category":"other-theft","location_type":"Force","location":{"latitude":"50.897353","street":{"id":774103,"name":"On or near Petrol Station"},"longitude":"-1.016908"},"context":"","outcome_status":{"category":"Investigation complete; no suspect identified","date":"2018-06"},"persistent_id":"54a4d90f504fe272f242abb8ec2f15206e5c4a86517194294c0895a933c4b996","id":65734341,"location_subtype":"","month":"2018-06"},{"category":"other-theft","location_type":"Force","location":{"latitude":"50.897057","street":{"id":774078,"name":"On or near Milbeck Close"},"longitude":"-1.015876"},"context":"","outcome_status":{"category":"Investigation complete; no suspect identified","date":"2018-06"},"persistent_id":"bfe5f33fec951c799cac60295c7048fa3bd74c3a1f39075c5ea8461147efe5ad","id":65744802,"location_subtype":"","month":"2018-06"},{"category":"other-theft","location_type":"Force","location":{"latitude":"50.902638","street":{"id":774143,"name":"On or near Crombie Close"},"longitude":"-1.020821"},"context":"","outcome_status":{"category":"Under investigation","date":"2018-06"},"persistent_id":"ca52b50ca42713726bcd8e5452b9a95957621766ddbcf20ebdd29f6e00470ca5","id":65749470,"location_subtype":"","month":"2018-06"},{"category":"other-theft","location_type":"Force","location":{"latitude":"50.898662","street":{"id":774102,"name":"On or near Ashington Close"},"longitude":"-1.017478"},"context":"","outcome_status":{"category":"Under investigation","date":"2018-06"},"persistent_id":"2f5a14b30266afaa84de4ed137146333c137bd11595bf1db04983136fef03701","id":65745256,"location_subtype":"","month":"2018-06"},{"category":"public-order","location_type":"Force","location":{"latitude":"50.898662","street":{"id":774102,"name":"On or near Ashington Close"},"longitude":"-1.017478"},"context":"","outcome_status":{"category":"Under investigation","date":"2018-06"},"persistent_id":"edb845dcffa5172235020052ff784d723f7a0bbd5ec6ad160c41153569cb9998","id":65748980,"location_subtype":"","month":"2018-06"},{"category":"public-order","location_type":"Force","location":{"latitude":"50.887216","street":{"id":772477,"name":"On or near Supermarket"},"longitude":"-1.007041"},"context":"","outcome_status":{"category":"Under investigation","date":"2018-06"},"persistent_id":"add4a98a02dc776fc97e62a2091598388e97a668ed899525e8f00ec88c05dafd","id":65743301,"location_subtype":"","month":"2018-06"},{"category":"public-order","location_type":"Force","location":{"latitude":"50.896550","street":{"id":774063,"name":"On or near Durley Avenue"},"longitude":"-1.028414"},"context":"","outcome_status":{"category":"Investigation complete; no suspect identified","date":"2018-06"},"persistent_id":"debf6f6069dba84db6239a68284ac80d9309ba661f9b1b593c8d280764000e37","id":65731024,"location_subtype":"","month":"2018-06"},{"category":"public-order","location_type":"Force","location":{"latitude":"50.895277","street":{"id":774105,"name":"On or near Supermarket"},"longitude":"-1.018032"},"context":"","outcome_status":{"category":"Under investigation","date":"2018-06"},"persistent_id":"4340548f0139e2e8bf32b7c548a434e6a0e434118265de09b234dd79b90b0765","id":65741332,"location_subtype":"","month":"2018-06"},{"category":"shoplifting","location_type":"Force","location":{"latitude":"50.895277","street":{"id":774105,"name":"On or near Supermarket"},"longitude":"-1.018032"},"context":"","outcome_status":{"category":"Under investigation","date":"2018-06"},"persistent_id":"7e6bc5a44ec0b76aade4a4b53d2d6345bcdf6d9f7ac201d7350b0cd160681283","id":65743231,"location_subtype":"","month":"2018-06"},{"category":"vehicle-crime","location_type":"Force","location":{"latitude":"50.901746","street":{"id":774121,"name":"On or near Prochurch Road"},"longitude":"-1.012065"},"context":"","outcome_status":{"category":"Investigation complete; no suspect identified","date":"2018-06"},"persistent_id":"50b5ae1336f490d117f3e72dc9d353a0a08a6a21b35e98a3ba683810ac79c559","id":65745480,"location_subtype":"","month":"2018-06"},{"category":"vehicle-crime","location_type":"Force","location":{"latitude":"50.887843","street":{"id":772529,"name":"On or near Ripon Gardens"},"longitude":"-1.008905"},"context":"","outcome_status":{"category":"Under investigation","date":"2018-06"},"persistent_id":"6d93eb13a92c9caf2efb4d8c855cb149365ba7f47f9cf4de026940ddb1603d31","id":65749906,"location_subtype":"","month":"2018-06"},{"category":"vehicle-crime","location_type":"Force","location":{"latitude":"50.888223","street":{"id":772461,"name":"On or near Shire Close"},"longitude":"-1.005996"},"context":"","outcome_status":{"category":"Investigation complete; no suspect identified","date":"2018-06"},"persistent_id":"c35641562344a7a82dd8c614125923f6cb2ef91d8a9c4d0a5ed2d48ad0dc176a","id":65740402,"location_subtype":"","month":"2018-06"},{"category":"vehicle-crime","location_type":"Force","location":{"latitude":"50.888698","street":{"id":772467,"name":"On or near Farriers Way"},"longitude":"-1.004693"},"context":"","outcome_status":{"category":"Investigation complete; no suspect identified","date":"2018-06"},"persistent_id":"42679c0c264b7c78b5d4d45882f0e43614be2df1c32347c61a6c69e390c49737","id":65740414,"location_subtype":"","month":"2018-06"},{"category":"vehicle-crime","location_type":"Force","location":{"latitude":"50.886302","street":{"id":772462,"name":"On or near Ramblers Way"},"longitude":"-1.006307"},"context":"","outcome_status":{"category":"Investigation complete; no suspect identified","date":"2018-06"},"persistent_id":"3f1cf4a5069001b1e7033ba9cbb183fcc47c24c9f35596ebf530c851bbefe0b0","id":65740424,"location_subtype":"","month":"2018-06"},{"category":"vehicle-crime","location_type":"Force","location":{"latitude":"50.884632","street":{"id":772544,"name":"On or near Kassel Close"},"longitude":"-1.009840"},"context":"","outcome_status":{"category":"Investigation complete; no suspect identified","date":"2018-06"},"persistent_id":"0560ba7c8c72a6c9a3c85a62da283a5f31e9439fbc13ca1163ae08aa7b233920","id":65740428,"location_subtype":"","month":"2018-06"},{"category":"vehicle-crime","location_type":"Force","location":{"latitude":"50.886346","street":{"id":772553,"name":"On or near Hathaway Gardens"},"longitude":"-1.011552"},"context":"","outcome_status":{"category":"Investigation complete; no suspect identified","date":"2018-06"},"persistent_id":"134e66e0cebd488ba8392341dd43b49107abdf0c156c9c4f01161f93c4550773","id":65740447,"location_subtype":"","month":"2018-06"},{"category":"vehicle-crime","location_type":"Force","location":{"latitude":"50.884632","street":{"id":772544,"name":"On or near Kassel Close"},"longitude":"-1.009840"},"context":"","outcome_status":{"category":"Investigation complete; no suspect identified","date":"2018-06"},"persistent_id":"c4f48254464c9cf5fb9fdf33d4b32ce067028d35069609f9c7e9bbb045138f70","id":65740761,"location_subtype":"","month":"2018-06"},{"category":"vehicle-crime","location_type":"Force","location":{"latitude":"50.900237","street":{"id":774071,"name":"On or near Wesermarsch Road"},"longitude":"-1.018696"},"context":"","outcome_status":{"category":"Investigation complete; no suspect identified","date":"2018-06"},"persistent_id":"a04485e0d44d15458266181c4f7cf5e32c7ea79e9ecd28344f5a7c190ea0e39e","id":65743379,"location_subtype":"","month":"2018-06"},{"category":"vehicle-crime","location_type":"Force","location":{"latitude":"50.886416","street":{"id":772561,"name":"On or near Damask Gardens"},"longitude":"-1.008182"},"context":"","outcome_status":{"category":"Under investigation","date":"2018-06"},"persistent_id":"2e5b9c09e561fc1f0f3ee429284d772616d0c6790e111f7ab6c3fbb484c59bad","id":65745101,"location_subtype":"","month":"2018-06"},{"category":"violent-crime","location_type":"Force","location":{"latitude":"50.896550","street":{"id":774063,"name":"On or near Durley Avenue"},"longitude":"-1.028414"},"context":"","outcome_status":{"category":"Under investigation","date":"2018-06"},"persistent_id":"ce4f8a25086b5fe3355c5a1aa890b041f6053b1b060966f0ec163f96deb68d8a","id":65744619,"location_subtype":"","month":"2018-06"},{"category":"violent-crime","location_type":"Force","location":{"latitude":"50.897735","street":{"id":774076,"name":"On or near Morley Crescent"},"longitude":"-1.019545"},"context":"","outcome_status":{"category":"Under investigation","date":"2018-06"},"persistent_id":"59e0788cc4e9458283c9e69736bed82bfe90e1c8e12c4bb27b42b3e61857645c","id":65740804,"location_subtype":"","month":"2018-06"},{"category":"violent-crime","location_type":"Force","location":{"latitude":"50.889334","street":{"id":772542,"name":"On or near Lavant Close"},"longitude":"-1.009755"},"context":"","outcome_status":{"category":"Under investigation","date":"2018-06"},"persistent_id":"ceb835351d828d80047470215df7f486b9ba53a41714de559d9f8ad380a4056f","id":65741010,"location_subtype":"","month":"2018-06"},{"category":"violent-crime","location_type":"Force","location":{"latitude":"50.896550","street":{"id":774063,"name":"On or near Durley Avenue"},"longitude":"-1.028414"},"context":"","outcome_status":{"category":"Under investigation","date":"2018-06"},"persistent_id":"535311b84b7299ae4ecb9f0d867e56f380105c9e67795674cc3d3f19d27287b0","id":65746396,"location_subtype":"","month":"2018-06"},{"category":"violent-crime","location_type":"Force","location":{"latitude":"50.897918","street":{"id":774101,"name":"On or near Brewster Close"},"longitude":"-1.017735"},"context":"","outcome_status":{"category":"Unable to prosecute suspect","date":"2018-06"},"persistent_id":"a0d339ea8bed3c0e001ae5817e7461d3b85195702b525bc6724de48cd0654550","id":65738226,"location_subtype":"","month":"2018-06"},{"category":"violent-crime","location_type":"Force","location":{"latitude":"50.900967","street":{"id":774119,"name":"On or near Pyle Close"},"longitude":"-1.018865"},"context":"","outcome_status":{"category":"Under investigation","date":"2018-06"},"persistent_id":"e2a0304fab271a0b2036c9ca958607be3df6911d3857832ea6a4369b27526203","id":65743175,"location_subtype":"","month":"2018-06"},{"category":"violent-crime","location_type":"Force","location":{"latitude":"50.902638","street":{"id":774143,"name":"On or near Crombie Close"},"longitude":"-1.020821"},"context":"","outcome_status":{"category":"Unable to prosecute suspect","date":"2018-06"},"persistent_id":"c4bd6f01a91290e662c649c5a2addd980c596f5afca0cb240850072c8d645ca3","id":65742758,"location_subtype":"","month":"2018-06"},{"category":"violent-crime","location_type":"Force","location":{"latitude":"50.893588","street":{"id":772534,"name":"On or near Padnell Avenue"},"longitude":"-1.015082"},"context":"","outcome_status":{"category":"Unable to prosecute suspect","date":"2018-06"},"persistent_id":"59f89f6f0bc46e18634c5b6e2e4a79461eda61a32e3d5b3553e45fcd0b642941","id":65742955,"location_subtype":"","month":"2018-06"},{"category":"violent-crime","location_type":"Force","location":{"latitude":"50.893588","street":{"id":772534,"name":"On or near Padnell Avenue"},"longitude":"-1.015082"},"context":"","outcome_status":{"category":"Unable to prosecute suspect","date":"2018-06"},"persistent_id":"3eca431fdf6136f178420b0776f7808135cc1434ff6e05240dd57d15b3864d89","id":65742961,"location_subtype":"","month":"2018-06"}]