[{"category":"anti-social-behaviour","location_type":"Force","location":{"latitude":"54.895645","street":{"id":1017275,"name":"On or near Station Lane"},"longitude":"-1.581329"},"context":"","outcome_status":null,"persistent_id":"","id":65778062,"location_subtype":"","month":"2018-06"},{"category":"anti-social-behaviour","location_type":"Force","location":{"latitude":"54.880731","street":{"id":1017196,"name":"On or near Cheshire Avenue"},"longitude":"-1.574485"},"context":"","outcome_status":null,"persistent_id":"","id":65777812,"location_subtype":"","month":"2018-06"},{"category":"anti-social-behaviour","location_type":"Force","location":{"latitude":"54.889564","street":{"id":1017340,"name":"On or near Polpero Close"},"longitude":"-1.566535"},"context":"","outcome_status":null,"persistent_id":"","id":65776603,"location_subtype":"","month":"2018-06"},{"category":"anti-social-behaviour","location_type":"Force","location":{"latitude":"54.897943","street":{"id":1017276,"name":"On or near Ravensworth Road"},"longitude":"-1.580509"},"context":"","outcome_status":null,"persistent_id":"","id":65776542,"location_subtype":"","month":"2018-06"},{"category":"anti-social-behaviour","location_type":"Force","location":{"latitude":"54.879467","street":{"id":1017246,"name":"On or near Parking Area"},"longitude":"-1.575215"},"context":"","outcome_status":null,"persistent_id":"","id":65776393,"location_subtype":"","month":"2018-06"},{"category":"anti-social-behaviour","location_type":"Force","location":{"latitude":"54.895645","street":{"id":1017275,"name":"On or near Station Lane"},"longitude":"-1.581329"},"context":"","outcome_status":null,"persistent_id":"","id":65775993,"location_subtype":"","month":"2018-06"},{"category":"anti-social-behaviour","location_type":"Force","location":{"latitude":"54.889564","street":{"id":1017340,"name":"On or near Polpero Close"},"longitude":"-1.566535"},"context":"","outcome_status":null,"persistent_id":"","id":65775525,"location_subtype":"","month":"2018-06"},{"category":"anti-social-behaviour","location_type":"Force","location":{"latitude":"54.890186","street":{"id":1017348,"name":"On or near The Springs"},"longitude":"-1.564673"},"context":"","outcome_status":null,"persistent_id":"","id":65775711,"location_subtype":"","month":"2018-06"},{"category":"anti-social-behaviour","location_type":"Force","location":{"latitude":"54.894421","street":{"id":1017313,"name":"On or near St John's Place"},"longitude":"-1.575385"},"context":"","outcome_status":null,"persistent_id":"","id":65775245,"location_subtype":"","month":"2018-06"},{"category":"anti-social-behaviour","location_type":"Force","location":{"latitude":"54.895773","street":{"id":1015584,"name":"On or near Portmeads Rise"},"longitude":"-1.566421"},"context":"","outcome_status":null,"persistent_id":"","id":65775906,"location_subtype":"","month":"2018-06"},{"category":"anti-social-behaviour","location_type":"Force","location":{"latitude":"54.893298","street":{"id":1017298,"name":"On or near Parking Area"},"longitude":"-1.578266"},"context":"","outcome_status":null,"persistent_id":"","id":65775427,"location_subtype":"","month":"2018-06"},{"category":"anti-social-behaviour","location_type":"Force","location":{"latitude":"54.893904","street":{"id":1017310,"name":"On or near Pedestrian Subway"},"longitude":"-1.574034"},"context":"","outcome_status":null,"persistent_id":"","id":65775569,"location_subtype":"","month":"2018-06"},{"category":"anti-social-behaviour","location_type":"Force","location":{"latitude":"54.879467","street":{"id":1017246,"name":"On or near Parking Area"},"longitude":"-1.575215"},"context":"","outcome_status":null,"persistent_id":"","id":65775128,"location_subtype":"","month":"2018-06"},{"category":"anti-social-behaviour","location_type":"Force","location":{"latitude":"54.879467","street":{"id":1017246,"name":"On or near Parking Area"},"longitude":"-1.575215"},"context":"","outcome_status":null,"persistent_id":"","id":65775428,"location_subtype":"","month":"2018-06"},{"category":"anti-social-behaviour","location_type":"Force","location":{"latitude":"54.882998","street":{"id":1017219,"name":"On or near Athlone Place"},"longitude":"-1.570143"},"context":"","outcome_status":null,"persistent_id":"","id":65775119,"location_subtype":"","month":"2018-06"},{"category":"anti-social-behaviour","location_type":"Force","location":{"latitude":"54.898489","street":{"id":1017279,"name":"On or near Pine Street"},"longitude":"-1.579989"},"context":"","outcome_status":null,"persistent_id":"","id":65774849,"location_subtype":"","month":"2018-06"},{"category":"anti-social-behaviour","location_type":"Force","location":{"latitude":"54.880731","street":{"id":1017196,"name":"On or near Cheshire Avenue"},"longitude":"-1.574485"},"context":"","outcome_status":null,"persistent_id":"","id":65774689,"location_subtype":"","month":"2018-06"},{"category":"anti-social-behaviour","location_type":"Force","location":{"latitude":"54.895649","street":{"id":1017288,"name":"On or near Beaconsfield Terrace"},"longitude":"-1.579847"},"context":"","outcome_status":null,"persistent_id":"","id":65778830,"location_subtype":"","month":"2018-06"},{"category":"anti-social-behaviour","location_type":"Force","location":{"latitude":"54.896869","street":{"id":1017274,"name":"On or near West Street"},"longitude":"-1.579055"},"context":"","outcome_status":null,"persistent_id":"","id":65779130,"location_subtype":"","month":"2018-06"},{"category":"anti-social-behaviour","location_type":"Force","location":{"latitude":"54.883045","street":{"id":1017199,"name":"On or near York Road"},"longitude":"-1.575754"},"context":"","outcome_status":null,"persistent_id":"","id":65778664,"location_subtype":"","month":"2018-06"},{"category":"anti-social-behaviour","location_type":"Force","location":{"latitude":"54.895961","street":{"id":1017320,"name":"On or near Holyoake Gardens"},"longitude":"-1.576476"},"context":"","outcome_status":null,"persistent_id":"","id":65778185,"location_subtype":"","month":"2018-06"},{"category":"anti-social-behaviour","location_type":"Force","location":{"latitude":"54.882142","street":{"id":1017210,"name":"On or near Norfolk Avenue"},"longitude":"-1.571929"},"context":"","outcome_status":null,"persistent_id":"","id":65777833,"location_subtype":"","month":"2018-06"},{"category":"anti-social-behaviour","location_type":"Force","location":{"latitude":"54.895961","street":{"id":1017320,"name":"On or near Holyoake Gardens"},"longitude":"-1.576476"},"context":"","outcome_status":null,"persistent_id":"","id":65777359,"location_subtype":"","month":"2018-06"},{"category":"anti-social-behaviour","location_type":"Force","location":{"latitude":"54.888351","street":{"id":1017202,"name":"On or near Tamerton Drive"},"longitude":"-1.566657"},"context":"","outcome_status":null,"persistent_id":"","id":65777231,"location_subtype":"","month":"2018-06"},{"category":"bicycle-theft","location_type":"Force","location":{"latitude":"54.894187","street":{"id":1017302,"name":"On or near Portmeads Road"},"longitude":"-1.565207"},"context":"","outcome_status":{"category":"Under investigation","date":"2018-06"},"persistent_id":"fcd04b2dabbf633461b8a230bb7b95dd83dc6d84c93d312c4eea0bb2d67646a8","id":65768095,"location_subtype":"","month":"2018-06"},{"category":"burglary","location_type":"Force","location":{"latitude":"54.896903","street":{"id":1017277,"name":"On or near Queen Street"},"longitude":"-1.581347"},"context":"","outcome_status":{"category":"Under investigation","date":"2018-06"},"persistent_id":"56ec5840f3707aaa7b515f99210b490af17220316cda75fb4beb95c61c89c42c","id":65768632,"location_subtype":"","month":"2018-06"},{"category":"burglary","location_type":"Force","location":{"latitude":"54.899611","street":{"id":1017331,"name":"On or near Mount Ridge"},"longitude":"-1.566832"},"context":"","outcome_status":{"category":"Investigation complete; no suspect identified","date":"2018-06"},"persistent_id":"959c1b509912388cb2facfc1ff45ea17121505e91f5460275159699a90974ed3","id":65761859,"location_subtype":"","month":"2018-06"},{"category":"burglary","location_type":"Force","location":{"latitude":"54.899266","street":{"id":1017332,"name":"On or near Mount Pleasant"},"longitude":"-1.575771"},"context":"","outcome_status":{"category":"Under investigation","date":"2018-06"},"persistent_id":"dbb3989665387c32ba4563570d9c63e6437d1679f482733e582fae28137028a3","id":65773188,"location_subtype":"","month":"2018-06"},{"category":"criminal-damage-arson","location_type":"Force","location":{"latitude":"54.894187","street":{"id":1017302,"name":"On or near Portmeads Road"},"longitude":"-1.565207"},"context":"","outcome_status":{"category":"Investigation complete; no suspect identified","date":"2018-06"},"persistent_id":"bd4dc74120b34b3d7aa0d1aa6eb141eb5733b682b948fa5c8f57f675339b7b72","id":65755457,"location_subtype":"","month":"2018-06"},{"category":"criminal-damage-arson","location_type":"Force","location":{"latitude":"54.884946","street":{"id":1017216,"name":"On or near Elgin Place"},"longitude":"-1.571900"},"context":"","outcome_status":{"category":"Investigation complete; no suspect identified","date":"2018-06"},"persistent_id":"6bb6712248d55183d81aabfd306d815cd8a23007d8f4a4e0c06cc44be7ba9c84","id":65769608,"location_subtype":"","month":"2018-06"},{"category":"criminal-damage-arson","location_type":"Force","location":{"latitude":"54.890946","street":{"id":1017353,"name":"On or near Fell Close"},"longitude":"-1.563480"},"context":"","outcome_status":{"category":"Under investigation","date":"2018-06"},"persistent_id":"7eab03d3d5ab9e62177298ddbfb87354dffca3c0aaf5b489b2570ccbdfd57d7f","id":65756108,"location_subtype":"","month":"2018-06"},{"category":"criminal-damage-arson","location_type":"Force","location":{"latitude":"54.884946","street":{"id":1017216,"name":"On or near Elgin Place"},"longitude":"-1.571900"},"context":"","outcome_status":{"category":"Investigation complete; no suspect identified","date":"2018-06"},"persistent_id":"15067aba7d2182a04431e93596586381a7e95bf36ddd759c66cde22d74686c0d","id":65771404,"location_subtype":"","month":"2018-06"},{"category":"criminal-damage-arson","location_type":"Force","location":{"latitude":"54.898489","street":{"id":1017279,"name":"On or near Pine Street"},"longitude":"-1.579989"},"context":"","outcome_status":{"category":"Under investigation","date":"2018-06"},"persistent_id":"9a66bd98151eb3e3f20a51bbc7deae440d5f49a81ce946fff572c61284c0f90d","id":65771022,"location_subtype":"","month":"2018-06"},{"category":"criminal-damage-arson","location_type":"Force","location":{"latitude":"54.890946","street":{"id":1017353,"name":"On or near Fell Close"},"longitude":"-1.563480"},"context":"","outcome_status":{"category":"Investigation complete; no suspect identified","date":"2018-06"},"persistent_id":"a6def4548e19c2c3727e168b7f0382ebd752716274d54c170dedf6650ece0dae","id":65768246,"location_subtype":"","month":"2018-06"},{"category":"criminal-damage-arson","location_type":"Force","location":{"latitude":"54.894187","street":{"id":1017302,"name":"On or near Portmeads Road"},"longitude":"-1.565207"},"context":"","outcome_status":{"category":"Under investigation","date":"2018-06"},"persistent_id":"eb1cff71a3051ad19be1e790af3aca3012c31d86da0efc581a04b7c442c7a268","id":65762826,"location_subtype":"","month":"2018-06"},{"category":"criminal-damage-arson","location_type":"Force","location":{"latitude":"54.880177","street":{"id":1017247,"name":"On or near Durham Place"},"longitude":"-1.572932"},"context":"","outcome_status":{"category":"Under investigation","date":"2018-06"},"persistent_id":"aeb692454157b9ce840480952b1a110724b7fcb86b322d2cd1338b8136331556","id":65772145,"location_subtype":"","month":"2018-06"},{"category":"criminal-damage-arson","location_type":"Force","location":{"latitude":"54.883307","street":{"id":1017203,"name":"On or near Surrey Terrace"},"longitude":"-1.573632"},"context":"","outcome_status":{"category":"Investigation complete; no suspect identified","date":"2018-06"},"persistent_id":"4b8544b9861283b557bf0464e5429284411257f7728267b8524d55c9e00e771e","id":65759484,"location_subtype":"","month":"2018-06"},{"category":"other-theft","location_type":"Force","location":{"latitude":"54.889039","street":{"id":1017300,"name":"On or near Sports\/recreation Area"},"longitude":"-1.578310"},"context":"","outcome_status":{"category":"Under investigation","date":"2018-06"},"persistent_id":"2210f6473db0887f9cfeb4449e628a0aa6a33b4c80a02176b96cf753f836b082","id":65771636,"location_subtype":"","month":"2018-06"},{"category":"other-theft","location_type":"Force","location":{"latitude":"54.896903","street":{"id":1017277,"name":"On or near Queen Street"},"longitude":"-1.581347"},"context":"","outcome_status":{"category":"Under investigation","date":"2018-06"},"persistent_id":"71472df94370f35cd6cfece9f0b67e461d0b3976f5820fa8b203a537fe6f6c2d","id":65762221,"location_subtype":"","month":"2018-06"},{"category":"other-theft","location_type":"Force","location":{"latitude":"54.888779","street":{"id":1017359,"name":"On or near Petrol Station"},"longitude":"-1.558203"},"context":"","outcome_status":{"category":"Under investigation","date":"2018-06"},"persistent_id":"7441d796dbe923bdc51f0e7b5a9445014e84bf01eddf4a25bd90af4edfb9fce9","id":65763878,"location_subtype":"","month":"2018-06"},{"category":"other-theft","location_type":"Force","location":{"latitude":"54.889864","street":{"id":1017357,"name":"On or near Motorway Service Area"},"longitude":"-1.557599"},"context":"","outcome_status":{"category":"Under investigation","date":"2018-06"},"persistent_id":"34388220d05fd09e335475c7cad43e31a8be01fadb99067f10b627b0eb372ff3","id":65771158,"location_subtype":"","month":"2018-06"},{"category":"other-theft","location_type":"Force","location":{"latitude":"54.892108","street":{"id":1017299,"name":"On or near Durham Road"},"longitude":"-1.577093"},"context":"","outcome_status":{"category":"Under investigation","date":"2018-06"},"persistent_id":"739512532dde9d4598566122af727abad312bda72c0e4fe7813be09bfe19149e","id":65770988,"location_subtype":"","month":"2018-06"},{"category":"other-theft","location_type":"Force","location":{"latitude":"54.895961","street":{"id":1017320,"name":"On or near Holyoake Gardens"},"longitude":"-1.576476"},"context":"","outcome_status":{"category":"Investigation complete; no suspect identified","date":"2018-06"},"persistent_id":"2ce2fe8cd01105282ef81496a61dc469dd01954e66969de455ff029af9b089b8","id":65767546,"location_subtype":"","month":"2018-06"},{"category":"other-theft","location_type":"Force","location":{"latitude":"54.880177","street":{"id":1017247,"name":"On or near Durham Place"},"longitude":"-1.572932"},"context":"","outcome_status":{"category":"Investigation complete; no suspect identified","date":"2018-06"},"persistent_id":"978298b9e32e77c7c413c9a4e158be48586e61cb6d15d801872bec02bb5490ba","id":65769510,"location_subtype":"","month":"2018-06"},{"category":"other-theft","location_type":"Force","location":{"latitude":"54.880177","street":{"id":1017247,"name":"On or near Durham Place"},"longitude":"-1.572932"},"context":"","outcome_status":{"category":"Investigation complete; no suspect identified","date":"2018-06"},"persistent_id":"3595e5a86d0a7ed3123049db427fd64ab9c70f56b0189c33a969f2c9af1f61b2","id":65771143,"location_subtype":"","month":"2018-06"},{"category":"other-theft","location_type":"Force","location":{"latitude":"54.889039","street":{"id":1017300,"name":"On or near Sports\/recreation Area"},"longitude":"-1.578310"},"context":"","outcome_status":{"category":"Investigation complete; no suspect identified","date":"2018-06"},"persistent_id":"dbd42a3f9b93cfe4dbc1832c4b647a4d4efdf20db7103564e41d6d08fdc92fe5","id":65752060,"location_subtype":"","month":"2018-06"},{"category":"other-theft","location_type":"Force","location":{"latitude":"54.892108","street":{"id":1017299,"name":"On or near Durham Road"},"longitude":"-1.577093"},"context":"","outcome_status":{"category":"Investigation complete; no suspect identified","date":"2018-06"},"persistent_id":"6509f703e7350358d3cfb65915e1f7a10dd7b3adce027918409cc8052385f135","id":65752078,"location_subtype":"","month":"2018-06"},{"category":"other-theft","location_type":"Force","location":{"latitude":"54.892108","street":{"id":1017299,"name":"On or near Durham Road"},"longitude":"-1.577093"},"context":"","outcome_status":{"category":"Investigation complete; no suspect identified","date":"2018-06"},"persistent_id":"f25fa37a7206ee2d7fae7e8abc523c04fa63099c9bee7535ea56c5f37ee8f35c","id":65753658,"location_subtype":"","month":"2018-06"},{"category":"other-theft","location_type":"Force","location":{"latitude":"54.890411","street":{"id":1017358,"name":"On or near Petrol Station"},"longitude":"-1.559869"},"context":"","outcome_status":{"category":"Investigation complete; no suspect identified","date":"2018-06"},"persistent_id":"df79d1a1abcfb5d55169bf115945c57c06a30bddcf195e9859cd2f444adadd97","id":65760717,"location_subtype":"","month":"2018-06"},{"category":"possession-of-weapons","location_type":"Force","location":{"latitude":"54.893298","street":{"id":1017298,"name":"On or near Parking Area"},"longitude":"-1.578266"},"context":"","outcome_status":{"category":"Awaiting court outcome","date":"2018-06"},"persistent_id":"4a4c986c88d6036863fa358d6efbcb689f002360d268694c92194c50f53360e3","id":65760143,"location_subtype":"","month":"2018-06"},{"category":"possession-of-weapons","location_type":"Force","location":{"latitude":"54.893298","street":{"id":1017298,"name":"On or near Parking Area"},"longitude":"-1.578266"},"context":"","outcome_status":{"category":"Offender given a caution","date":"2018-06"},"persistent_id":"6895b59ece67cbb87ce8b8cdb7f5c870cf511e4ffc0c07918f7eb3de68614a57","id":65760141,"location_subtype":"","month":"2018-06"},{"category":"public-order","location_type":"Force","location":{"latitude":"54.895961","street":{"id":1017320,"name":"On or near Holyoake Gardens"},"longitude":"-1.576476"},"context":"","outcome_status":{"category":"Under investigation","date":"2018-06"},"persistent_id":"9986f0222c911e106be7ec93a69c66d038c09cc51c91813848d2f1b9d6ed6188","id":65771199,"location_subtype":"","month":"2018-06"},{"category":"public-order","location_type":"Force","location":{"latitude":"54.883806","street":{"id":1017237,"name":"On or near Coniston"},"longitude":"-1.564742"},"context":"","outcome_status":{"category":"Under investigation","date":"2018-06"},"persistent_id":"fe23c7edbed4a9178263ea3578c9c9fd829178d24f415805d4c50c69de1cf9e9","id":65772529,"location_subtype":"","month":"2018-06"},{"category":"public-order","location_type":"Force","location":{"latitude":"54.879467","street":{"id":1017246,"name":"On or near Parking Area"},"longitude":"-1.575215"},"context":"","outcome_status":{"category":"Investigation complete; no suspect identified","date":"2018-06"},"persistent_id":"658094b50bc9c94e38a3c63bf6b4ffd8bd4544e657488aceef720e85418a876a","id":65756864,"location_subtype":"","month":"2018-06"},{"category":"public-order","location_type":"Force","location":{"latitude":"54.894187","street":{"id":1017302,"name":"On or near Portmeads Road"},"longitude":"-1.565207"},"context":"","outcome_status":{"category":"Investigation complete; no suspect identified","date":"2018-06"},"persistent_id":"1b962c15ff87e37b0d76d8335e9476c91a38aeb8a0a34abed65ed3c93c41a636","id":65754190,"location_subtype":"","month":"2018-06"},{"category":"public-order","location_type":"Force","location":{"latitude":"54.896594","street":{"id":1017280,"name":"On or near Morris Street"},"longitude":"-1.580118"},"context":"","outcome_status":{"category":"Under investigation","date":"2018-06"},"persistent_id":"f074400c9812c38d0cfb28227fad22c6a5b6d7abb7deef3528b01efdbdfc4507","id":65769691,"location_subtype":"","month":"2018-06"},{"category":"public-order","location_type":"Force","location":{"latitude":"54.896594","street":{"id":1017280,"name":"On or near Morris Street"},"longitude":"-1.580118"},"context":"","outcome_status":{"category":"Under investigation","date":"2018-06"},"persistent_id":"8da1e6ad3702385a255e578d228c07f1e90d3f7f0d901bdfe913064c3ee8cb7b","id":65769690,"location_subtype":"","month":"2018-06"},{"category":"public-order","location_type":"Force","location":{"latitude":"54.896422","street":{"id":1017285,"name":"On or near George Street"},"longitude":"-1.582428"},"context":"","outcome_status":{"category":"Under investigation","date":"2018-06"},"persistent_id":"e5f14c531ef4237e1bc0bd24875573b03d82919a6d3a4967f4aa62545b7c8c5a","id":65751880,"location_subtype":"","month":"2018-06"},{"category":"public-order","location_type":"Force","location":{"latitude":"54.883412","street":{"id":1017220,"name":"On or near Sports\/recreation Area"},"longitude":"-1.572711"},"context":"","outcome_status":{"category":"Under investigation","date":"2018-06"},"persistent_id":"76b0746f92e3f3d958d1bf3908e628f3ddcf3091457dd25c350368a6c54b1c8a","id":65768312,"location_subtype":"","month":"2018-06"},{"category":"public-order","location_type":"Force","location":{"latitude":"54.893298","street":{"id":1017298,"name":"On or near Parking Area"},"longitude":"-1.578266"},"context":"","outcome_status":{"category":"Under investigation","date":"2018-06"},"persistent_id":"49cd46904758d963d749a2301366990224475901354f53e1092dee244b84a523","id":65752440,"location_subtype":"","month":"2018-06"},{"category":"public-order","location_type":"Force","location":{"latitude":"54.893298","street":{"id":1017298,"name":"On or near Parking Area"},"longitude":"-1.578266"},"context":"","outcome_status":{"category":"Under investigation","date":"2018-06"},"persistent_id":"9bf7790ef04343bde1a38830be47d06eb31fba3318d20f73c18adc3fb49b113c","id":65759297,"location_subtype":"","month":"2018-06"},{"category":"public-order","location_type":"Force","location":{"latitude":"54.879467","street":{"id":1017246,"name":"On or near Parking Area"},"longitude":"-1.575215"},"context":"","outcome_status":{"category":"Under investigation","date":"2018-06"},"persistent_id":"9d44e50ebbe03c38c91710b55509d28e435a734acd0e6908f8cc6d4fdaaaf8e9","id":65760704,"location_subtype":"","month":"2018-06"},{"category":"public-order","location_type":"Force","location":{"latitude":"54.880177","street":{"id":1017247,"name":"On or near Durham Place"},"longitude":"-1.572932"},"context":"","outcome_status":{"category":"Under investigation","date":"2018-06"},"persistent_id":"8431d774c900a049ed08d7f8f7102d21d32d40e3a32778ca6b96d48727e64d08","id":65756852,"location_subtype":"","month":"2018-06"},{"category":"public-order","location_type":"Force","location":{"latitude":"54.893298","street":{"id":1017298,"name":"On or near Parking Area"},"longitude":"-1.578266"},"context":"","outcome_status":{"category":"Under investigation","date":"2018-06"},"persistent_id":"1cd7f64d77d9417a84808af3b38857182e88edf72895bdac25330b2cfb82ebaf","id":65759287,"location_subtype":"","month":"2018-06"},{"category":"public-order","location_type":"Force","location":{"latitude":"54.894187","street":{"id":1017302,"name":"On or near Portmeads Road"},"longitude":"-1.565207"},"context":"","outcome_status":{"category":"Under investigation","date":"2018-06"},"persistent_id":"8962d48c2a76fbb09e76cdf6ac320f056dedd92dcb539b7e5a5d05ce291064be","id":65756473,"location_subtype":"","month":"2018-06"},{"category":"public-order","location_type":"Force","location":{"latitude":"54.880177","street":{"id":1017247,"name":"On or near Durham Place"},"longitude":"-1.572932"},"context":"","outcome_status":{"category":"Under investigation","date":"2018-06"},"persistent_id":"0e1922489669725ca62e3abab8405cb69c1adc4de209d24b585cab9a0dfe34da","id":65757528,"location_subtype":"","month":"2018-06"},{"category":"public-order","location_type":"Force","location":{"latitude":"54.889171","street":{"id":1017341,"name":"On or near Lydford Way"},"longitude":"-1.567412"},"context":"","outcome_status":{"category":"Under investigation","date":"2018-06"},"persistent_id":"2440bba1b954fe5fb86543f2e35701e51f4188340da71f8db1e4527ff4d109e5","id":65774492,"location_subtype":"","month":"2018-06"},{"category":"shoplifting","location_type":"Force","location":{"latitude":"54.893298","street":{"id":1017298,"name":"On or near Parking Area"},"longitude":"-1.578266"},"context":"","outcome_status":{"category":"Investigation complete; no suspect identified","date":"2018-06"},"persistent_id":"a78e36c883730dec6d49f08782017903e71a79d255917bf1b04de2604e9fd04a","id":65768383,"location_subtype":"","month":"2018-06"},{"category":"shoplifting","location_type":"Force","location":{"latitude":"54.893298","street":{"id":1017298,"name":"On or near Parking Area"},"longitude":"-1.578266"},"context":"","outcome_status":{"category":"Investigation complete; no suspect identified","date":"2018-06"},"persistent_id":"aebbe4e7819ef5305ca39e6c2980586f4b1eb576b5c8d21f09c3b601b8363c4c","id":65766459,"location_subtype":"","month":"2018-06"},{"category":"shoplifting","location_type":"Force","location":{"latitude":"54.893298","street":{"id":1017298,"name":"On or near Parking Area"},"longitude":"-1.578266"},"context":"","outcome_status":{"category":"Investigation complete; no suspect identified","date":"2018-06"},"persistent_id":"99833ab5d1e97a31853c7562480fc388a35d74d9c11e54654e109e104f7c7d79","id":65769487,"location_subtype":"","month":"2018-06"},{"category":"shoplifting","location_type":"Force","location":{"latitude":"54.893298","street":{"id":1017298,"name":"On or near Parking Area"},"longitude":"-1.578266"},"context":"","outcome_status":{"category":"Investigation complete; no suspect identified","date":"2018-06"},"persistent_id":"c35a83be266d934ebad4dbfd4bc08c5cdc34c267b2f78aec17cf11c32ea3958e","id":65770406,"location_subtype":"","month":"2018-06"},{"category":"shoplifting","location_type":"Force","location":{"latitude":"54.894816","street":{"id":1017292,"name":"On or near Supermarket"},"longitude":"-1.578110"},"context":"","outcome_status":{"category":"Investigation complete; no suspect identified","date":"2018-06"},"persistent_id":"6211104d98390738a87b094ea814183e6c32322f9da96fce712b921f8f92ae5a","id":65753543,"location_subtype":"","month":"2018-06"},{"category":"shoplifting","location_type":"Force","location":{"latitude":"54.894816","street":{"id":1017292,"name":"On or near Supermarket"},"longitude":"-1.578110"},"context":"","outcome_status":{"category":"Under investigation","date":"2018-06"},"persistent_id":"4802393f4c5a78fbb57ff7b63390a014206fabe520d289efd47d87c667a0f1ff","id":65774006,"location_subtype":"","month":"2018-06"},{"category":"theft-from-the-person","location_type":"Force","location":{"latitude":"54.895645","street":{"id":1017275,"name":"On or near Station Lane"},"longitude":"-1.581329"},"context":"","outcome_status":{"category":"Under investigation","date":"2018-06"},"persistent_id":"bfd9805df8d76f4bee5201ea907991d66f45c5544fcdcb47514fc10dc6a4bc03","id":65755487,"location_subtype":"","month":"2018-06"},{"category":"violent-crime","location_type":"Force","location":{"latitude":"54.894187","street":{"id":1017302,"name":"On or near Portmeads Road"},"longitude":"-1.565207"},"context":"","outcome_status":{"category":"Under investigation","date":"2018-06"},"persistent_id":"0bb389d4c23986096aa1106ba5ad6d5c434b60feabbaf2a3afc5f2106d7724a4","id":65762836,"location_subtype":"","month":"2018-06"},{"category":"violent-crime","location_type":"Force","location":{"latitude":"54.895961","street":{"id":1017320,"name":"On or near Holyoake Gardens"},"longitude":"-1.576476"},"context":"","outcome_status":{"category":"Investigation complete; no suspect identified","date":"2018-06"},"persistent_id":"7369e6156af71fa7a4f1e6ba82ad42a7d34d91cf05cf2d913f40b0622b316dfb","id":65769672,"location_subtype":"","month":"2018-06"},{"category":"violent-crime","location_type":"Force","location":{"latitude":"54.897563","street":{"id":1017317,"name":"On or near Primrose Terrace"},"longitude":"-1.571906"},"context":"","outcome_status":{"category":"Under investigation","date":"2018-06"},"persistent_id":"e13402d5e17f57c5163e81d5a3578e2d5eb1d240604f95b86c69e99638962a17","id":65772371,"location_subtype":"","month":"2018-06"},{"category":"violent-crime","location_type":"Force","location":{"latitude":"54.893298","street":{"id":1017298,"name":"On or near Parking Area"},"longitude":"-1.578266"},"context":"","outcome_status":{"category":"Investigation complete; no suspect identified","date":"2018-06"},"persistent_id":"c940af76f484a2e7f8789eaebbfd4323c10d9988ec1474655039a87bcc5f7244","id":65760099,"location_subtype":"","month":"2018-06"},{"category":"violent-crime","location_type":"Force","location":{"latitude":"54.894187","street":{"id":1017302,"name":"On or near Portmeads Road"},"longitude":"-1.565207"},"context":"","outcome_status":{"category":"Investigation complete; no suspect identified","date":"2018-06"},"persistent_id":"1ec80076065d72a61f14d765a6e931549867dcba5fc21e76713dee60efef3354","id":65771152,"location_subtype":"","month":"2018-06"},{"category":"violent-crime","location_type":"Force","location":{"latitude":"54.882142","street":{"id":1017210,"name":"On or near Norfolk Avenue"},"longitude":"-1.571929"},"context":"","outcome_status":{"category":"Under investigation","date":"2018-06"},"persistent_id":"7ac4133ece8b2ac00f0e6b431dcc1f67bb4b496a5f83b1927d089b8d8f71b956","id":65767220,"location_subtype":"","month":"2018-06"},{"category":"violent-crime","location_type":"Force","location":{"latitude":"54.885103","street":{"id":1017207,"name":"On or near Renfrew Place"},"longitude":"-1.570713"},"context":"","outcome_status":{"category":"Under investigation","date":"2018-06"},"persistent_id":"c02b2471d44ef53e0b5c7a5cd1b7abb03e305805bafe35530e53655299d4a107","id":65768393,"location_subtype":"","month":"2018-06"},{"category":"violent-crime","location_type":"Force","location":{"latitude":"54.899611","street":{"id":1017331,"name":"On or near Mount Ridge"},"longitude":"-1.566832"},"context":"","outcome_status":{"category":"Under investigation","date":"2018-06"},"persistent_id":"1115e565483935a189be19caaac882a643e987cd2d4a85b3995639160bb461c6","id":65774356,"location_subtype":"","month":"2018-06"},{"category":"violent-crime","location_type":"Force","location":{"latitude":"54.895961","street":{"id":1017320,"name":"On or near Holyoake Gardens"},"longitude":"-1.576476"},"context":"","outcome_status":{"category":"Under investigation","date":"2018-06"},"persistent_id":"c68404c13d0bd031421830eb5237058ab05f5f8e36bf91aa859acd94fd4aa7d2","id":65768996,"location_subtype":"","month":"2018-06"},{"category":"violent-crime","location_type":"Force","location":{"latitude":"54.895649","street":{"id":1017288,"name":"On or near Beaconsfield Terrace"},"longitude":"-1.579847"},"context":"","outcome_status":{"category":"Under investigation","date":"2018-06"},"persistent_id":"917c4144bfe1c76e3742aa20028c4aea8c87010fb0fa1b9e6ccfa0a62eb934a7","id":65759435,"location_subtype":"","month":"2018-06"},{"category":"violent-crime","location_type":"Force","location":{"latitude":"54.893904","street":{"id":1017310,"name":"On or near Pedestrian Subway"},"longitude":"-1.574034"},"context":"","outcome_status":{"category":"Under investigation","date":"2018-06"},"persistent_id":"599a28731d296c872c929d6d7faa895d8943d287d1def9b1d14d9b64c35e2395","id":65772825,"location_subtype":"","month":"2018-06"},{"category":"violent-crime","location_type":"Force","location":{"latitude":"54.882142","street":{"id":1017210,"name":"On or near Norfolk Avenue"},"longitude":"-1.571929"},"context":"","outcome_status":{"category":"Under investigation","date":"2018-06"},"persistent_id":"dcf0fc5891c36d08c53c95412094b35f3e71f1d5c57cb018e949f6259bf6f06a","id":65752711,"location_subtype":"","month":"2018-06"},{"category":"violent-crime","location_type":"Force","location":{"latitude":"54.880177","street":{"id":1017247,"name":"On or near Durham Place"},"longitude":"-1.572932"},"context":"","outcome_status":{"category":"Under investigation","date":"2018-06"},"persistent_id":"5ab3246b01114e755491a2c94bbdd500de5d7d408964074423af1c1f90ac8356","id":65770090,"location_subtype":"","month":"2018-06"},{"category":"violent-crime","location_type":"Force","location":{"latitude":"54.895649","street":{"id":1017288,"name":"On or near Beaconsfield Terrace"},"longitude":"-1.579847"},"context":"","outcome_status":{"category":"Under investigation","date":"2018-06"},"persistent_id":"d2d0c9e740ed81b5baf64ddbbfa1d2446c77214d659702ff9882284f5e9b0f71","id":65772211,"location_subtype":"","month":"2018-06"},{"category":"violent-crime","location_type":"Force","location":{"latitude":"54.881382","street":{"id":1017197,"name":"On or near Cambridge Place"},"longitude":"-1.573153"},"context":"","outcome_status":{"category":"Under investigation","date":"2018-06"},"persistent_id":"a24f045f8350a4417859f7953a61d6eae8c1c43afdd77a2a55e41fb771c98ce4","id":65771955,"location_subtype":"","month":"2018-06"},{"category":"violent-crime","location_type":"Force","location":{"latitude":"54.885453","street":{"id":1017215,"name":"On or near Errol Place"},"longitude":"-1.568075"},"context":"","outcome_status":{"category":"Under investigation","date":"2018-06"},"persistent_id":"958c19b5fb6140bceed07b9bf04eec6dcc0ef4e1807bf72b39121b130f681000","id":65770098,"location_subtype":"","month":"2018-06"},{"category":"violent-crime","location_type":"Force","location":{"latitude":"54.883412","street":{"id":1017220,"name":"On or near Sports\/recreation Area"},"longitude":"-1.572711"},"context":"","outcome_status":{"category":"Investigation complete; no suspect identified","date":"2018-06"},"persistent_id":"0dbbd4a1819d86f86d02ee7fd6ad84a793d9ca266108e63828d0706790b083f5","id":65758274,"location_subtype":"","month":"2018-06"},{"category":"violent-crime","location_type":"Force","location":{"latitude":"54.894816","street":{"id":1017292,"name":"On or near Supermarket"},"longitude":"-1.578110"},"context":"","outcome_status":{"category":"Awaiting court outcome","date":"2018-06"},"persistent_id":"84db9e210078c0669cc4501beeacab5fd0e7c6076c2b08d5455d36e245d5825f","id":65765434,"location_subtype":"","month":"2018-06"},{"category":"violent-crime","location_type":"Force","location":{"latitude":"54.883412","street":{"id":1017220,"name":"On or near Sports\/recreation Area"},"longitude":"-1.572711"},"context":"","outcome_status":{"category":"Under investigation","date":"2018-06"},"persistent_id":"f80e3026c3eaa646d2fd75d2a6b47c331b7312a752905bbca4498be42d9f6093","id":65774601,"location_subtype":"","month":"2018-06"},{"category":"other-crime","location_type":"Force","location":{"latitude":"54.901898","street":{"id":1017337,"name":"On or near Bewicke View"},"longitude":"-1.565295"},"context":"","outcome_status":{"category":"Under investigation","date":"2018-06"},"persistent_id":"62c72a5591d96fa359fa8e4c1bbbeb015f31a312bece7c70abc09217df6b79b7","id":65770029,"location_subtype":"","month":"2018-06"}]