[{"category":"anti-social-behaviour","location_type":"Force","location":{"latitude":"51.396423","street":{"id":1187673,"name":"On or near Pedestrian Subway"},"longitude":"-0.735339"},"context":"","outcome_status":null,"persistent_id":"5ffcc8a11aa4c0428b5e55acc058ca1ca6500699f3ccefa79a968adb78b28a09","id":66225137,"location_subtype":"","month":"2018-06"},{"category":"anti-social-behaviour","location_type":"Force","location":{"latitude":"51.393442","street":{"id":1185934,"name":"On or near Higher Alham"},"longitude":"-0.734847"},"context":"","outcome_status":null,"persistent_id":"0445d38a8a5d5b08bcc0080df908641d88e16594eda3e1f28b61759b3a39d152","id":66225633,"location_subtype":"","month":"2018-06"},{"category":"anti-social-behaviour","location_type":"Force","location":{"latitude":"51.398248","street":{"id":1187697,"name":"On or near Horndean Road"},"longitude":"-0.728662"},"context":"","outcome_status":null,"persistent_id":"58e9304492de241c8ce3b29a3d21bcdd191a7355b14c43d808c686ebbf043b1c","id":66223197,"location_subtype":"","month":"2018-06"},{"category":"anti-social-behaviour","location_type":"Force","location":{"latitude":"51.398190","street":{"id":1187696,"name":"On or near Keepers Combe"},"longitude":"-0.739114"},"context":"","outcome_status":null,"persistent_id":"0a63babfda0621d6e47426e0a0f3556a1f0b23aee302d3f712309c306116bf34","id":66223414,"location_subtype":"","month":"2018-06"},{"category":"anti-social-behaviour","location_type":"Force","location":{"latitude":"51.398190","street":{"id":1187696,"name":"On or near Keepers Combe"},"longitude":"-0.739114"},"context":"","outcome_status":null,"persistent_id":"88a161d480013acfbad5bae713bdfe66b749c005a2db02a4823559e9312be212","id":66223191,"location_subtype":"","month":"2018-06"},{"category":"anti-social-behaviour","location_type":"Force","location":{"latitude":"51.400801","street":{"id":1187637,"name":"On or near Helmsdale"},"longitude":"-0.736067"},"context":"","outcome_status":null,"persistent_id":"4d7496b4988fbba2671c8c5aaf0f377c74402ebdbb660a5b932071f002e61239","id":66225903,"location_subtype":"","month":"2018-06"},{"category":"criminal-damage-arson","location_type":"Force","location":{"latitude":"51.403356","street":{"id":1187617,"name":"On or near Townsend Close"},"longitude":"-0.731195"},"context":"","outcome_status":{"category":"Investigation complete; no suspect identified","date":"2018-06"},"persistent_id":"7d6717e245d19a1da218c81c94a8978c87566e1a28eff3596498378c16d64bf7","id":66236863,"location_subtype":"","month":"2018-06"},{"category":"criminal-damage-arson","location_type":"Force","location":{"latitude":"51.395845","street":{"id":1187694,"name":"On or near Leaves Green"},"longitude":"-0.740070"},"context":"","outcome_status":{"category":"Investigation complete; no suspect identified","date":"2018-06"},"persistent_id":"64f6573874b38847597b55f4008236aab4126137ad838e7869075dea4b4b20ed","id":66228475,"location_subtype":"","month":"2018-06"},{"category":"criminal-damage-arson","location_type":"Force","location":{"latitude":"51.399146","street":{"id":1187704,"name":"On or near Chisbury Close"},"longitude":"-0.730147"},"context":"","outcome_status":{"category":"Under investigation","date":"2018-06"},"persistent_id":"bb709cee7deb267be62a792e13bb60750ed0eeb5adb3f7d4f8d1bcb1ea309ac6","id":66227465,"location_subtype":"","month":"2018-06"},{"category":"other-theft","location_type":"Force","location":{"latitude":"51.398260","street":{"id":1187592,"name":"On or near Petrol Station"},"longitude":"-0.744747"},"context":"","outcome_status":{"category":"Under investigation","date":"2018-06"},"persistent_id":"aac4e43cb351d5afda2f6257077ba763abf0a16b9560944c9c43c32ab6b0580f","id":66229646,"location_subtype":"","month":"2018-06"},{"category":"other-theft","location_type":"Force","location":{"latitude":"51.393965","street":{"id":1185940,"name":"On or near Batcombe Mead"},"longitude":"-0.734142"},"context":"","outcome_status":{"category":"Investigation complete; no suspect identified","date":"2018-06"},"persistent_id":"7d24bb6c2f8ac980cf28443734072ed582b367fbb446f4712bd93e55564d844b","id":66229144,"location_subtype":"","month":"2018-06"},{"category":"public-order","location_type":"Force","location":{"latitude":"51.393965","street":{"id":1185940,"name":"On or near Batcombe Mead"},"longitude":"-0.734142"},"context":"","outcome_status":{"category":"Under investigation","date":"2018-06"},"persistent_id":"c70d78e048da0b6fdca8a46c34c9053ae8b78bba007c66e2e5270cc84c18432f","id":66237567,"location_subtype":"","month":"2018-06"},{"category":"public-order","location_type":"Force","location":{"latitude":"51.393965","street":{"id":1185940,"name":"On or near Batcombe Mead"},"longitude":"-0.734142"},"context":"","outcome_status":{"category":"Under investigation","date":"2018-06"},"persistent_id":"93b2ba812c4802e23949f56b3e1babb61264285fa3056139b43e7788b3bad4af","id":66239701,"location_subtype":"","month":"2018-06"},{"category":"robbery","location_type":"Force","location":{"latitude":"51.394667","street":{"id":1187672,"name":"On or near Pedestrian Subway"},"longitude":"-0.740878"},"context":"","outcome_status":{"category":"Under investigation","date":"2018-06"},"persistent_id":"4de5c3781850daaf22dbd357823f7325f036306dde47fe8dbde705357388104e","id":66235070,"location_subtype":"","month":"2018-06"},{"category":"shoplifting","location_type":"Force","location":{"latitude":"51.395929","street":{"id":1187675,"name":"On or near Parking Area"},"longitude":"-0.736215"},"context":"","outcome_status":{"category":"Under investigation","date":"2018-06"},"persistent_id":"f92eef6d2b93a772a09404a03557c27aea6a7eedcd369e49715c45d030777498","id":66238602,"location_subtype":"","month":"2018-06"},{"category":"shoplifting","location_type":"Force","location":{"latitude":"51.398260","street":{"id":1187592,"name":"On or near Petrol Station"},"longitude":"-0.744747"},"context":"","outcome_status":{"category":"Under investigation","date":"2018-06"},"persistent_id":"3d28008eda6f0829a86aa51e15016d4b8710562c03c5a7b2d390f578b5080e71","id":66233059,"location_subtype":"","month":"2018-06"},{"category":"shoplifting","location_type":"Force","location":{"latitude":"51.398248","street":{"id":1187697,"name":"On or near Horndean Road"},"longitude":"-0.728662"},"context":"","outcome_status":{"category":"Under investigation","date":"2018-06"},"persistent_id":"74a49b18accb72fa74d5d41689183205b0bc2a05f8daa111bd003d452f505562","id":66230616,"location_subtype":"","month":"2018-06"},{"category":"vehicle-crime","location_type":"Force","location":{"latitude":"51.394730","street":{"id":1187674,"name":"On or near Pedestrian Subway"},"longitude":"-0.741768"},"context":"","outcome_status":{"category":"Investigation complete; no suspect identified","date":"2018-06"},"persistent_id":"cf71fa57f0d7a9b537a6db8afc2726254780f108506afbb120a13c8ead4252ff","id":66230179,"location_subtype":"","month":"2018-06"},{"category":"vehicle-crime","location_type":"Force","location":{"latitude":"51.398260","street":{"id":1187592,"name":"On or near Petrol Station"},"longitude":"-0.744747"},"context":"","outcome_status":{"category":"Under investigation","date":"2018-06"},"persistent_id":"ffc30d2721d3e451ee88167cda0f3ec22efca42cfd6657eba181e2c363aaaeb5","id":66239141,"location_subtype":"","month":"2018-06"},{"category":"vehicle-crime","location_type":"Force","location":{"latitude":"51.401097","street":{"id":1183366,"name":"On or near Nuthurst"},"longitude":"-0.733514"},"context":"","outcome_status":{"category":"Investigation complete; no suspect identified","date":"2018-06"},"persistent_id":"53cf9af37d40446adefd5a6d5c9294c0d1dcd8f4460a54822d005a686b8cc9c5","id":66234954,"location_subtype":"","month":"2018-06"},{"category":"vehicle-crime","location_type":"Force","location":{"latitude":"51.394600","street":{"id":1187693,"name":"On or near Leicester"},"longitude":"-0.736353"},"context":"","outcome_status":{"category":"Investigation complete; no suspect identified","date":"2018-06"},"persistent_id":"f8e46899a0490815ac23f2b46eb11cee07033e4c8a3de4ae2dcbbba0554bf879","id":66231123,"location_subtype":"","month":"2018-06"},{"category":"vehicle-crime","location_type":"Force","location":{"latitude":"51.398480","street":{"id":1187695,"name":"On or near Kimmeridge"},"longitude":"-0.732638"},"context":"","outcome_status":{"category":"Investigation complete; no suspect identified","date":"2018-06"},"persistent_id":"01a50015a5287d768d81aebf46672ae044096c827ef57428ad8749a74f63d4e5","id":66234002,"location_subtype":"","month":"2018-06"},{"category":"vehicle-crime","location_type":"Force","location":{"latitude":"51.392602","street":{"id":1185931,"name":"On or near Kilmington Close"},"longitude":"-0.734582"},"context":"","outcome_status":{"category":"Investigation complete; no suspect identified","date":"2018-06"},"persistent_id":"c112357654020d385d69caeab18b5b4244de1d220cfdce386f7aa749562492a3","id":66239623,"location_subtype":"","month":"2018-06"},{"category":"violent-crime","location_type":"Force","location":{"latitude":"51.401384","street":{"id":1187652,"name":"On or near Axbridge"},"longitude":"-0.730933"},"context":"","outcome_status":{"category":"Under investigation","date":"2018-06"},"persistent_id":"0a6b8bed4bd495a92d3296f5dad637ca6de0faaf59da26de87c254e3d578662d","id":66236238,"location_subtype":"","month":"2018-06"},{"category":"violent-crime","location_type":"Force","location":{"latitude":"51.396310","street":{"id":1187680,"name":"On or near Southwick Court"},"longitude":"-0.729808"},"context":"","outcome_status":{"category":"Under investigation","date":"2018-06"},"persistent_id":"6a4e12b47ef71263e85a0dba2055226866a77d26a3a061ab5517e942de94017c","id":66232746,"location_subtype":"","month":"2018-06"},{"category":"violent-crime","location_type":"Force","location":{"latitude":"51.394600","street":{"id":1187693,"name":"On or near Leicester"},"longitude":"-0.736353"},"context":"","outcome_status":{"category":"Under investigation","date":"2018-06"},"persistent_id":"40ddb81cbb757cfd140a59271c919b74b6b747350a01c4dcc2dcd863e2da4a9e","id":66232740,"location_subtype":"","month":"2018-06"},{"category":"violent-crime","location_type":"Force","location":{"latitude":"51.396310","street":{"id":1187680,"name":"On or near Southwick Court"},"longitude":"-0.729808"},"context":"","outcome_status":{"category":"Under investigation","date":"2018-06"},"persistent_id":"b805a65e8f4fa559db5c8ebf2b6655ded61952ceeae64d15ec4d6f1e9ed14ba4","id":66231787,"location_subtype":"","month":"2018-06"},{"category":"violent-crime","location_type":"Force","location":{"latitude":"51.400484","street":{"id":1187645,"name":"On or near Crofton Close"},"longitude":"-0.729995"},"context":"","outcome_status":{"category":"Under investigation","date":"2018-06"},"persistent_id":"a12280045b91eb8d4129b3a17b5791cbed7a06900f2c93971d17492f16eeef58","id":66230821,"location_subtype":"","month":"2018-06"},{"category":"violent-crime","location_type":"Force","location":{"latitude":"51.398190","street":{"id":1187696,"name":"On or near Keepers Combe"},"longitude":"-0.739114"},"context":"","outcome_status":{"category":"Under investigation","date":"2018-06"},"persistent_id":"ef34d962ecff651c6da0a946321cdd76748a6bd6379586f8090a0163174dfcd7","id":66231326,"location_subtype":"","month":"2018-06"},{"category":"violent-crime","location_type":"Force","location":{"latitude":"51.398260","street":{"id":1187592,"name":"On or near Petrol Station"},"longitude":"-0.744747"},"context":"","outcome_status":{"category":"Under investigation","date":"2018-06"},"persistent_id":"3b2cb302e1fe07073e589da2b2fdb2fbf8dce3b8d59823b0179a42639bd6ab4c","id":66229342,"location_subtype":"","month":"2018-06"},{"category":"violent-crime","location_type":"Force","location":{"latitude":"51.394730","street":{"id":1187674,"name":"On or near Pedestrian Subway"},"longitude":"-0.741768"},"context":"","outcome_status":{"category":"Under investigation","date":"2018-06"},"persistent_id":"b57c1a1191f81d44fa7d99c13a18be16f83d6851c746937a3ea1f701e6410dc3","id":66227356,"location_subtype":"","month":"2018-06"},{"category":"violent-crime","location_type":"Force","location":{"latitude":"51.401859","street":{"id":1187643,"name":"On or near Durley Mead"},"longitude":"-0.724968"},"context":"","outcome_status":{"category":"Under investigation","date":"2018-06"},"persistent_id":"6e3d818d733afcb0fc841dd5bd36f4dda0b32225e09eeae208a3b9f7a2ac847b","id":66240759,"location_subtype":"","month":"2018-06"},{"category":"violent-crime","location_type":"Force","location":{"latitude":"51.396788","street":{"id":1187684,"name":"On or near Purbrook Court"},"longitude":"-0.729939"},"context":"","outcome_status":{"category":"Under investigation","date":"2018-06"},"persistent_id":"ab6fcd1411c11aa4d11ee88b09b9ec48c514dae5aa08b39b92f5e78192f9e023","id":66240756,"location_subtype":"","month":"2018-06"},{"category":"violent-crime","location_type":"Force","location":{"latitude":"51.401097","street":{"id":1183366,"name":"On or near Nuthurst"},"longitude":"-0.733514"},"context":"","outcome_status":{"category":"Under investigation","date":"2018-06"},"persistent_id":"746650e7094063bf4ae4a78c2f64dfde8f26c22e85bf3b297ccfc954b5d2beea","id":66239830,"location_subtype":"","month":"2018-06"},{"category":"violent-crime","location_type":"Force","location":{"latitude":"51.393154","street":{"id":1185946,"name":"On or near Chesterblade Lane"},"longitude":"-0.735702"},"context":"","outcome_status":{"category":"Under investigation","date":"2018-06"},"persistent_id":"6da2529fa8e35236c70cd699497d4e007cd39adf428db47a12c01d6d2d6ec4c6","id":66237733,"location_subtype":"","month":"2018-06"},{"category":"violent-crime","location_type":"Force","location":{"latitude":"51.393154","street":{"id":1185946,"name":"On or near Chesterblade Lane"},"longitude":"-0.735702"},"context":"","outcome_status":{"category":"Under investigation","date":"2018-06"},"persistent_id":"4385ed614d7a3d473fb413c93907fb283034edce4515ae7e3e133426e572488b","id":66238308,"location_subtype":"","month":"2018-06"},{"category":"violent-crime","location_type":"Force","location":{"latitude":"51.393154","street":{"id":1185946,"name":"On or near Chesterblade Lane"},"longitude":"-0.735702"},"context":"","outcome_status":{"category":"Under investigation","date":"2018-06"},"persistent_id":"636a9aaf320eaeee2af9cee2fcbe6378cbe2967d3c8063207b13bce1ece6864b","id":66238306,"location_subtype":"","month":"2018-06"},{"category":"violent-crime","location_type":"Force","location":{"latitude":"51.393154","street":{"id":1185946,"name":"On or near Chesterblade Lane"},"longitude":"-0.735702"},"context":"","outcome_status":{"category":"Under investigation","date":"2018-06"},"persistent_id":"5bb137b29cd4d0b3cadf37cc952f7b85899d2120f5b19f1e46db590ae5d53ae9","id":66238305,"location_subtype":"","month":"2018-06"},{"category":"violent-crime","location_type":"Force","location":{"latitude":"51.393154","street":{"id":1185946,"name":"On or near Chesterblade Lane"},"longitude":"-0.735702"},"context":"","outcome_status":{"category":"Under investigation","date":"2018-06"},"persistent_id":"8f471a47fe37ae425d96dd9647dc8dd3dcbb41e6be544a5ff7d5f2061cff0658","id":66238304,"location_subtype":"","month":"2018-06"},{"category":"violent-crime","location_type":"Force","location":{"latitude":"51.393154","street":{"id":1185946,"name":"On or near Chesterblade Lane"},"longitude":"-0.735702"},"context":"","outcome_status":{"category":"Under investigation","date":"2018-06"},"persistent_id":"c4061c376ef378fc7a264e44d3ebccc75d1761c481eec6d85f81ba3a75cd86c1","id":66238303,"location_subtype":"","month":"2018-06"},{"category":"violent-crime","location_type":"Force","location":{"latitude":"51.393154","street":{"id":1185946,"name":"On or near Chesterblade Lane"},"longitude":"-0.735702"},"context":"","outcome_status":{"category":"Under investigation","date":"2018-06"},"persistent_id":"1cdfba4eff8ab61f6fa93fdd7f0484ea1f5c11a34ac96c9310992fead44cd3fc","id":66238307,"location_subtype":"","month":"2018-06"},{"category":"violent-crime","location_type":"Force","location":{"latitude":"51.393154","street":{"id":1185946,"name":"On or near Chesterblade Lane"},"longitude":"-0.735702"},"context":"","outcome_status":{"category":"Under investigation","date":"2018-06"},"persistent_id":"2b4f4362db5f69bea62d253e166fb1b60e1fbf81f7bf6eb5a417cd103f9b9935","id":66238302,"location_subtype":"","month":"2018-06"},{"category":"violent-crime","location_type":"Force","location":{"latitude":"51.395929","street":{"id":1187675,"name":"On or near Parking Area"},"longitude":"-0.736215"},"context":"","outcome_status":{"category":"Under investigation","date":"2018-06"},"persistent_id":"6181380a50f1ffa81b3eefa66fb8775bff25c0376e00cf04a07044e4cc3db560","id":66236237,"location_subtype":"","month":"2018-06"},{"category":"violent-crime","location_type":"Force","location":{"latitude":"51.401097","street":{"id":1183366,"name":"On or near Nuthurst"},"longitude":"-0.733514"},"context":"","outcome_status":{"category":"Under investigation","date":"2018-06"},"persistent_id":"e76d4a1ae3a4e627f25c0d86c450be4d9d100388673c1e4afcf7a0808fe6870d","id":66234205,"location_subtype":"","month":"2018-06"}]