[{"category":"anti-social-behaviour","location_type":"Force","location":{"latitude":"51.287181","street":{"id":1151797,"name":"On or near Sayers Close"},"longitude":"-0.362034"},"context":"","outcome_status":null,"persistent_id":"554fd7ba6fc67d388c02a1be61837a2c819843957f1ed0852a705647e0b2e14e","id":65904442,"location_subtype":"","month":"2018-06"},{"category":"anti-social-behaviour","location_type":"Force","location":{"latitude":"51.291499","street":{"id":1151785,"name":"On or near Hazelway Close"},"longitude":"-0.364074"},"context":"","outcome_status":null,"persistent_id":"554fd7ba6fc67d388c02a1be61837a2c819843957f1ed0852a705647e0b2e14e","id":65904528,"location_subtype":"","month":"2018-06"},{"category":"anti-social-behaviour","location_type":"Force","location":{"latitude":"51.291450","street":{"id":1151772,"name":"On or near Sherwood Close"},"longitude":"-0.362484"},"context":"","outcome_status":null,"persistent_id":"554fd7ba6fc67d388c02a1be61837a2c819843957f1ed0852a705647e0b2e14e","id":65905072,"location_subtype":"","month":"2018-06"},{"category":"anti-social-behaviour","location_type":"Force","location":{"latitude":"51.289897","street":{"id":1151811,"name":"On or near Gatesden Close"},"longitude":"-0.360704"},"context":"","outcome_status":null,"persistent_id":"554fd7ba6fc67d388c02a1be61837a2c819843957f1ed0852a705647e0b2e14e","id":65904540,"location_subtype":"","month":"2018-06"},{"category":"anti-social-behaviour","location_type":"Force","location":{"latitude":"51.295289","street":{"id":1151791,"name":"On or near Sports\/recreation Area"},"longitude":"-0.361774"},"context":"","outcome_status":null,"persistent_id":"554fd7ba6fc67d388c02a1be61837a2c819843957f1ed0852a705647e0b2e14e","id":65904533,"location_subtype":"","month":"2018-06"},{"category":"anti-social-behaviour","location_type":"Force","location":{"latitude":"51.289932","street":{"id":1151796,"name":"On or near Spring Grove"},"longitude":"-0.366468"},"context":"","outcome_status":null,"persistent_id":"554fd7ba6fc67d388c02a1be61837a2c819843957f1ed0852a705647e0b2e14e","id":65904531,"location_subtype":"","month":"2018-06"},{"category":"anti-social-behaviour","location_type":"Force","location":{"latitude":"51.291499","street":{"id":1151785,"name":"On or near Hazelway Close"},"longitude":"-0.364074"},"context":"","outcome_status":null,"persistent_id":"554fd7ba6fc67d388c02a1be61837a2c819843957f1ed0852a705647e0b2e14e","id":65904529,"location_subtype":"","month":"2018-06"},{"category":"burglary","location_type":"Force","location":{"latitude":"51.289897","street":{"id":1151811,"name":"On or near Gatesden Close"},"longitude":"-0.360704"},"context":"","outcome_status":{"category":"Under investigation","date":"2018-06"},"persistent_id":"9cd44531bfea7f0370ed6362daedbdc2a8198ab2212d653b497add79eaabb3cb","id":65904617,"location_subtype":"","month":"2018-06"},{"category":"burglary","location_type":"Force","location":{"latitude":"51.292343","street":{"id":1151780,"name":"On or near Lodge Road"},"longitude":"-0.358164"},"context":"","outcome_status":{"category":"Under investigation","date":"2018-06"},"persistent_id":"b5ccdea590f122448d051f62c5e4c69f053eaf21070e608860fd0103121a91fa","id":65903109,"location_subtype":"","month":"2018-06"},{"category":"criminal-damage-arson","location_type":"Force","location":{"latitude":"51.291499","street":{"id":1151785,"name":"On or near Hazelway Close"},"longitude":"-0.364074"},"context":"","outcome_status":{"category":"Under investigation","date":"2018-06"},"persistent_id":"e12421addfd2994d5be35d85a773ec657edf4907568bafd111064fb6f1fe5442","id":65904878,"location_subtype":"","month":"2018-06"},{"category":"criminal-damage-arson","location_type":"Force","location":{"latitude":"51.291499","street":{"id":1151785,"name":"On or near Hazelway Close"},"longitude":"-0.364074"},"context":"","outcome_status":{"category":"Unable to prosecute suspect","date":"2018-06"},"persistent_id":"e076f5449adb412475258e81def808a6bfbbf2fce5ddc6a0195b2bc0575e225c","id":65902102,"location_subtype":"","month":"2018-06"},{"category":"criminal-damage-arson","location_type":"Force","location":{"latitude":"51.291450","street":{"id":1151772,"name":"On or near Sherwood Close"},"longitude":"-0.362484"},"context":"","outcome_status":{"category":"Investigation complete; no suspect identified","date":"2018-06"},"persistent_id":"377f63b85b89c36b87b1b61a9f27e6e10086c4a3e7e9e42878c6e6c452e47190","id":65902324,"location_subtype":"","month":"2018-06"},{"category":"criminal-damage-arson","location_type":"Force","location":{"latitude":"51.293771","street":{"id":1151714,"name":"On or near Commonside"},"longitude":"-0.374808"},"context":"","outcome_status":{"category":"Investigation complete; no suspect identified","date":"2018-06"},"persistent_id":"e9db6c1b0628a23d78d64cb37edef9d23896b7b9053d9a8ffe67e60fad6df8c5","id":65904874,"location_subtype":"","month":"2018-06"},{"category":"public-order","location_type":"Force","location":{"latitude":"51.286590","street":{"id":1151815,"name":"On or near Apple Tree Close"},"longitude":"-0.362858"},"context":"","outcome_status":{"category":"Investigation complete; no suspect identified","date":"2018-06"},"persistent_id":"5bbc2b6e93f30eb5a0f451471299baf5100c14f2d2a2f43c02da462b45139492","id":65904873,"location_subtype":"","month":"2018-06"},{"category":"vehicle-crime","location_type":"Force","location":{"latitude":"51.291714","street":{"id":1151704,"name":"On or near The Copse"},"longitude":"-0.369129"},"context":"","outcome_status":{"category":"Investigation complete; no suspect identified","date":"2018-06"},"persistent_id":"9372207fec806e40a8c111c23c7ef5ddcece00ef1fd6323548606aa738d313f5","id":65905216,"location_subtype":"","month":"2018-06"},{"category":"violent-crime","location_type":"Force","location":{"latitude":"51.295096","street":{"id":1151788,"name":"On or near Cock Lane"},"longitude":"-0.360203"},"context":"","outcome_status":{"category":"Unable to prosecute suspect","date":"2018-06"},"persistent_id":"8a9a80fc7593f76a4ef6590a91626f54e8a68131cf499c5e284276e63fa89e95","id":65903131,"location_subtype":"","month":"2018-06"},{"category":"violent-crime","location_type":"Force","location":{"latitude":"51.291499","street":{"id":1151785,"name":"On or near Hazelway Close"},"longitude":"-0.364074"},"context":"","outcome_status":{"category":"Under investigation","date":"2018-06"},"persistent_id":"b18db5f14a9487b50480f5369aa572573de681880088c81f90d30510f5e10d49","id":65898808,"location_subtype":"","month":"2018-06"},{"category":"violent-crime","location_type":"Force","location":{"latitude":"51.297902","street":{"id":1152769,"name":"On or near Monks Green"},"longitude":"-0.358898"},"context":"","outcome_status":{"category":"Investigation complete; no suspect identified","date":"2018-06"},"persistent_id":"4f27260ef43b3b1f6bdc0408a553a6d84a5190d89540fecd5071c7aa4ddda0d2","id":65899780,"location_subtype":"","month":"2018-06"}]