[{"category":"anti-social-behaviour","location_type":"Force","location":{"latitude":"51.728773","street":{"id":702916,"name":"On or near New Street"},"longitude":"-2.273254"},"context":"","outcome_status":null,"persistent_id":"ad6bfcbfca5afde180645a6d86d80a0e90485e0285469db80a294d307a229a0f","id":66011625,"location_subtype":"","month":"2018-06"},{"category":"anti-social-behaviour","location_type":"Force","location":{"latitude":"51.726044","street":{"id":702939,"name":"On or near Daffodil Leaze"},"longitude":"-2.263479"},"context":"","outcome_status":null,"persistent_id":"ad6bfcbfca5afde180645a6d86d80a0e90485e0285469db80a294d307a229a0f","id":66011401,"location_subtype":"","month":"2018-06"},{"category":"anti-social-behaviour","location_type":"Force","location":{"latitude":"51.726044","street":{"id":702939,"name":"On or near Daffodil Leaze"},"longitude":"-2.263479"},"context":"","outcome_status":null,"persistent_id":"ad6bfcbfca5afde180645a6d86d80a0e90485e0285469db80a294d307a229a0f","id":66011400,"location_subtype":"","month":"2018-06"},{"category":"anti-social-behaviour","location_type":"Force","location":{"latitude":"51.731844","street":{"id":703396,"name":"On or near Brimley"},"longitude":"-2.278543"},"context":"","outcome_status":null,"persistent_id":"ad6bfcbfca5afde180645a6d86d80a0e90485e0285469db80a294d307a229a0f","id":66011349,"location_subtype":"","month":"2018-06"},{"category":"anti-social-behaviour","location_type":"Force","location":{"latitude":"51.729297","street":{"id":702913,"name":"On or near The Street"},"longitude":"-2.286969"},"context":"","outcome_status":null,"persistent_id":"ad6bfcbfca5afde180645a6d86d80a0e90485e0285469db80a294d307a229a0f","id":66010855,"location_subtype":"","month":"2018-06"},{"category":"anti-social-behaviour","location_type":"Force","location":{"latitude":"51.728527","street":{"id":702932,"name":"On or near Supermarket"},"longitude":"-2.274498"},"context":"","outcome_status":null,"persistent_id":"ad6bfcbfca5afde180645a6d86d80a0e90485e0285469db80a294d307a229a0f","id":66010516,"location_subtype":"","month":"2018-06"},{"category":"anti-social-behaviour","location_type":"Force","location":{"latitude":"51.726044","street":{"id":702939,"name":"On or near Daffodil Leaze"},"longitude":"-2.263479"},"context":"","outcome_status":null,"persistent_id":"ad6bfcbfca5afde180645a6d86d80a0e90485e0285469db80a294d307a229a0f","id":66010484,"location_subtype":"","month":"2018-06"},{"category":"anti-social-behaviour","location_type":"Force","location":{"latitude":"51.726044","street":{"id":702939,"name":"On or near Daffodil Leaze"},"longitude":"-2.263479"},"context":"","outcome_status":null,"persistent_id":"ad6bfcbfca5afde180645a6d86d80a0e90485e0285469db80a294d307a229a0f","id":66010309,"location_subtype":"","month":"2018-06"},{"category":"anti-social-behaviour","location_type":"Force","location":{"latitude":"51.726044","street":{"id":702939,"name":"On or near Daffodil Leaze"},"longitude":"-2.263479"},"context":"","outcome_status":null,"persistent_id":"ad6bfcbfca5afde180645a6d86d80a0e90485e0285469db80a294d307a229a0f","id":66010165,"location_subtype":"","month":"2018-06"},{"category":"anti-social-behaviour","location_type":"Force","location":{"latitude":"51.726044","street":{"id":702939,"name":"On or near Daffodil Leaze"},"longitude":"-2.263479"},"context":"","outcome_status":null,"persistent_id":"ad6bfcbfca5afde180645a6d86d80a0e90485e0285469db80a294d307a229a0f","id":66010153,"location_subtype":"","month":"2018-06"},{"category":"burglary","location_type":"Force","location":{"latitude":"51.727338","street":{"id":702919,"name":"On or near Marsh Lane"},"longitude":"-2.282786"},"context":"","outcome_status":{"category":"Under investigation","date":"2018-06"},"persistent_id":"e443c62570fefb6344efa8d73da1f29ce36c058c43acde4af08f7db02361e66a","id":66007367,"location_subtype":"","month":"2018-06"},{"category":"burglary","location_type":"Force","location":{"latitude":"51.726044","street":{"id":702939,"name":"On or near Daffodil Leaze"},"longitude":"-2.263479"},"context":"","outcome_status":{"category":"Investigation complete; no suspect identified","date":"2018-06"},"persistent_id":"ca944c3987c2604003f57c6f096281c7a5b2eec37a683b373b5d4d77675c2650","id":66009283,"location_subtype":"","month":"2018-06"},{"category":"criminal-damage-arson","location_type":"Force","location":{"latitude":"51.732545","street":{"id":703394,"name":"On or near Brockley Road"},"longitude":"-2.278808"},"context":"","outcome_status":{"category":"Under investigation","date":"2018-06"},"persistent_id":"fc548b236c2260244086666c3320f3819f421dd1ac6313650bb2d5ee632a5adb","id":66008394,"location_subtype":"","month":"2018-06"},{"category":"other-theft","location_type":"Force","location":{"latitude":"51.728191","street":{"id":702924,"name":"On or near Church Road"},"longitude":"-2.287106"},"context":"","outcome_status":{"category":"Investigation complete; no suspect identified","date":"2018-06"},"persistent_id":"4465a8cd381ef928d22d4bce35ee4274f0c6bff3c1f39ff5c68d8f68d0d5937e","id":66009013,"location_subtype":"","month":"2018-06"},{"category":"violent-crime","location_type":"Force","location":{"latitude":"51.735744","street":{"id":701164,"name":"On or near Selwyn Close"},"longitude":"-2.275656"},"context":"","outcome_status":{"category":"Under investigation","date":"2018-06"},"persistent_id":"0530cea163c951456a1153dfd1ed066dc0635437359e8816a13a9d8e6645fb9d","id":66008238,"location_subtype":"","month":"2018-06"}]