[{"category":"anti-social-behaviour","location_type":"Force","location":{"latitude":"53.577583","street":{"id":744147,"name":"On or near Cheapside Square"},"longitude":"-2.428563"},"context":"","outcome_status":null,"persistent_id":"2fcc847e83042eb05107d8d97bac852b99129344e79168d32f3da053e4290697","id":65659112,"location_subtype":"","month":"2018-06"},{"category":"anti-social-behaviour","location_type":"Force","location":{"latitude":"53.576720","street":{"id":744179,"name":"On or near Back Bradshawgate"},"longitude":"-2.426183"},"context":"","outcome_status":null,"persistent_id":"ac91ae8bd3967bd0ae483ec7210dccb4ac68c9fc065810e3343d47ac1a8b13cf","id":65659052,"location_subtype":"","month":"2018-06"},{"category":"anti-social-behaviour","location_type":"Force","location":{"latitude":"53.559989","street":{"id":742509,"name":"On or near Hampton Road"},"longitude":"-2.422074"},"context":"","outcome_status":null,"persistent_id":"2ad833995aaa241e6f011416ed58e271bf7cd3228d5926d88baab79b62634ba0","id":65659051,"location_subtype":"","month":"2018-06"},{"category":"anti-social-behaviour","location_type":"Force","location":{"latitude":"53.561738","street":{"id":742619,"name":"On or near Back Higher Swan Lane"},"longitude":"-2.440601"},"context":"","outcome_status":null,"persistent_id":"82876c7832016fa591a9f372a236b9a4a04a26c823960d119831f9524992c32f","id":65659049,"location_subtype":"","month":"2018-06"},{"category":"anti-social-behaviour","location_type":"Force","location":{"latitude":"53.562816","street":{"id":742495,"name":"On or near Back Bradford Road West"},"longitude":"-2.420970"},"context":"","outcome_status":null,"persistent_id":"031a2af4be45c565e6fc78f412c902d1a4166e6c15209875d8cbe642ea5a4c70","id":65659047,"location_subtype":"","month":"2018-06"},{"category":"anti-social-behaviour","location_type":"Force","location":{"latitude":"53.576147","street":{"id":744105,"name":"On or near Union Buildings"},"longitude":"-2.425573"},"context":"","outcome_status":null,"persistent_id":"2cc67085e5da219fed0a181b3f78999b576c15f89fcd4c43eb8f52bc5ffa9dbd","id":65660074,"location_subtype":"","month":"2018-06"},{"category":"anti-social-behaviour","location_type":"Force","location":{"latitude":"53.559948","street":{"id":742293,"name":"On or near Manchester Road"},"longitude":"-2.405453"},"context":"","outcome_status":null,"persistent_id":"c82a9a554ee79ce0d5a5e35c4a9453e5e5f30893d4e58ebed2b81cd7f1f5e2a2","id":65660070,"location_subtype":"","month":"2018-06"},{"category":"anti-social-behaviour","location_type":"Force","location":{"latitude":"53.578673","street":{"id":744100,"name":"On or near Parking Area"},"longitude":"-2.428105"},"context":"","outcome_status":null,"persistent_id":"57306a683ed7c0a79ad49a4909848b2b5c5f50e930cfd699d19442013196e70d","id":65660062,"location_subtype":"","month":"2018-06"},{"category":"anti-social-behaviour","location_type":"Force","location":{"latitude":"53.577111","street":{"id":744148,"name":"On or near Chancery Lane"},"longitude":"-2.427455"},"context":"","outcome_status":null,"persistent_id":"fcd861aeebb73ebcb629c542855245086485ad6f323b0df763e0f41aec90de9a","id":65660195,"location_subtype":"","month":"2018-06"},{"category":"anti-social-behaviour","location_type":"Force","location":{"latitude":"53.560860","street":{"id":742430,"name":"On or near Back Crescent Road West"},"longitude":"-2.414716"},"context":"","outcome_status":null,"persistent_id":"65b6e1b7f508163305d70070fd2b68f421b73e53c6c3955595f4e53b58f63ee9","id":65660189,"location_subtype":"","month":"2018-06"},{"category":"anti-social-behaviour","location_type":"Force","location":{"latitude":"53.567442","street":{"id":742346,"name":"On or near Lever Drive"},"longitude":"-2.431691"},"context":"","outcome_status":null,"persistent_id":"16515268db1c58eaa43d3fc55c42d37c4617c85c900f795ff8a2e39aa14f70d5","id":65660182,"location_subtype":"","month":"2018-06"},{"category":"anti-social-behaviour","location_type":"Force","location":{"latitude":"53.573433","street":{"id":744223,"name":"On or near Supermarket"},"longitude":"-2.433036"},"context":"","outcome_status":null,"persistent_id":"b81577dec06453a2390421c1947e71fd2cec8c9d4c0932c60ac80597d75789ee","id":65660177,"location_subtype":"","month":"2018-06"},{"category":"anti-social-behaviour","location_type":"Force","location":{"latitude":"53.561400","street":{"id":742352,"name":"On or near Calder Road"},"longitude":"-2.432173"},"context":"","outcome_status":null,"persistent_id":"b021138797f1a6c9c1d2f0a4deebbda9b22df5799939830320428b21af5b77be","id":65660163,"location_subtype":"","month":"2018-06"},{"category":"anti-social-behaviour","location_type":"Force","location":{"latitude":"53.560860","street":{"id":742430,"name":"On or near Back Crescent Road West"},"longitude":"-2.414716"},"context":"","outcome_status":null,"persistent_id":"291575a3cfbdfcd3429a60c976ae20194ccdc88dab20cea50aa15e9ae7130d64","id":65660159,"location_subtype":"","month":"2018-06"},{"category":"anti-social-behaviour","location_type":"Force","location":{"latitude":"53.579094","street":{"id":744219,"name":"On or near Shopping Area"},"longitude":"-2.428518"},"context":"","outcome_status":null,"persistent_id":"5fa26504ee67ada57e0b24713df92360faba4362a7e770b5ebe6ae862a619643","id":65660147,"location_subtype":"","month":"2018-06"},{"category":"anti-social-behaviour","location_type":"Force","location":{"latitude":"53.571516","street":{"id":744042,"name":"On or near Back Derby Street"},"longitude":"-2.436172"},"context":"","outcome_status":null,"persistent_id":"bd40c68f9ae52c5ced514321a761ec5cc29f5f81f187aad4a2feb7500792ebde","id":65660141,"location_subtype":"","month":"2018-06"},{"category":"anti-social-behaviour","location_type":"Force","location":{"latitude":"53.570591","street":{"id":744113,"name":"On or near Scholey Street"},"longitude":"-2.418239"},"context":"","outcome_status":null,"persistent_id":"b3057b1de8b76a293d4062734c773d1de665f3d6c62d66554bc858fa90efd9b6","id":65660140,"location_subtype":"","month":"2018-06"},{"category":"anti-social-behaviour","location_type":"Force","location":{"latitude":"53.579294","street":{"id":744080,"name":"On or near Paley Street"},"longitude":"-2.425182"},"context":"","outcome_status":null,"persistent_id":"0a51a5a690357a983a74b5cd589c2c673ce061e1afee87e61332edc65ed1fb63","id":65660139,"location_subtype":"","month":"2018-06"},{"category":"anti-social-behaviour","location_type":"Force","location":{"latitude":"53.559534","street":{"id":742394,"name":"On or near Mabel Avenue"},"longitude":"-2.418703"},"context":"","outcome_status":null,"persistent_id":"fc893b7a92204df8300b8e3e03fcbd373c48bf380fdf3794a99c079defa405d7","id":65660134,"location_subtype":"","month":"2018-06"},{"category":"anti-social-behaviour","location_type":"Force","location":{"latitude":"53.574823","street":{"id":743992,"name":"On or near Stanley Street South"},"longitude":"-2.436418"},"context":"","outcome_status":null,"persistent_id":"7bb780830c46577b8907d5361aeb1497554edaa388b95734ec04158492ceb3bb","id":65660129,"location_subtype":"","month":"2018-06"},{"category":"anti-social-behaviour","location_type":"Force","location":{"latitude":"53.561107","street":{"id":742385,"name":"On or near Southwood Close"},"longitude":"-2.426252"},"context":"","outcome_status":null,"persistent_id":"5d8bdd9bbd7609120a8abb1083040a1bdb9516a766c6f151272215000ab35c8b","id":65660121,"location_subtype":"","month":"2018-06"},{"category":"anti-social-behaviour","location_type":"Force","location":{"latitude":"53.574490","street":{"id":710351,"name":"On or near Gorton Street"},"longitude":"-2.421343"},"context":"","outcome_status":null,"persistent_id":"a303ca568df90195dd6e1b00f471fad250f6c61f1dc60f22887bdfb01a2f2eac","id":65660101,"location_subtype":"","month":"2018-06"},{"category":"anti-social-behaviour","location_type":"Force","location":{"latitude":"53.568147","street":{"id":744140,"name":"On or near Cyril Street"},"longitude":"-2.417973"},"context":"","outcome_status":null,"persistent_id":"486f9af213e1274a7b52614e86b7d6da28ad31e49f94e218bcc3c333aaa8b3ed","id":65660098,"location_subtype":"","month":"2018-06"},{"category":"anti-social-behaviour","location_type":"Force","location":{"latitude":"53.567746","street":{"id":744170,"name":"On or near Back Lever Street"},"longitude":"-2.429641"},"context":"","outcome_status":null,"persistent_id":"de1e06de42c1362011ec2069e43709b660b7e0dc0e16d0d8295c62fbf1aa5992","id":65660093,"location_subtype":"","month":"2018-06"},{"category":"anti-social-behaviour","location_type":"Force","location":{"latitude":"53.562401","street":{"id":742501,"name":"On or near Asia Street"},"longitude":"-2.418656"},"context":"","outcome_status":null,"persistent_id":"3b66caa6d525d4091779309a19c37665639346e4ca45814d2a2cab83459baf6e","id":65660083,"location_subtype":"","month":"2018-06"},{"category":"anti-social-behaviour","location_type":"Force","location":{"latitude":"53.574490","street":{"id":710351,"name":"On or near Gorton Street"},"longitude":"-2.421343"},"context":"","outcome_status":null,"persistent_id":"d51c16276e812b7c63f4a00d30258d0a74ab052d3570ace77d20d1d687c1b607","id":65660056,"location_subtype":"","month":"2018-06"},{"category":"anti-social-behaviour","location_type":"Force","location":{"latitude":"53.579666","street":{"id":744087,"name":"On or near Bank Street"},"longitude":"-2.426817"},"context":"","outcome_status":null,"persistent_id":"16d0d0424ce183483bc063b9ffa51e9c32ecacc02bd0d3a9d77575ef40582977","id":65660051,"location_subtype":"","month":"2018-06"},{"category":"anti-social-behaviour","location_type":"Force","location":{"latitude":"53.577608","street":{"id":744119,"name":"On or near Nelson Square"},"longitude":"-2.426796"},"context":"","outcome_status":null,"persistent_id":"f310e452982d588f5ac73c506798942eedc015d7f245c6aa902f146255926cc9","id":65660046,"location_subtype":"","month":"2018-06"},{"category":"anti-social-behaviour","location_type":"Force","location":{"latitude":"53.578526","street":{"id":744190,"name":"On or near Shopping Area"},"longitude":"-2.428965"},"context":"","outcome_status":null,"persistent_id":"81b2705fef1066c663405e1c3dd863f18b6b74e8374a9722a7c0df1fa17056dc","id":65660036,"location_subtype":"","month":"2018-06"},{"category":"anti-social-behaviour","location_type":"Force","location":{"latitude":"53.577197","street":{"id":744158,"name":"On or near Bradshawgate"},"longitude":"-2.425991"},"context":"","outcome_status":null,"persistent_id":"b0c2bce8f4672ccb0aaffcda19bdcea2b8356579ff413439ea0a83748ee7b050","id":65660023,"location_subtype":"","month":"2018-06"},{"category":"anti-social-behaviour","location_type":"Force","location":{"latitude":"53.571722","street":{"id":744115,"name":"On or near Rose Street"},"longitude":"-2.421210"},"context":"","outcome_status":null,"persistent_id":"276e7286e111805b6be75dc22a0074b6a5e5de93f17036a384b6ff19d954b8cc","id":65660022,"location_subtype":"","month":"2018-06"},{"category":"anti-social-behaviour","location_type":"Force","location":{"latitude":"53.565376","street":{"id":742769,"name":"On or near Back Lever Street South"},"longitude":"-2.433935"},"context":"","outcome_status":null,"persistent_id":"d33e61621bb72ef2b3aeb32cf55bbd5f264e71b6afe3760ce5b856ba43e84729","id":65660014,"location_subtype":"","month":"2018-06"},{"category":"anti-social-behaviour","location_type":"Force","location":{"latitude":"53.563700","street":{"id":742459,"name":"On or near Great Holme"},"longitude":"-2.425131"},"context":"","outcome_status":null,"persistent_id":"5056f7ed2059f837e74f58bfab612204d3ea3795f34e4b16aad178ec07575ada","id":65660227,"location_subtype":"","month":"2018-06"},{"category":"anti-social-behaviour","location_type":"Force","location":{"latitude":"53.561616","street":{"id":742413,"name":"On or near Candahar Street"},"longitude":"-2.417003"},"context":"","outcome_status":null,"persistent_id":"9ba1acf843527d63763a42fd891ec9dd7bc7aaba78bc94bdbaf38379cc666a37","id":65660224,"location_subtype":"","month":"2018-06"},{"category":"anti-social-behaviour","location_type":"Force","location":{"latitude":"53.565976","street":{"id":742358,"name":"On or near Parking Area"},"longitude":"-2.432144"},"context":"","outcome_status":null,"persistent_id":"f383528245b5cd670a8786c7530c73617eb291d7da27838e9b8eb7eeb7aae264","id":65659999,"location_subtype":"","month":"2018-06"},{"category":"anti-social-behaviour","location_type":"Force","location":{"latitude":"53.562737","street":{"id":742480,"name":"On or near Back Rishton Lane East"},"longitude":"-2.427854"},"context":"","outcome_status":null,"persistent_id":"8363c972e95c5140261966374e62f68e99ff02b591ac246071d7133d2e06fd86","id":65660102,"location_subtype":"","month":"2018-06"},{"category":"anti-social-behaviour","location_type":"Force","location":{"latitude":"53.559989","street":{"id":742509,"name":"On or near Hampton Road"},"longitude":"-2.422074"},"context":"","outcome_status":null,"persistent_id":"2cffe286328471e801ba5196435c260f2787025ff425b78b6e5c2f028f4510b5","id":65659985,"location_subtype":"","month":"2018-06"},{"category":"anti-social-behaviour","location_type":"Force","location":{"latitude":"53.557711","street":{"id":742420,"name":"On or near Bishop's Road"},"longitude":"-2.420738"},"context":"","outcome_status":null,"persistent_id":"15ac4779638271ca0126398dd7cc458ca0af62b450b70816d3333077b59386c5","id":65659177,"location_subtype":"","month":"2018-06"},{"category":"anti-social-behaviour","location_type":"Force","location":{"latitude":"53.564362","street":{"id":742491,"name":"On or near Back Crescent Road"},"longitude":"-2.418358"},"context":"","outcome_status":null,"persistent_id":"b423b2a3cf8ec8382088faed755a491b87243c36d63c988c72e22ec9a91f2f3f","id":65659171,"location_subtype":"","month":"2018-06"},{"category":"anti-social-behaviour","location_type":"Force","location":{"latitude":"53.574742","street":{"id":744097,"name":"On or near Parking Area"},"longitude":"-2.431403"},"context":"","outcome_status":null,"persistent_id":"34c8950abb3472eae2110873cb06f92211e7ceed3e9c02848a47916e51a9cfc1","id":65659164,"location_subtype":"","month":"2018-06"},{"category":"anti-social-behaviour","location_type":"Force","location":{"latitude":"53.573433","street":{"id":744223,"name":"On or near Supermarket"},"longitude":"-2.433036"},"context":"","outcome_status":null,"persistent_id":"8d4ad0c2f63345aa3e10ab44f47cd55f31353c262cfb4187e9bbfad6f24192c1","id":65659157,"location_subtype":"","month":"2018-06"},{"category":"anti-social-behaviour","location_type":"Force","location":{"latitude":"53.561685","street":{"id":742407,"name":"On or near Forester Hill Avenue"},"longitude":"-2.422876"},"context":"","outcome_status":null,"persistent_id":"da8750ddf4ea1a8c724f95e654acedbae882eb34fa89e8275679b7fc882062a9","id":65659151,"location_subtype":"","month":"2018-06"},{"category":"anti-social-behaviour","location_type":"Force","location":{"latitude":"53.568147","street":{"id":744140,"name":"On or near Cyril Street"},"longitude":"-2.417973"},"context":"","outcome_status":null,"persistent_id":"61dfcaf631cf660fa9cf8763fdce48784e02fb644e580c9205fe5fbd72719356","id":65659150,"location_subtype":"","month":"2018-06"},{"category":"anti-social-behaviour","location_type":"Force","location":{"latitude":"53.575532","street":{"id":744134,"name":"On or near Glebe Street"},"longitude":"-2.421595"},"context":"","outcome_status":null,"persistent_id":"62ba3a10e6f957b282b3a33bb6b4ac5796a1f16b0594a067f388bf258040b85c","id":65659138,"location_subtype":"","month":"2018-06"},{"category":"anti-social-behaviour","location_type":"Force","location":{"latitude":"53.559948","street":{"id":742293,"name":"On or near Manchester Road"},"longitude":"-2.405453"},"context":"","outcome_status":null,"persistent_id":"505748003d9d3a14bb7c2b617fa781cee0259d517d4bd54dfd46bde5d6095e0f","id":65659134,"location_subtype":"","month":"2018-06"},{"category":"anti-social-behaviour","location_type":"Force","location":{"latitude":"53.561477","street":{"id":742419,"name":"On or near Bradford Road"},"longitude":"-2.420700"},"context":"","outcome_status":null,"persistent_id":"be6d792d1be0f3796b1200fc79977819da9fd0b4fd73f9076d91af756b78faa2","id":65659133,"location_subtype":"","month":"2018-06"},{"category":"anti-social-behaviour","location_type":"Force","location":{"latitude":"53.561710","street":{"id":742270,"name":"On or near Kearsley Drive"},"longitude":"-2.410557"},"context":"","outcome_status":null,"persistent_id":"eb0c1f697fbb0678df34e49c71af4090815d1f2f4ee1401c8a92cdbc0ce9cec9","id":65659128,"location_subtype":"","month":"2018-06"},{"category":"anti-social-behaviour","location_type":"Force","location":{"latitude":"53.560916","street":{"id":742615,"name":"On or near Cobham Avenue"},"longitude":"-2.439354"},"context":"","outcome_status":null,"persistent_id":"8f5b5c937ecb03c237219eb9c1e7e3b4603348d52e8f1efa6797e43c84ce93f5","id":65659125,"location_subtype":"","month":"2018-06"},{"category":"anti-social-behaviour","location_type":"Force","location":{"latitude":"53.575532","street":{"id":744134,"name":"On or near Glebe Street"},"longitude":"-2.421595"},"context":"","outcome_status":null,"persistent_id":"ed545133081e6512f97f31e7d2251b42ef1ac9563604b2161a4e37d22fbb3495","id":65659120,"location_subtype":"","month":"2018-06"},{"category":"anti-social-behaviour","location_type":"Force","location":{"latitude":"53.561863","street":{"id":742466,"name":"On or near Crescent Road"},"longitude":"-2.415767"},"context":"","outcome_status":null,"persistent_id":"71a928d45ff287cee17fc757fe4b468ba458c117c388b09af58cee8d03ee5059","id":65659118,"location_subtype":"","month":"2018-06"},{"category":"anti-social-behaviour","location_type":"Force","location":{"latitude":"53.560860","street":{"id":742430,"name":"On or near Back Crescent Road West"},"longitude":"-2.414716"},"context":"","outcome_status":null,"persistent_id":"623494eeb7856835d84dde6c0d434f94f135671b62e64ef6712ff1743b5df99d","id":65659117,"location_subtype":"","month":"2018-06"},{"category":"anti-social-behaviour","location_type":"Force","location":{"latitude":"53.559673","street":{"id":742611,"name":"On or near Hamel Street"},"longitude":"-2.437424"},"context":"","outcome_status":null,"persistent_id":"480bf5b1f0dc77cc508659519113eb3ce72b0dc5856277090534813e28d67f19","id":65659116,"location_subtype":"","month":"2018-06"},{"category":"anti-social-behaviour","location_type":"Force","location":{"latitude":"53.559801","street":{"id":742594,"name":"On or near St Williams Avenue"},"longitude":"-2.434542"},"context":"","outcome_status":null,"persistent_id":"e8fbbae97a25f5dae7d8faf1d2d9f79b592275882264d094b511b9f3b7022834","id":65659113,"location_subtype":"","month":"2018-06"},{"category":"anti-social-behaviour","location_type":"Force","location":{"latitude":"53.571023","street":{"id":744093,"name":"On or near Pedestrian Subway"},"longitude":"-2.415600"},"context":"","outcome_status":null,"persistent_id":"f190282585a6907ce8f42c4f7bd3a8b15c9e9f98c03344a588b5ad4dd0d5d1bd","id":65659054,"location_subtype":"","month":"2018-06"},{"category":"anti-social-behaviour","location_type":"Force","location":{"latitude":"53.568248","street":{"id":744168,"name":"On or near Back Sharman Street"},"longitude":"-2.414743"},"context":"","outcome_status":null,"persistent_id":"4676e9773e9f801749a86698828ccc9e45085e3137a5ddd3b93844f97fb590dd","id":65659036,"location_subtype":"","month":"2018-06"},{"category":"anti-social-behaviour","location_type":"Force","location":{"latitude":"53.573535","street":{"id":744186,"name":"On or near Petrol Station"},"longitude":"-2.429579"},"context":"","outcome_status":null,"persistent_id":"9e96698ffa0ce14e3d1c4473e03b090f51b9d0cdd3d03117f675e0c7ffec404d","id":65659023,"location_subtype":"","month":"2018-06"},{"category":"anti-social-behaviour","location_type":"Force","location":{"latitude":"53.570064","street":{"id":744031,"name":"On or near Burford Drive"},"longitude":"-2.437456"},"context":"","outcome_status":null,"persistent_id":"21a03446bb1c0a5d0bca977ff12a64bbc57179beda3c388406914ecbc525efb7","id":65659105,"location_subtype":"","month":"2018-06"},{"category":"anti-social-behaviour","location_type":"Force","location":{"latitude":"53.568248","street":{"id":744168,"name":"On or near Back Sharman Street"},"longitude":"-2.414743"},"context":"","outcome_status":null,"persistent_id":"0a4ea3cb9123c248934dd0d524237388a6ee871be23621cb12adad75d3a76184","id":65659094,"location_subtype":"","month":"2018-06"},{"category":"anti-social-behaviour","location_type":"Force","location":{"latitude":"53.564613","street":{"id":742493,"name":"On or near Back Cecilia Street"},"longitude":"-2.423449"},"context":"","outcome_status":null,"persistent_id":"064053992f6d383ece24258d4e2fb6de149e83a9db662f923844291a3b1cfa14","id":65659090,"location_subtype":"","month":"2018-06"},{"category":"anti-social-behaviour","location_type":"Force","location":{"latitude":"53.576147","street":{"id":744105,"name":"On or near Union Buildings"},"longitude":"-2.425573"},"context":"","outcome_status":null,"persistent_id":"0ea4b6da38db167cff5f3b2c471588b50248c401b99a2cf9a03a2412f4ea93a2","id":65659086,"location_subtype":"","month":"2018-06"},{"category":"anti-social-behaviour","location_type":"Force","location":{"latitude":"53.568272","street":{"id":744019,"name":"On or near Ellis Street"},"longitude":"-2.440865"},"context":"","outcome_status":null,"persistent_id":"783332ae23ddd713befcc3540e70117677218793dd1765a54e0c765077af4a19","id":65659081,"location_subtype":"","month":"2018-06"},{"category":"anti-social-behaviour","location_type":"Force","location":{"latitude":"53.567153","street":{"id":742556,"name":"On or near Back High Street"},"longitude":"-2.437139"},"context":"","outcome_status":null,"persistent_id":"a2f1931625d132defb6526cde63deb31e879fab7f55a7accdc4bcf4dbf186e10","id":65659080,"location_subtype":"","month":"2018-06"},{"category":"anti-social-behaviour","location_type":"Force","location":{"latitude":"53.564284","street":{"id":742437,"name":"On or near The Sheddings"},"longitude":"-2.417542"},"context":"","outcome_status":null,"persistent_id":"6909b96cd88b9316fedd00d57f4faac33ffad1d8f733e37f47a48566dc845e89","id":65659075,"location_subtype":"","month":"2018-06"},{"category":"anti-social-behaviour","location_type":"Force","location":{"latitude":"53.573502","street":{"id":744051,"name":"On or near Further\/higher Educational Building"},"longitude":"-2.436253"},"context":"","outcome_status":null,"persistent_id":"708728625dc1716b316a675f982d44332e3c7c8fc81de455bb1324c61e99b61a","id":65659201,"location_subtype":"","month":"2018-06"},{"category":"anti-social-behaviour","location_type":"Force","location":{"latitude":"53.562630","street":{"id":742496,"name":"On or near Back Bradford Road"},"longitude":"-2.420032"},"context":"","outcome_status":null,"persistent_id":"e6d80eb2f2c8296028e936ac9b875f2fdf0cbf0c2471a19b89ac0e4420550da2","id":65659191,"location_subtype":"","month":"2018-06"},{"category":"anti-social-behaviour","location_type":"Force","location":{"latitude":"53.568147","street":{"id":744140,"name":"On or near Cyril Street"},"longitude":"-2.417973"},"context":"","outcome_status":null,"persistent_id":"eb006e57f4f27ab4079bc7be6669816b495113dcd459eeb58330e9d6c424bc31","id":65659189,"location_subtype":"","month":"2018-06"},{"category":"anti-social-behaviour","location_type":"Force","location":{"latitude":"53.572961","street":{"id":744187,"name":"On or near Petrol Station"},"longitude":"-2.426719"},"context":"","outcome_status":null,"persistent_id":"77fb54af1ab361228dc45d4f3a40866188d556a6590569f066b335e3fa7a4259","id":65659188,"location_subtype":"","month":"2018-06"},{"category":"anti-social-behaviour","location_type":"Force","location":{"latitude":"53.566005","street":{"id":742476,"name":"On or near Back Springfield Street"},"longitude":"-2.416351"},"context":"","outcome_status":null,"persistent_id":"56d8d87f6bb8c5ce680f32b2bbbacf5f1102be383cee491db6e69a716398d159","id":65659185,"location_subtype":"","month":"2018-06"},{"category":"anti-social-behaviour","location_type":"Force","location":{"latitude":"53.568147","street":{"id":744140,"name":"On or near Cyril Street"},"longitude":"-2.417973"},"context":"","outcome_status":null,"persistent_id":"18342baaa4a123b207e3fe81712831b71aaf589c2bae878df18bf23c394fcf98","id":65659020,"location_subtype":"","month":"2018-06"},{"category":"anti-social-behaviour","location_type":"Force","location":{"latitude":"53.579294","street":{"id":744080,"name":"On or near Paley Street"},"longitude":"-2.425182"},"context":"","outcome_status":null,"persistent_id":"abb054895f47c575816846429066ca2df3ec848463838047be21e548290436c8","id":65659014,"location_subtype":"","month":"2018-06"},{"category":"anti-social-behaviour","location_type":"Force","location":{"latitude":"53.568147","street":{"id":744140,"name":"On or near Cyril Street"},"longitude":"-2.417973"},"context":"","outcome_status":null,"persistent_id":"1055124697120263fa4442749debce737f1f27d963c6aa41d769b0522fe7a046","id":65658995,"location_subtype":"","month":"2018-06"},{"category":"anti-social-behaviour","location_type":"Force","location":{"latitude":"53.563747","street":{"id":742494,"name":"On or near Back Carter Street"},"longitude":"-2.419213"},"context":"","outcome_status":null,"persistent_id":"fa853243c43c21d1a797e4dfa09e4cbfa2fafeac95c2a7c7e56d77f60e6fe8f3","id":65658992,"location_subtype":"","month":"2018-06"},{"category":"anti-social-behaviour","location_type":"Force","location":{"latitude":"53.563151","street":{"id":742760,"name":"On or near Dunbar Drive"},"longitude":"-2.437717"},"context":"","outcome_status":null,"persistent_id":"f2625a4737163e4c94be72b97a1e4c051c3efe3abae9b19f853f33fd49a4ad46","id":65658990,"location_subtype":"","month":"2018-06"},{"category":"anti-social-behaviour","location_type":"Force","location":{"latitude":"53.562228","street":{"id":742359,"name":"On or near South Street"},"longitude":"-2.432076"},"context":"","outcome_status":null,"persistent_id":"f9be4c6532f96ef60b768b9f3b347633b1cb3ea8c57ba5900c8cf7b655416f01","id":65658989,"location_subtype":"","month":"2018-06"},{"category":"anti-social-behaviour","location_type":"Force","location":{"latitude":"53.568147","street":{"id":744140,"name":"On or near Cyril Street"},"longitude":"-2.417973"},"context":"","outcome_status":null,"persistent_id":"3267e1d46a15a2038db87d98b664fb60af4349567181d45ef59dac9f8e3e5585","id":65658982,"location_subtype":"","month":"2018-06"},{"category":"anti-social-behaviour","location_type":"Force","location":{"latitude":"53.575532","street":{"id":744134,"name":"On or near Glebe Street"},"longitude":"-2.421595"},"context":"","outcome_status":null,"persistent_id":"5d617c54b056cadab3ed89cbba373ac0d41c79a2e3f16ef7290290694c5ca230","id":65658968,"location_subtype":"","month":"2018-06"},{"category":"anti-social-behaviour","location_type":"Force","location":{"latitude":"53.567723","street":{"id":742342,"name":"On or near Back Luton Street"},"longitude":"-2.418437"},"context":"","outcome_status":null,"persistent_id":"24f86327f4e8100599686d5822d64ed28f88b37d7469b2f1e3c8888a4a7aa9c7","id":65658963,"location_subtype":"","month":"2018-06"},{"category":"anti-social-behaviour","location_type":"Force","location":{"latitude":"53.575532","street":{"id":744134,"name":"On or near Glebe Street"},"longitude":"-2.421595"},"context":"","outcome_status":null,"persistent_id":"e7907ddb1a9760c2e0651179e54c699107a705ada16e9091e9ef50b864525db4","id":65658960,"location_subtype":"","month":"2018-06"},{"category":"bicycle-theft","location_type":"Force","location":{"latitude":"53.574823","street":{"id":743992,"name":"On or near Stanley Street South"},"longitude":"-2.436418"},"context":"","outcome_status":{"category":"Under investigation","date":"2018-06"},"persistent_id":"979d24a16a0536b9dd94040999c8591a78135dec48efb403564f537d7e3ddda9","id":65655719,"location_subtype":"","month":"2018-06"},{"category":"bicycle-theft","location_type":"Force","location":{"latitude":"53.574930","street":{"id":744189,"name":"On or near Supermarket"},"longitude":"-2.429155"},"context":"","outcome_status":{"category":"Investigation complete; no suspect identified","date":"2018-06"},"persistent_id":"b1814ba82c4341ee461663fafd936ee1b06852fbe2d1b05380fce026a7171a0f","id":65634313,"location_subtype":"","month":"2018-06"},{"category":"bicycle-theft","location_type":"Force","location":{"latitude":"53.578526","street":{"id":744190,"name":"On or near Shopping Area"},"longitude":"-2.428965"},"context":"","outcome_status":{"category":"Under investigation","date":"2018-06"},"persistent_id":"81bd314f3c0a363047e0244430c735b5ab165a186fcb54cd4b8766495e228785","id":65656785,"location_subtype":"","month":"2018-06"},{"category":"bicycle-theft","location_type":"Force","location":{"latitude":"53.574742","street":{"id":744097,"name":"On or near Parking Area"},"longitude":"-2.431403"},"context":"","outcome_status":{"category":"Investigation complete; no suspect identified","date":"2018-06"},"persistent_id":"4b6dfd24eaa9ac900f13ca2df6e6fc62a99089fa6a635e4a4e0f45ff6fb1d075","id":65627743,"location_subtype":"","month":"2018-06"},{"category":"bicycle-theft","location_type":"Force","location":{"latitude":"53.577111","street":{"id":744148,"name":"On or near Chancery Lane"},"longitude":"-2.427455"},"context":"","outcome_status":{"category":"Under investigation","date":"2018-06"},"persistent_id":"020d1b45f58bac9e8ef3605cfb625e4138f9e8753b16e061a71fa089fc8bb75b","id":65635349,"location_subtype":"","month":"2018-06"},{"category":"bicycle-theft","location_type":"Force","location":{"latitude":"53.562085","street":{"id":742756,"name":"On or near Jasmine Court"},"longitude":"-2.434354"},"context":"","outcome_status":{"category":"Investigation complete; no suspect identified","date":"2018-06"},"persistent_id":"37a9b9269f33cd4bf2d0d26853ccf416505e9140eacf0a44607dce9c231f6516","id":65634367,"location_subtype":"","month":"2018-06"},{"category":"bicycle-theft","location_type":"Force","location":{"latitude":"53.567442","street":{"id":742346,"name":"On or near Lever Drive"},"longitude":"-2.431691"},"context":"","outcome_status":{"category":"Investigation complete; no suspect identified","date":"2018-06"},"persistent_id":"4ab850bd20362847010ad80c715fd668ed1b3d985f592f95017845356d660945","id":65629601,"location_subtype":"","month":"2018-06"},{"category":"burglary","location_type":"Force","location":{"latitude":"53.565039","street":{"id":742776,"name":"On or near Aldsworth Drive"},"longitude":"-2.435034"},"context":"","outcome_status":{"category":"Investigation complete; no suspect identified","date":"2018-06"},"persistent_id":"97d032dd0ce49b15c2a9dbb5b32fa36a90affead63ba6a321e687d34ccc3311e","id":65643244,"location_subtype":"","month":"2018-06"},{"category":"burglary","location_type":"Force","location":{"latitude":"53.574930","street":{"id":744189,"name":"On or near Supermarket"},"longitude":"-2.429155"},"context":"","outcome_status":{"category":"Under investigation","date":"2018-06"},"persistent_id":"ad2cfc5dec28fa332473e1e454bb29f8045eb6612e7fff880afcf7ddbd89fc1a","id":65656766,"location_subtype":"","month":"2018-06"},{"category":"burglary","location_type":"Force","location":{"latitude":"53.570971","street":{"id":744116,"name":"On or near Rose Hill"},"longitude":"-2.420009"},"context":"","outcome_status":{"category":"Investigation complete; no suspect identified","date":"2018-06"},"persistent_id":"dec2bed17be99b0672c71cb2ee6748cdf04e60b84230b9b4aae58e94db9b9be1","id":65650953,"location_subtype":"","month":"2018-06"},{"category":"burglary","location_type":"Force","location":{"latitude":"53.566381","street":{"id":742266,"name":"On or near Hurstwood Court"},"longitude":"-2.408957"},"context":"","outcome_status":{"category":"Under investigation","date":"2018-06"},"persistent_id":"9b30a72aeebe0ecfe205451acb67e76ea54d71d338c095de2e2cbd83a34e2270","id":65640043,"location_subtype":"","month":"2018-06"},{"category":"burglary","location_type":"Force","location":{"latitude":"53.557711","street":{"id":742420,"name":"On or near Bishop's Road"},"longitude":"-2.420738"},"context":"","outcome_status":{"category":"Under investigation","date":"2018-06"},"persistent_id":"02934fe2c8eedf326ec16b31e36482df5859e13b59e7dc0bdb8452d29f29ba68","id":65641374,"location_subtype":"","month":"2018-06"},{"category":"burglary","location_type":"Force","location":{"latitude":"53.571623","street":{"id":744124,"name":"On or near Lecturers Close"},"longitude":"-2.431311"},"context":"","outcome_status":{"category":"Under investigation","date":"2018-06"},"persistent_id":"849589fbed27eeea2f41d3c952c359e6e0004e7e302601bb3aafa72f206a9152","id":65629682,"location_subtype":"","month":"2018-06"},{"category":"burglary","location_type":"Force","location":{"latitude":"53.574385","street":{"id":744183,"name":"On or near Allsopp Street"},"longitude":"-2.428047"},"context":"","outcome_status":{"category":"Investigation complete; no suspect identified","date":"2018-06"},"persistent_id":"976cbb9b041ad9f527e3bf41c536f06b1416f87ec7ced7aba6f150d4c2c07869","id":65624754,"location_subtype":"","month":"2018-06"},{"category":"burglary","location_type":"Force","location":{"latitude":"53.567442","street":{"id":742346,"name":"On or near Lever Drive"},"longitude":"-2.431691"},"context":"","outcome_status":{"category":"Investigation complete; no suspect identified","date":"2018-06"},"persistent_id":"9c2c477aeefdee9ee07d40727bc56578677a610ef6e286a61b75bb564965fd10","id":65654652,"location_subtype":"","month":"2018-06"},{"category":"burglary","location_type":"Force","location":{"latitude":"53.562816","street":{"id":742495,"name":"On or near Back Bradford Road West"},"longitude":"-2.420970"},"context":"","outcome_status":{"category":"Investigation complete; no suspect identified","date":"2018-06"},"persistent_id":"4ac37ed866345227da06ec9cc3784396de8b6c2fc2e9afe8f936e9bcbc246271","id":65625719,"location_subtype":"","month":"2018-06"},{"category":"burglary","location_type":"Force","location":{"latitude":"53.566005","street":{"id":742476,"name":"On or near Back Springfield Street"},"longitude":"-2.416351"},"context":"","outcome_status":{"category":"Investigation complete; no suspect identified","date":"2018-06"},"persistent_id":"e63357dc2f5541e774a57602f3513e53777335ac8415edf32f8ccf6b75264b42","id":65626763,"location_subtype":"","month":"2018-06"},{"category":"burglary","location_type":"Force","location":{"latitude":"53.570920","street":{"id":744047,"name":"On or near Ashbury Close"},"longitude":"-2.436816"},"context":"","outcome_status":{"category":"Investigation complete; no suspect identified","date":"2018-06"},"persistent_id":"c486dd5fd4795b09f74160d09d08c98732c9b8598353880216cf1bde731cd697","id":65634340,"location_subtype":"","month":"2018-06"},{"category":"burglary","location_type":"Force","location":{"latitude":"53.577236","street":{"id":744110,"name":"On or near Silverwell Lane"},"longitude":"-2.425070"},"context":"","outcome_status":{"category":"Investigation complete; no suspect identified","date":"2018-06"},"persistent_id":"d8592baae112e2b353edb32dfefb8a0a56b29d78785d3ec5478f3cd98be352d9","id":65627669,"location_subtype":"","month":"2018-06"},{"category":"burglary","location_type":"Force","location":{"latitude":"53.559989","street":{"id":742509,"name":"On or near Hampton Road"},"longitude":"-2.422074"},"context":"","outcome_status":{"category":"Under investigation","date":"2018-06"},"persistent_id":"5de678753a4a6fdcb097a21f255685fdc87094f0af6c01c36c18584a7b6ba5ab","id":65635355,"location_subtype":"","month":"2018-06"},{"category":"burglary","location_type":"Force","location":{"latitude":"53.565683","street":{"id":742773,"name":"On or near Back Broach Street"},"longitude":"-2.436037"},"context":"","outcome_status":{"category":"Investigation complete; no suspect identified","date":"2018-06"},"persistent_id":"3867f9c82c57b3b895e6f2475db5d78828e4dd2dcf941b8e83d63a0681ef12c0","id":65643355,"location_subtype":"","month":"2018-06"},{"category":"burglary","location_type":"Force","location":{"latitude":"53.577583","street":{"id":744147,"name":"On or near Cheapside Square"},"longitude":"-2.428563"},"context":"","outcome_status":{"category":"Investigation complete; no suspect identified","date":"2018-06"},"persistent_id":"f6e12d4544fab51f51d73c8433d95529057c506f1b6e4cae625b5d8eb07cb914","id":65629646,"location_subtype":"","month":"2018-06"},{"category":"burglary","location_type":"Force","location":{"latitude":"53.559948","street":{"id":742293,"name":"On or near Manchester Road"},"longitude":"-2.405453"},"context":"","outcome_status":{"category":"Investigation complete; no suspect identified","date":"2018-06"},"persistent_id":"e9c462af245fbc504e076e498f04a4186f25e663b4d798128cf2955d202e6413","id":65630579,"location_subtype":"","month":"2018-06"},{"category":"burglary","location_type":"Force","location":{"latitude":"53.574490","street":{"id":710351,"name":"On or near Gorton Street"},"longitude":"-2.421343"},"context":"","outcome_status":{"category":"Investigation complete; no suspect identified","date":"2018-06"},"persistent_id":"b2f89dd02f706dbde0e3b6f6dd59c16e01c57ea634d7d649d30d4e3fca75967e","id":65653096,"location_subtype":"","month":"2018-06"},{"category":"burglary","location_type":"Force","location":{"latitude":"53.559133","street":{"id":742412,"name":"On or near Charlesworth Avenue"},"longitude":"-2.414986"},"context":"","outcome_status":{"category":"Investigation complete; no suspect identified","date":"2018-06"},"persistent_id":"dcb3dee0434a11c143619ebc9d83bc4c8b8cd92b8134136465b040dc882dd020","id":65637199,"location_subtype":"","month":"2018-06"},{"category":"burglary","location_type":"Force","location":{"latitude":"53.575532","street":{"id":744134,"name":"On or near Glebe Street"},"longitude":"-2.421595"},"context":"","outcome_status":{"category":"Investigation complete; no suspect identified","date":"2018-06"},"persistent_id":"7969e1a6bf93d99ee62e53ea0d2e9b94e42b61f7b0b6cacddd324d07f7cf055b","id":65633356,"location_subtype":"","month":"2018-06"},{"category":"burglary","location_type":"Force","location":{"latitude":"53.561545","street":{"id":742618,"name":"On or near Back Lee Avenue"},"longitude":"-2.439361"},"context":"","outcome_status":{"category":"Investigation complete; no suspect identified","date":"2018-06"},"persistent_id":"385f3617f158d0e92e83506001c74c47545c713db1b235a4ce0fa3e045a910bb","id":65639116,"location_subtype":"","month":"2018-06"},{"category":"burglary","location_type":"Force","location":{"latitude":"53.576793","street":{"id":744163,"name":"On or near Bold Street"},"longitude":"-2.428343"},"context":"","outcome_status":{"category":"Investigation complete; no suspect identified","date":"2018-06"},"persistent_id":"389b571c282ec875e41945f64617dfb544fbf2dae30465c16afd7faf8d799544","id":65654658,"location_subtype":"","month":"2018-06"},{"category":"burglary","location_type":"Force","location":{"latitude":"53.562473","street":{"id":742747,"name":"On or near Settle Street"},"longitude":"-2.436170"},"context":"","outcome_status":{"category":"Investigation complete; no suspect identified","date":"2018-06"},"persistent_id":"2aca8e37bdd054775ccde5f204319d0edde871ad70a5adc868553ed56077a539","id":65645178,"location_subtype":"","month":"2018-06"},{"category":"burglary","location_type":"Force","location":{"latitude":"53.578738","street":{"id":744212,"name":"On or near Silverwell Street"},"longitude":"-2.424874"},"context":"","outcome_status":{"category":"Investigation complete; no suspect identified","date":"2018-06"},"persistent_id":"9f04c72a804b33e633d98b8742244926faa0c4465d2797acaf2a804fa5a1a6d6","id":65655636,"location_subtype":"","month":"2018-06"},{"category":"burglary","location_type":"Force","location":{"latitude":"53.564011","street":{"id":742777,"name":"On or near Sports\/recreation Area"},"longitude":"-2.433604"},"context":"","outcome_status":{"category":"Investigation complete; no suspect identified","date":"2018-06"},"persistent_id":"0477d3c181ab5591a1583c280a541e5e854a093f9758665f85f7d5b53493f647","id":65635340,"location_subtype":"","month":"2018-06"},{"category":"burglary","location_type":"Force","location":{"latitude":"53.579094","street":{"id":744219,"name":"On or near Shopping Area"},"longitude":"-2.428518"},"context":"","outcome_status":{"category":"Investigation complete; no suspect identified","date":"2018-06"},"persistent_id":"1c670a14546b9c340b7cab0b04e88a0857f5c4a5950de75a2b8427182eac7c66","id":65655641,"location_subtype":"","month":"2018-06"},{"category":"burglary","location_type":"Force","location":{"latitude":"53.575999","street":{"id":744155,"name":"On or near Bridges Court"},"longitude":"-2.429347"},"context":"","outcome_status":{"category":"Investigation complete; no suspect identified","date":"2018-06"},"persistent_id":"886f3590c26d3b2957d990f7ce65729a53b758a6edd10037b55f4f2685ca497f","id":65653181,"location_subtype":"","month":"2018-06"},{"category":"burglary","location_type":"Force","location":{"latitude":"53.566719","street":{"id":742330,"name":"On or near Parking Area"},"longitude":"-2.417808"},"context":"","outcome_status":{"category":"Investigation complete; no suspect identified","date":"2018-06"},"persistent_id":"d649668f75f40814c657aabfdd975165a175a8ebc57e56fa0038ca86e1e5e63a","id":65626834,"location_subtype":"","month":"2018-06"},{"category":"criminal-damage-arson","location_type":"Force","location":{"latitude":"53.564838","street":{"id":742470,"name":"On or near Cecilia Street"},"longitude":"-2.423527"},"context":"","outcome_status":{"category":"Under investigation","date":"2018-06"},"persistent_id":"6a44ec861d79eb55492c23929657f88d846939eb5a507b0af6731d5065e51fa9","id":65643386,"location_subtype":"","month":"2018-06"},{"category":"criminal-damage-arson","location_type":"Force","location":{"latitude":"53.564497","street":{"id":742485,"name":"On or near Back Newport Road"},"longitude":"-2.423252"},"context":"","outcome_status":{"category":"Unable to prosecute suspect","date":"2018-06"},"persistent_id":"e1375b605709f0dae6bf7ab7c6188ed1f2083852027efe13fff308594a727570","id":65627666,"location_subtype":"","month":"2018-06"},{"category":"criminal-damage-arson","location_type":"Force","location":{"latitude":"53.578662","street":{"id":744103,"name":"On or near Wood Street"},"longitude":"-2.426006"},"context":"","outcome_status":{"category":"Investigation complete; no suspect identified","date":"2018-06"},"persistent_id":"0d06c013e97ed94154434d45d9d862ea58ad1a0313415866d490c110e4686c37","id":65625761,"location_subtype":"","month":"2018-06"},{"category":"criminal-damage-arson","location_type":"Force","location":{"latitude":"53.565976","street":{"id":742358,"name":"On or near Parking Area"},"longitude":"-2.432144"},"context":"","outcome_status":{"category":"Investigation complete; no suspect identified","date":"2018-06"},"persistent_id":"66a9012d5d7134163e0020593065cbaa60a0a51391142f6da01db7233dbcc016","id":65655682,"location_subtype":"","month":"2018-06"},{"category":"criminal-damage-arson","location_type":"Force","location":{"latitude":"53.578526","street":{"id":744190,"name":"On or near Shopping Area"},"longitude":"-2.428965"},"context":"","outcome_status":{"category":"Investigation complete; no suspect identified","date":"2018-06"},"persistent_id":"30b58e4e8de306b7065fb555854cd6add32872cfe5a8df7a51821430ed303c5a","id":65622902,"location_subtype":"","month":"2018-06"},{"category":"criminal-damage-arson","location_type":"Force","location":{"latitude":"53.578738","street":{"id":744212,"name":"On or near Silverwell Street"},"longitude":"-2.424874"},"context":"","outcome_status":{"category":"Under investigation","date":"2018-06"},"persistent_id":"140c90d477986284435ac6b39bd6c2666d13039069718aa52fae01bf71fd3f78","id":65635310,"location_subtype":"","month":"2018-06"},{"category":"criminal-damage-arson","location_type":"Force","location":{"latitude":"53.567442","street":{"id":742346,"name":"On or near Lever Drive"},"longitude":"-2.431691"},"context":"","outcome_status":{"category":"Investigation complete; no suspect identified","date":"2018-06"},"persistent_id":"368c2f04f89f4725c48973fd7394fca6aabd32a4ef7712e978008caef5868380","id":65635334,"location_subtype":"","month":"2018-06"},{"category":"criminal-damage-arson","location_type":"Force","location":{"latitude":"53.578738","street":{"id":744212,"name":"On or near Silverwell Street"},"longitude":"-2.424874"},"context":"","outcome_status":{"category":"Investigation complete; no suspect identified","date":"2018-06"},"persistent_id":"038aca1ece9845c5bf614f4547dd8fa4aa0d8c108a0e5672d4f1518fd6cb89b9","id":65623868,"location_subtype":"","month":"2018-06"},{"category":"criminal-damage-arson","location_type":"Force","location":{"latitude":"53.563020","street":{"id":742452,"name":"On or near Parkfield Road"},"longitude":"-2.424203"},"context":"","outcome_status":{"category":"Awaiting court outcome","date":"2018-06"},"persistent_id":"3a2c7248813494fda8f54084b589edef3399fdd494cebdfc8fde39a81174e92b","id":65640062,"location_subtype":"","month":"2018-06"},{"category":"criminal-damage-arson","location_type":"Force","location":{"latitude":"53.566381","street":{"id":742266,"name":"On or near Hurstwood Court"},"longitude":"-2.408957"},"context":"","outcome_status":{"category":"Investigation complete; no suspect identified","date":"2018-06"},"persistent_id":"609c6f879ace5bcc7fc72cff67c00e9a355c5d8dd6d82c64b7fc008e31a3559f","id":65657692,"location_subtype":"","month":"2018-06"},{"category":"criminal-damage-arson","location_type":"Force","location":{"latitude":"53.562821","street":{"id":742741,"name":"On or near Wetheral Drive"},"longitude":"-2.434422"},"context":"","outcome_status":{"category":"Investigation complete; no suspect identified","date":"2018-06"},"persistent_id":"55ee4ac2b6f1ccb350f07e169b1607cc8bc80a27f47e612b9fb79e42341b67c3","id":65625743,"location_subtype":"","month":"2018-06"},{"category":"criminal-damage-arson","location_type":"Force","location":{"latitude":"53.558310","street":{"id":742399,"name":"On or near Lakeside Avenue"},"longitude":"-2.419023"},"context":"","outcome_status":{"category":"Under investigation","date":"2018-06"},"persistent_id":"fda27aa87facf89ad5d2e3df2b6aed408adf59a9fb21243927120e111985ca17","id":65631462,"location_subtype":"","month":"2018-06"},{"category":"criminal-damage-arson","location_type":"Force","location":{"latitude":"53.579666","street":{"id":744087,"name":"On or near Bank Street"},"longitude":"-2.426817"},"context":"","outcome_status":{"category":"Investigation complete; no suspect identified","date":"2018-06"},"persistent_id":"f6c4b76a99fb67fed25cc47e24f025ac58cf1ff8574c8b3d297cbd5d73c44ca8","id":65631500,"location_subtype":"","month":"2018-06"},{"category":"criminal-damage-arson","location_type":"Force","location":{"latitude":"53.568248","street":{"id":744168,"name":"On or near Back Sharman Street"},"longitude":"-2.414743"},"context":"","outcome_status":{"category":"Investigation complete; no suspect identified","date":"2018-06"},"persistent_id":"c34422c9b103fcd750a745b7a826de2bc12976825b33d3796d43237d5df7d3a9","id":65623865,"location_subtype":"","month":"2018-06"},{"category":"criminal-damage-arson","location_type":"Force","location":{"latitude":"53.574742","street":{"id":744097,"name":"On or near Parking Area"},"longitude":"-2.431403"},"context":"","outcome_status":{"category":"Investigation complete; no suspect identified","date":"2018-06"},"persistent_id":"fc413a88e265dfc4a542247720fc6ca4aa2c681958f410b44c2780e63a1b2339","id":65633404,"location_subtype":"","month":"2018-06"},{"category":"criminal-damage-arson","location_type":"Force","location":{"latitude":"53.563277","street":{"id":742486,"name":"On or near Back Melville Street"},"longitude":"-2.422515"},"context":"","outcome_status":{"category":"Investigation complete; no suspect identified","date":"2018-06"},"persistent_id":"b4e0c785dd8b512a991f696ade4977de09cd3052269a78e2d1b29623a373a8a9","id":65641362,"location_subtype":"","month":"2018-06"},{"category":"criminal-damage-arson","location_type":"Force","location":{"latitude":"53.576147","street":{"id":744105,"name":"On or near Union Buildings"},"longitude":"-2.425573"},"context":"","outcome_status":{"category":"Investigation complete; no suspect identified","date":"2018-06"},"persistent_id":"e71c0574376e4ec545cf7af2e1d5505dd2ed45c60fb8f549d90305259c827057","id":65637164,"location_subtype":"","month":"2018-06"},{"category":"criminal-damage-arson","location_type":"Force","location":{"latitude":"53.559948","street":{"id":742293,"name":"On or near Manchester Road"},"longitude":"-2.405453"},"context":"","outcome_status":{"category":"Under investigation","date":"2018-06"},"persistent_id":"24dac3b45d5a73f0b7ac58da290d653f5ecf281bc0603395104fd5b84d083925","id":65657646,"location_subtype":"","month":"2018-06"},{"category":"criminal-damage-arson","location_type":"Force","location":{"latitude":"53.561181","street":{"id":742433,"name":"On or near Petrol Station"},"longitude":"-2.428261"},"context":"","outcome_status":{"category":"Under investigation","date":"2018-06"},"persistent_id":"a38d587f9fd6c53b85dc1b2ed9fdae464ecca8d93a41beb3622af86deb39f7a2","id":65624770,"location_subtype":"","month":"2018-06"},{"category":"criminal-damage-arson","location_type":"Force","location":{"latitude":"53.564227","street":{"id":742439,"name":"On or near Stonemead Close"},"longitude":"-2.428458"},"context":"","outcome_status":{"category":"Investigation complete; no suspect identified","date":"2018-06"},"persistent_id":"61c828a8fbd21c5a08243d189c34785a53fdbf0c175d385f2fc2c8ab7b58d34d","id":65625708,"location_subtype":"","month":"2018-06"},{"category":"criminal-damage-arson","location_type":"Force","location":{"latitude":"53.577111","street":{"id":744148,"name":"On or near Chancery Lane"},"longitude":"-2.427455"},"context":"","outcome_status":{"category":"Under investigation","date":"2018-06"},"persistent_id":"8e14035dfe2e5db41ddfc054632b61b8f20f70ce19ca007aaad9a21a3367f0c9","id":65655607,"location_subtype":"","month":"2018-06"},{"category":"criminal-damage-arson","location_type":"Force","location":{"latitude":"53.561577","street":{"id":742380,"name":"On or near Woodgate Street"},"longitude":"-2.417938"},"context":"","outcome_status":{"category":"Investigation complete; no suspect identified","date":"2018-06"},"persistent_id":"cc497bd0687f3b7c1265520e1fb86535afde299250a296a33ff1fd5fcccae1ad","id":65641355,"location_subtype":"","month":"2018-06"},{"category":"criminal-damage-arson","location_type":"Force","location":{"latitude":"53.570054","street":{"id":743996,"name":"On or near Rothwell Street"},"longitude":"-2.435266"},"context":"","outcome_status":{"category":"Investigation complete; no suspect identified","date":"2018-06"},"persistent_id":"b243a8e39094179104af4ea2beb194392dc8dca1c7dcea479649e9b7d763e005","id":65655724,"location_subtype":"","month":"2018-06"},{"category":"criminal-damage-arson","location_type":"Force","location":{"latitude":"53.566381","street":{"id":742266,"name":"On or near Hurstwood Court"},"longitude":"-2.408957"},"context":"","outcome_status":{"category":"Investigation complete; no suspect identified","date":"2018-06"},"persistent_id":"7b865bd22cdc86c68ad2d4248968a3085696b8100e816b9e123d60ec281bcbf4","id":65654681,"location_subtype":"","month":"2018-06"},{"category":"criminal-damage-arson","location_type":"Force","location":{"latitude":"53.560558","street":{"id":742431,"name":"On or near Back Calvert Road"},"longitude":"-2.431455"},"context":"","outcome_status":{"category":"Investigation complete; no suspect identified","date":"2018-06"},"persistent_id":"808de659d177cf891a5a01dc3ae317f2e626488411dd13ab1e82152b273fcaa0","id":65647303,"location_subtype":"","month":"2018-06"},{"category":"criminal-damage-arson","location_type":"Force","location":{"latitude":"53.561404","street":{"id":742423,"name":"On or near Back Westbourne Avenue"},"longitude":"-2.418616"},"context":"","outcome_status":{"category":"Investigation complete; no suspect identified","date":"2018-06"},"persistent_id":"d69c22ae86c4db1e42ffe89d88702f936878c270f474b2a544e80e4dd4144696","id":65626817,"location_subtype":"","month":"2018-06"},{"category":"criminal-damage-arson","location_type":"Force","location":{"latitude":"53.570591","street":{"id":744113,"name":"On or near Scholey Street"},"longitude":"-2.418239"},"context":"","outcome_status":{"category":"Under investigation","date":"2018-06"},"persistent_id":"07d19a0a1deaa2cbd48e5ba5c707f569502a5a7a700968c02d8b71283a4b48e7","id":65653167,"location_subtype":"","month":"2018-06"},{"category":"criminal-damage-arson","location_type":"Force","location":{"latitude":"53.570091","street":{"id":744144,"name":"On or near Cochrane Street"},"longitude":"-2.427430"},"context":"","outcome_status":{"category":"Under investigation","date":"2018-06"},"persistent_id":"c7534a8b31de1370b4def7ce3ad1cb70437c2ea18473b5e051df6712e486cd02","id":65648956,"location_subtype":"","month":"2018-06"},{"category":"criminal-damage-arson","location_type":"Force","location":{"latitude":"53.579294","street":{"id":744080,"name":"On or near Paley Street"},"longitude":"-2.425182"},"context":"","outcome_status":{"category":"Under investigation","date":"2018-06"},"persistent_id":"f0125665d3f411a01a84f1e5f39352844da45e32adada144456908bfacdd0a02","id":65648911,"location_subtype":"","month":"2018-06"},{"category":"criminal-damage-arson","location_type":"Force","location":{"latitude":"53.561815","street":{"id":742455,"name":"On or near Meredith Street"},"longitude":"-2.429384"},"context":"","outcome_status":{"category":"Investigation complete; no suspect identified","date":"2018-06"},"persistent_id":"e4e89f1c94f3c37452bc5b18cb9fee6152f3a9242d982d6c111ffd1107da0de4","id":65640057,"location_subtype":"","month":"2018-06"},{"category":"criminal-damage-arson","location_type":"Force","location":{"latitude":"53.577583","street":{"id":744147,"name":"On or near Cheapside Square"},"longitude":"-2.428563"},"context":"","outcome_status":{"category":"Investigation complete; no suspect identified","date":"2018-06"},"persistent_id":"ed9bc3579436baec66ad4c82eb1b08676f1f864db38bedf7a874ad46cf4847d9","id":65656681,"location_subtype":"","month":"2018-06"},{"category":"criminal-damage-arson","location_type":"Force","location":{"latitude":"53.565044","street":{"id":742475,"name":"On or near Back Weston Street South"},"longitude":"-2.423635"},"context":"","outcome_status":{"category":"Investigation complete; no suspect identified","date":"2018-06"},"persistent_id":"30250f5d88e139e15a8e72103c2207e16d3f9b51c3122da52d2258a0145ce113","id":65628629,"location_subtype":"","month":"2018-06"},{"category":"criminal-damage-arson","location_type":"Force","location":{"latitude":"53.568248","street":{"id":744168,"name":"On or near Back Sharman Street"},"longitude":"-2.414743"},"context":"","outcome_status":{"category":"Under investigation","date":"2018-06"},"persistent_id":"bd6cfe06aecdd0e3453ab8005fa2a2b4c679bedd3a6842a7f3be29dfaa47a778","id":65628645,"location_subtype":"","month":"2018-06"},{"category":"criminal-damage-arson","location_type":"Force","location":{"latitude":"53.574823","street":{"id":743992,"name":"On or near Stanley Street South"},"longitude":"-2.436418"},"context":"","outcome_status":{"category":"Investigation complete; no suspect identified","date":"2018-06"},"persistent_id":"116cdd77577a1e780096b30b2b26994d97921c4e2b57b9574dc67d13c7d36ff3","id":65628646,"location_subtype":"","month":"2018-06"},{"category":"criminal-damage-arson","location_type":"Force","location":{"latitude":"53.575532","street":{"id":744134,"name":"On or near Glebe Street"},"longitude":"-2.421595"},"context":"","outcome_status":{"category":"Investigation complete; no suspect identified","date":"2018-06"},"persistent_id":"6a5bcc8ad63c1a057bd6d2ba50c36932874fbde3e82f8438782001d5b14a744a","id":65653179,"location_subtype":"","month":"2018-06"},{"category":"criminal-damage-arson","location_type":"Force","location":{"latitude":"53.562085","street":{"id":742756,"name":"On or near Jasmine Court"},"longitude":"-2.434354"},"context":"","outcome_status":{"category":"Unable to prosecute suspect","date":"2018-06"},"persistent_id":"6b0dc1a0c9b53e559853a83e892f31c2dede1120e88f334c18badc3309d144cd","id":65624774,"location_subtype":"","month":"2018-06"},{"category":"criminal-damage-arson","location_type":"Force","location":{"latitude":"53.567915","street":{"id":744152,"name":"On or near Carrington Drive"},"longitude":"-2.430337"},"context":"","outcome_status":{"category":"Investigation complete; no suspect identified","date":"2018-06"},"persistent_id":"2325ecc230aaad92ae0bb8697c892c8e90c0fcb509df4d0f11dc2dae23e368c0","id":65624775,"location_subtype":"","month":"2018-06"},{"category":"criminal-damage-arson","location_type":"Force","location":{"latitude":"53.577236","street":{"id":744110,"name":"On or near Silverwell Lane"},"longitude":"-2.425070"},"context":"","outcome_status":{"category":"Investigation complete; no suspect identified","date":"2018-06"},"persistent_id":"3b33af0b0214c7ccd24c323acd24c2cafabc125ae6bf51d2bb8bba789ea6fca5","id":65634312,"location_subtype":"","month":"2018-06"},{"category":"drugs","location_type":"Force","location":{"latitude":"53.559948","street":{"id":742293,"name":"On or near Manchester Road"},"longitude":"-2.405453"},"context":"","outcome_status":{"category":"Investigation complete; no suspect identified","date":"2018-06"},"persistent_id":"a03aaa23a415691199bcb9b80862554475293d10cc6effbc07720b21e27b833a","id":65656737,"location_subtype":"","month":"2018-06"},{"category":"drugs","location_type":"Force","location":{"latitude":"53.559948","street":{"id":742293,"name":"On or near Manchester Road"},"longitude":"-2.405453"},"context":"","outcome_status":{"category":"Unable to prosecute suspect","date":"2018-06"},"persistent_id":"0cfdc2a3bf1d3e098853161ad68409db12370d103d650dc5e78addd0d2d90836","id":65625767,"location_subtype":"","month":"2018-06"},{"category":"drugs","location_type":"Force","location":{"latitude":"53.565369","street":{"id":742451,"name":"On or near Preston Street"},"longitude":"-2.415560"},"context":"","outcome_status":{"category":"Offender given a drugs possession warning","date":"2018-06"},"persistent_id":"7bd20b7506e1867ca5c2d2abd93ec2562d0f48a46466d12db10e977c4dafe384","id":65643322,"location_subtype":"","month":"2018-06"},{"category":"other-theft","location_type":"Force","location":{"latitude":"53.574385","street":{"id":744183,"name":"On or near Allsopp Street"},"longitude":"-2.428047"},"context":"","outcome_status":{"category":"Investigation complete; no suspect identified","date":"2018-06"},"persistent_id":"b76a2a6fabd9f42d0dc469f4babdc00c01c454b66a8177db18bdf9365a8e8283","id":65654618,"location_subtype":"","month":"2018-06"},{"category":"other-theft","location_type":"Force","location":{"latitude":"53.572961","street":{"id":744187,"name":"On or near Petrol Station"},"longitude":"-2.426719"},"context":"","outcome_status":{"category":"Investigation complete; no suspect identified","date":"2018-06"},"persistent_id":"ac803744ff643132284a1e792ec93e453c3559ac421e46b1f26cf0fa1b74b5b8","id":65640064,"location_subtype":"","month":"2018-06"},{"category":"other-theft","location_type":"Force","location":{"latitude":"53.574385","street":{"id":744183,"name":"On or near Allsopp Street"},"longitude":"-2.428047"},"context":"","outcome_status":{"category":"Investigation complete; no suspect identified","date":"2018-06"},"persistent_id":"2e12dcf25dfbe94b7c5d326ec55200c5ae9b77d76e3b7551621f288806d10f32","id":65653282,"location_subtype":"","month":"2018-06"},{"category":"other-theft","location_type":"Force","location":{"latitude":"53.567128","street":{"id":742336,"name":"On or near Hilda Street"},"longitude":"-2.421662"},"context":"","outcome_status":{"category":"Under investigation","date":"2018-06"},"persistent_id":"d8906f57da215b5d814e97abf0215c72cb2e3753b441b610d7e226598745bc28","id":65653114,"location_subtype":"","month":"2018-06"},{"category":"other-theft","location_type":"Force","location":{"latitude":"53.576990","street":{"id":744156,"name":"On or near Breightmet Street"},"longitude":"-2.423618"},"context":"","outcome_status":{"category":"Unable to prosecute suspect","date":"2018-06"},"persistent_id":"daa830ef3f20023ece695bc8f04810a5698866c11e0b12962fa0bdeb9b2ce853","id":65636287,"location_subtype":"","month":"2018-06"},{"category":"other-theft","location_type":"Force","location":{"latitude":"53.574490","street":{"id":710351,"name":"On or near Gorton Street"},"longitude":"-2.421343"},"context":"","outcome_status":{"category":"Further investigation is not in the public interest","date":"2018-06"},"persistent_id":"61b6b853f077deee68985b66811bfc7ecfc983e6fee5fc360cb57a31051cfb53","id":65638022,"location_subtype":"","month":"2018-06"},{"category":"other-theft","location_type":"Force","location":{"latitude":"53.568248","street":{"id":744168,"name":"On or near Back Sharman Street"},"longitude":"-2.414743"},"context":"","outcome_status":{"category":"Under investigation","date":"2018-06"},"persistent_id":"fa1ced3c72f19fad3ccb18d439b5b43b1204d8682594ab3107570c438d2bf3d3","id":65649081,"location_subtype":"","month":"2018-06"},{"category":"other-theft","location_type":"Force","location":{"latitude":"53.579666","street":{"id":744087,"name":"On or near Bank Street"},"longitude":"-2.426817"},"context":"","outcome_status":{"category":"Investigation complete; no suspect identified","date":"2018-06"},"persistent_id":"1ddb845a767813d18b4825e5c7e70252da5c1b5df98a5709d42605ac51a8ab82","id":65635352,"location_subtype":"","month":"2018-06"},{"category":"other-theft","location_type":"Force","location":{"latitude":"53.574930","street":{"id":744189,"name":"On or near Supermarket"},"longitude":"-2.429155"},"context":"","outcome_status":{"category":"Under investigation","date":"2018-06"},"persistent_id":"cb0e23deecbd759cf7a38dd17817a5c928c1daf4bf9db9a294dd47e40882569c","id":65648973,"location_subtype":"","month":"2018-06"},{"category":"other-theft","location_type":"Force","location":{"latitude":"53.579094","street":{"id":744219,"name":"On or near Shopping Area"},"longitude":"-2.428518"},"context":"","outcome_status":{"category":"Investigation complete; no suspect identified","date":"2018-06"},"persistent_id":"2c6e10b79b1d552a2d8afd4b33784d710e3600b9bf70a8fb59265f228d890801","id":65622834,"location_subtype":"","month":"2018-06"},{"category":"other-theft","location_type":"Force","location":{"latitude":"53.574930","street":{"id":744189,"name":"On or near Supermarket"},"longitude":"-2.429155"},"context":"","outcome_status":{"category":"Under investigation","date":"2018-06"},"persistent_id":"75c0f7ec418005126a990cdc55aa90252422961524f56ab1de822b94802b3f26","id":65648909,"location_subtype":"","month":"2018-06"},{"category":"other-theft","location_type":"Force","location":{"latitude":"53.574385","street":{"id":744183,"name":"On or near Allsopp Street"},"longitude":"-2.428047"},"context":"","outcome_status":{"category":"Unable to prosecute suspect","date":"2018-06"},"persistent_id":"42f1500b019722850e777856a3a437b9ed97e9ca30fe687229d7878cd9d80109","id":65647370,"location_subtype":"","month":"2018-06"},{"category":"other-theft","location_type":"Force","location":{"latitude":"53.561375","street":{"id":742409,"name":"On or near Deal Street"},"longitude":"-2.429259"},"context":"","outcome_status":{"category":"Investigation complete; no suspect identified","date":"2018-06"},"persistent_id":"6f01d59163d807f816586e4ac28fe7bfafd7e5535d751acc79790ee2d715efca","id":65626748,"location_subtype":"","month":"2018-06"},{"category":"other-theft","location_type":"Force","location":{"latitude":"53.568067","street":{"id":744175,"name":"On or near Back Fortune Street"},"longitude":"-2.415300"},"context":"","outcome_status":{"category":"Investigation complete; no suspect identified","date":"2018-06"},"persistent_id":"96ce34af213b09c832c4809512b4f16534277d89687ef4469843012e9cb6cb03","id":65629676,"location_subtype":"","month":"2018-06"},{"category":"other-theft","location_type":"Force","location":{"latitude":"53.576147","street":{"id":744105,"name":"On or near Union Buildings"},"longitude":"-2.425573"},"context":"","outcome_status":{"category":"Investigation complete; no suspect identified","date":"2018-06"},"persistent_id":"6516f93019d9ca12ed448e5f1201ac1936c61135494058064960f2e1cb0e911f","id":65639131,"location_subtype":"","month":"2018-06"},{"category":"other-theft","location_type":"Force","location":{"latitude":"53.568067","street":{"id":744175,"name":"On or near Back Fortune Street"},"longitude":"-2.415300"},"context":"","outcome_status":{"category":"Investigation complete; no suspect identified","date":"2018-06"},"persistent_id":"c2fb1fbe4cbb4ef58a8661c93c6e184e76581da7435e4dea425e35ea99b73131","id":65629662,"location_subtype":"","month":"2018-06"},{"category":"other-theft","location_type":"Force","location":{"latitude":"53.575987","street":{"id":744101,"name":"On or near Parking Area"},"longitude":"-2.427565"},"context":"","outcome_status":{"category":"Investigation complete; no suspect identified","date":"2018-06"},"persistent_id":"c18922ab82856b017ed044a9d95e9fafeda738331a790bafb1b2eb2848466e36","id":65656726,"location_subtype":"","month":"2018-06"},{"category":"other-theft","location_type":"Force","location":{"latitude":"53.576147","street":{"id":744105,"name":"On or near Union Buildings"},"longitude":"-2.425573"},"context":"","outcome_status":{"category":"Investigation complete; no suspect identified","date":"2018-06"},"persistent_id":"3ad68eeedced2d01df9af59182af6abb618931d617f2c2a6caf250d96c0fe05c","id":65629598,"location_subtype":"","month":"2018-06"},{"category":"other-theft","location_type":"Force","location":{"latitude":"53.566381","street":{"id":742266,"name":"On or near Hurstwood Court"},"longitude":"-2.408957"},"context":"","outcome_status":{"category":"Investigation complete; no suspect identified","date":"2018-06"},"persistent_id":"f416e69991f15bf2c5c79f9e88dd18eb28b0dbb17fdb2658cde8222d15df7eb2","id":65627658,"location_subtype":"","month":"2018-06"},{"category":"other-theft","location_type":"Force","location":{"latitude":"53.574742","street":{"id":744097,"name":"On or near Parking Area"},"longitude":"-2.431403"},"context":"","outcome_status":{"category":"Under investigation","date":"2018-06"},"persistent_id":"876a34b0e5a5dac07436a1f03eb6a0c4ea90bf42dad018e90bfa7045150be1f0","id":65622826,"location_subtype":"","month":"2018-06"},{"category":"other-theft","location_type":"Force","location":{"latitude":"53.574385","street":{"id":744183,"name":"On or near Allsopp Street"},"longitude":"-2.428047"},"context":"","outcome_status":{"category":"Investigation complete; no suspect identified","date":"2018-06"},"persistent_id":"dcc83ec43d92b5891a44c43873adab5170965af735bf7b9eb56fb1e17bc75232","id":65654624,"location_subtype":"","month":"2018-06"},{"category":"other-theft","location_type":"Force","location":{"latitude":"53.574385","street":{"id":744183,"name":"On or near Allsopp Street"},"longitude":"-2.428047"},"context":"","outcome_status":{"category":"Investigation complete; no suspect identified","date":"2018-06"},"persistent_id":"53acc383b93a0b90d3d18de20cd8ea2ec3e4c1587674237d6b75cead46680938","id":65638083,"location_subtype":"","month":"2018-06"},{"category":"other-theft","location_type":"Force","location":{"latitude":"53.572961","street":{"id":744187,"name":"On or near Petrol Station"},"longitude":"-2.426719"},"context":"","outcome_status":{"category":"Unable to prosecute suspect","date":"2018-06"},"persistent_id":"91e95742b67f7c6a0da21d52eda21317062fb34c4b6ede67413923679a9ef5f9","id":65626809,"location_subtype":"","month":"2018-06"},{"category":"other-theft","location_type":"Force","location":{"latitude":"53.562464","street":{"id":742754,"name":"On or near Langdale Street"},"longitude":"-2.433800"},"context":"","outcome_status":{"category":"Investigation complete; no suspect identified","date":"2018-06"},"persistent_id":"5ec46678a114d8245b8d26ceea9b04ebead24b470023d8f8084f458016affa5a","id":65641324,"location_subtype":"","month":"2018-06"},{"category":"other-theft","location_type":"Force","location":{"latitude":"53.561863","street":{"id":742466,"name":"On or near Crescent Road"},"longitude":"-2.415767"},"context":"","outcome_status":{"category":"Investigation complete; no suspect identified","date":"2018-06"},"persistent_id":"6113da7ea786b0ae2e4d84a333dbb581b92bcfcce350705e029985414df5c89b","id":65657645,"location_subtype":"","month":"2018-06"},{"category":"other-theft","location_type":"Force","location":{"latitude":"53.559948","street":{"id":742293,"name":"On or near Manchester Road"},"longitude":"-2.405453"},"context":"","outcome_status":{"category":"Investigation complete; no suspect identified","date":"2018-06"},"persistent_id":"4ede8c9cc7be6a6a1054d5afe9744e6e4a1123b2b45bb0bf0e74ad971b03a597","id":65634334,"location_subtype":"","month":"2018-06"},{"category":"other-theft","location_type":"Force","location":{"latitude":"53.567746","street":{"id":744170,"name":"On or near Back Lever Street"},"longitude":"-2.429641"},"context":"","outcome_status":{"category":"Investigation complete; no suspect identified","date":"2018-06"},"persistent_id":"59bb81329ce953710447bd979acab0e8c33c7eddbb86986db9d00feb41147922","id":65627718,"location_subtype":"","month":"2018-06"},{"category":"other-theft","location_type":"Force","location":{"latitude":"53.578662","street":{"id":744103,"name":"On or near Wood Street"},"longitude":"-2.426006"},"context":"","outcome_status":{"category":"Under investigation","date":"2018-06"},"persistent_id":"08c812a3d4e2db4e59d3f79044a1903cc90bac9d3ea4d0aade4112ad49ab16c2","id":65657639,"location_subtype":"","month":"2018-06"},{"category":"other-theft","location_type":"Force","location":{"latitude":"53.567604","street":{"id":742549,"name":"On or near Flora Street"},"longitude":"-2.439212"},"context":"","outcome_status":{"category":"Investigation complete; no suspect identified","date":"2018-06"},"persistent_id":"cd8e8fe3cfb82fbc793a9890f0f2f3a491db522f12df3313e080b5c106967222","id":65624776,"location_subtype":"","month":"2018-06"},{"category":"other-theft","location_type":"Force","location":{"latitude":"53.563747","street":{"id":742494,"name":"On or near Back Carter Street"},"longitude":"-2.419213"},"context":"","outcome_status":{"category":"Investigation complete; no suspect identified","date":"2018-06"},"persistent_id":"0be2071fe542dcc4c3766dac9d4877550ef49dcceedcb6da17acd4511906026c","id":65640038,"location_subtype":"","month":"2018-06"},{"category":"other-theft","location_type":"Force","location":{"latitude":"53.566443","street":{"id":742335,"name":"On or near Mckean Street"},"longitude":"-2.422078"},"context":"","outcome_status":{"category":"Under investigation","date":"2018-06"},"persistent_id":"934fd4597ff63a216f7205f59fe51902d6eb28879635dfe9c2521e4571bd7566","id":65623900,"location_subtype":"","month":"2018-06"},{"category":"other-theft","location_type":"Force","location":{"latitude":"53.566651","street":{"id":742340,"name":"On or near Back Mckean Street"},"longitude":"-2.421793"},"context":"","outcome_status":{"category":"Under investigation","date":"2018-06"},"persistent_id":"be92d8e7557fc1c069a8b3774ffed1ae294dda2bd517044f7e822a68c36c3b93","id":65624820,"location_subtype":"","month":"2018-06"},{"category":"other-theft","location_type":"Force","location":{"latitude":"53.570920","street":{"id":744047,"name":"On or near Ashbury Close"},"longitude":"-2.436816"},"context":"","outcome_status":{"category":"Under investigation","date":"2018-06"},"persistent_id":"b6119fc24c063a0fb7a0bdd2e0245fcfee317edb36a134fb69457a4a74427f2b","id":65633407,"location_subtype":"","month":"2018-06"},{"category":"other-theft","location_type":"Force","location":{"latitude":"53.567442","street":{"id":742346,"name":"On or near Lever Drive"},"longitude":"-2.431691"},"context":"","outcome_status":{"category":"Investigation complete; no suspect identified","date":"2018-06"},"persistent_id":"ef47300e8cacf4819c98d791c0dd260b1267ed0875aaf297f5d53555e506d655","id":65624769,"location_subtype":"","month":"2018-06"},{"category":"other-theft","location_type":"Force","location":{"latitude":"53.566364","street":{"id":742332,"name":"On or near Springfield Street"},"longitude":"-2.416400"},"context":"","outcome_status":{"category":"Further investigation is not in the public interest","date":"2018-06"},"persistent_id":"8232ec1715737746045cf3c06d7cc754ca0604b040c92a310ce51a8fa95b1702","id":65622881,"location_subtype":"","month":"2018-06"},{"category":"other-theft","location_type":"Force","location":{"latitude":"53.576793","street":{"id":744163,"name":"On or near Bold Street"},"longitude":"-2.428343"},"context":"","outcome_status":{"category":"Investigation complete; no suspect identified","date":"2018-06"},"persistent_id":"97ee45046495ddba9ac5f81037643ef1db9bcd620fc5d4e076e5825eb9d9cb2d","id":65623854,"location_subtype":"","month":"2018-06"},{"category":"other-theft","location_type":"Force","location":{"latitude":"53.574742","street":{"id":744097,"name":"On or near Parking Area"},"longitude":"-2.431403"},"context":"","outcome_status":{"category":"Investigation complete; no suspect identified","date":"2018-06"},"persistent_id":"4499fa8df747230d3d774303f71f9c599a2d61499f54c9a774822a6de464608c","id":65637137,"location_subtype":"","month":"2018-06"},{"category":"other-theft","location_type":"Force","location":{"latitude":"53.570591","street":{"id":744113,"name":"On or near Scholey Street"},"longitude":"-2.418239"},"context":"","outcome_status":{"category":"Investigation complete; no suspect identified","date":"2018-06"},"persistent_id":"0167dc312db2c00d5758ec46053a11b4750764fa02793d4071b830a2eb01975f","id":65629592,"location_subtype":"","month":"2018-06"},{"category":"other-theft","location_type":"Force","location":{"latitude":"53.566381","street":{"id":742266,"name":"On or near Hurstwood Court"},"longitude":"-2.408957"},"context":"","outcome_status":{"category":"Investigation complete; no suspect identified","date":"2018-06"},"persistent_id":"670f253a4624b3118653988d188fdd141f779cd35de7a5cfd7bb187fc39932cf","id":65628643,"location_subtype":"","month":"2018-06"},{"category":"possession-of-weapons","location_type":"Force","location":{"latitude":"53.579634","street":{"id":744082,"name":"On or near Churchgate"},"longitude":"-2.425744"},"context":"","outcome_status":{"category":"Awaiting court outcome","date":"2018-06"},"persistent_id":"1b0c4a779c21cd57b4d60502f62e39e3ee856814284607e7d51563d49ba66a88","id":65627672,"location_subtype":"","month":"2018-06"},{"category":"possession-of-weapons","location_type":"Force","location":{"latitude":"53.577111","street":{"id":744148,"name":"On or near Chancery Lane"},"longitude":"-2.427455"},"context":"","outcome_status":{"category":"Under investigation","date":"2018-06"},"persistent_id":"493daa00c2fc27c22840feb8a610417b1e48f8598a0932a14bb6f341ab5300fa","id":65633296,"location_subtype":"","month":"2018-06"},{"category":"possession-of-weapons","location_type":"Force","location":{"latitude":"53.559673","street":{"id":742611,"name":"On or near Hamel Street"},"longitude":"-2.437424"},"context":"","outcome_status":{"category":"Investigation complete; no suspect identified","date":"2018-06"},"persistent_id":"dc4effe3e724bc2b0b3b145edcd1bbb790bccf00928d99b6184330b94189bb15","id":65637139,"location_subtype":"","month":"2018-06"},{"category":"possession-of-weapons","location_type":"Force","location":{"latitude":"53.559673","street":{"id":742611,"name":"On or near Hamel Street"},"longitude":"-2.437424"},"context":"","outcome_status":{"category":"Investigation complete; no suspect identified","date":"2018-06"},"persistent_id":"aec15114b571cda5291bedef686d53aaaf5e6156a906071b049c24b8f31fecd3","id":65643307,"location_subtype":"","month":"2018-06"},{"category":"public-order","location_type":"Force","location":{"latitude":"53.562914","street":{"id":742508,"name":"On or near Back Mayfield Avenue"},"longitude":"-2.413241"},"context":"","outcome_status":{"category":"Under investigation","date":"2018-06"},"persistent_id":"f4cb47bf07de2ad041087c19944132fd4c4238e83a80e25fd1a2b6b7511fedf2","id":65639115,"location_subtype":"","month":"2018-06"},{"category":"public-order","location_type":"Force","location":{"latitude":"53.573535","street":{"id":744186,"name":"On or near Petrol Station"},"longitude":"-2.429579"},"context":"","outcome_status":{"category":"Investigation complete; no suspect identified","date":"2018-06"},"persistent_id":"7257728f00a5ce73b673af6233aeea06f38c4efd13e081038dd9eea8271f5946","id":65622846,"location_subtype":"","month":"2018-06"},{"category":"public-order","location_type":"Force","location":{"latitude":"53.572961","street":{"id":744187,"name":"On or near Petrol Station"},"longitude":"-2.426719"},"context":"","outcome_status":{"category":"Investigation complete; no suspect identified","date":"2018-06"},"persistent_id":"946dae3839c0231356b05e2657e18b319104933d74b69ea289a57aeb383e8918","id":65622880,"location_subtype":"","month":"2018-06"},{"category":"public-order","location_type":"Force","location":{"latitude":"53.579666","street":{"id":744087,"name":"On or near Bank Street"},"longitude":"-2.426817"},"context":"","outcome_status":{"category":"Investigation complete; no suspect identified","date":"2018-06"},"persistent_id":"a7e76d0ae1f074562384efeaaba3e5e6c984575676a91e029a17b1e80683acda","id":65623906,"location_subtype":"","month":"2018-06"},{"category":"public-order","location_type":"Force","location":{"latitude":"53.563151","street":{"id":742760,"name":"On or near Dunbar Drive"},"longitude":"-2.437717"},"context":"","outcome_status":{"category":"Unable to prosecute suspect","date":"2018-06"},"persistent_id":"35ce20288b3e475d817d89336c4687e9f4e1edf4b30b331dbb0aa72467432387","id":65623910,"location_subtype":"","month":"2018-06"},{"category":"public-order","location_type":"Force","location":{"latitude":"53.568147","street":{"id":744140,"name":"On or near Cyril Street"},"longitude":"-2.417973"},"context":"","outcome_status":{"category":"Awaiting court outcome","date":"2018-06"},"persistent_id":"708269ac6763a87148e6bdcdcf9d7843f9c5247d7c4742cc0f086623b81b242d","id":65624832,"location_subtype":"","month":"2018-06"},{"category":"public-order","location_type":"Force","location":{"latitude":"53.563151","street":{"id":742760,"name":"On or near Dunbar Drive"},"longitude":"-2.437717"},"context":"","outcome_status":{"category":"Local resolution","date":"2018-06"},"persistent_id":"9993c5bca216e17ebb15cdbf3671d9dd9dadc2f9f6a415ffe349a7a55ed4bfcf","id":65623848,"location_subtype":"","month":"2018-06"},{"category":"public-order","location_type":"Force","location":{"latitude":"53.564869","street":{"id":742751,"name":"On or near Mancroft Avenue"},"longitude":"-2.439788"},"context":"","outcome_status":{"category":"Under investigation","date":"2018-06"},"persistent_id":"7334f31ae8ce98f5c46a1d0105b80a5e7a0be8934dca290b636fde7163af9a4d","id":65623880,"location_subtype":"","month":"2018-06"},{"category":"public-order","location_type":"Force","location":{"latitude":"53.574385","street":{"id":744183,"name":"On or near Allsopp Street"},"longitude":"-2.428047"},"context":"","outcome_status":{"category":"Investigation complete; no suspect identified","date":"2018-06"},"persistent_id":"248c3cd5ef2165eada256917e9d188530ed4fd32023a843bbe976ba8ee8fb5f3","id":65623889,"location_subtype":"","month":"2018-06"},{"category":"public-order","location_type":"Force","location":{"latitude":"53.561815","street":{"id":742455,"name":"On or near Meredith Street"},"longitude":"-2.429384"},"context":"","outcome_status":{"category":"Investigation complete; no suspect identified","date":"2018-06"},"persistent_id":"54d023a42b655f35685a3459014277a2e26564521ca2abac440dc22ad1f9bf46","id":65623896,"location_subtype":"","month":"2018-06"},{"category":"public-order","location_type":"Force","location":{"latitude":"53.576147","street":{"id":744105,"name":"On or near Union Buildings"},"longitude":"-2.425573"},"context":"","outcome_status":{"category":"Investigation complete; no suspect identified","date":"2018-06"},"persistent_id":"e569b6cf779a409175d93b19869dda6aeecb88746a31364e14a034fb6044795b","id":65627688,"location_subtype":"","month":"2018-06"},{"category":"public-order","location_type":"Force","location":{"latitude":"53.571023","street":{"id":744093,"name":"On or near Pedestrian Subway"},"longitude":"-2.415600"},"context":"","outcome_status":{"category":"Investigation complete; no suspect identified","date":"2018-06"},"persistent_id":"9a10f23adc04e6c8df07cb838df88e436535bb72bb742edc319f5200c3da63a0","id":65626738,"location_subtype":"","month":"2018-06"},{"category":"public-order","location_type":"Force","location":{"latitude":"53.568147","street":{"id":744140,"name":"On or near Cyril Street"},"longitude":"-2.417973"},"context":"","outcome_status":{"category":"Under investigation","date":"2018-06"},"persistent_id":"07ff7f4d727597bfd3557e7d6fa7d32eb27db73c6bc43ae92ff513c458898a11","id":65627744,"location_subtype":"","month":"2018-06"},{"category":"public-order","location_type":"Force","location":{"latitude":"53.574742","street":{"id":744097,"name":"On or near Parking Area"},"longitude":"-2.431403"},"context":"","outcome_status":{"category":"Investigation complete; no suspect identified","date":"2018-06"},"persistent_id":"c1067cd1d942d2a1deaba637ac8e3e96435ab5c1e71d2984acc622ee8848e89a","id":65629609,"location_subtype":"","month":"2018-06"},{"category":"public-order","location_type":"Force","location":{"latitude":"53.564284","street":{"id":742437,"name":"On or near The Sheddings"},"longitude":"-2.417542"},"context":"","outcome_status":{"category":"Unable to prosecute suspect","date":"2018-06"},"persistent_id":"e25623254f70fa89df8f49187fb98a1b588c3de621e146b638c87109bc22780d","id":65629659,"location_subtype":"","month":"2018-06"},{"category":"public-order","location_type":"Force","location":{"latitude":"53.567442","street":{"id":742346,"name":"On or near Lever Drive"},"longitude":"-2.431691"},"context":"","outcome_status":{"category":"Investigation complete; no suspect identified","date":"2018-06"},"persistent_id":"c2b4619866316194174172d4269524262bbc8b709ef35549194358321de1404f","id":65629660,"location_subtype":"","month":"2018-06"},{"category":"public-order","location_type":"Force","location":{"latitude":"53.562630","street":{"id":742496,"name":"On or near Back Bradford Road"},"longitude":"-2.420032"},"context":"","outcome_status":{"category":"Investigation complete; no suspect identified","date":"2018-06"},"persistent_id":"d29e0848c7294621049c529722591eb6a4ecfffd4892398f046a2e1195c68411","id":65630583,"location_subtype":"","month":"2018-06"},{"category":"public-order","location_type":"Force","location":{"latitude":"53.570591","street":{"id":744113,"name":"On or near Scholey Street"},"longitude":"-2.418239"},"context":"","outcome_status":{"category":"Investigation complete; no suspect identified","date":"2018-06"},"persistent_id":"03a57e7c16b07286d4164a7d5f2898ca87aaf2c144bd9749f31a4724a5d69cf8","id":65632383,"location_subtype":"","month":"2018-06"},{"category":"public-order","location_type":"Force","location":{"latitude":"53.575895","street":{"id":744096,"name":"On or near Parking Area"},"longitude":"-2.420647"},"context":"","outcome_status":{"category":"Investigation complete; no suspect identified","date":"2018-06"},"persistent_id":"1a7d99ed73b00c90d25abdc2f3f531fed3922d5bf88b6b3bf25aa706b224b4f9","id":65632454,"location_subtype":"","month":"2018-06"},{"category":"public-order","location_type":"Force","location":{"latitude":"53.570920","street":{"id":744047,"name":"On or near Ashbury Close"},"longitude":"-2.436816"},"context":"","outcome_status":{"category":"Under investigation","date":"2018-06"},"persistent_id":"8a43b4e7bb656634434f710b3f5c5db98eafa0ebf3b7b302188f0a72ca17a278","id":65633414,"location_subtype":"","month":"2018-06"},{"category":"public-order","location_type":"Force","location":{"latitude":"53.577583","street":{"id":744147,"name":"On or near Cheapside Square"},"longitude":"-2.428563"},"context":"","outcome_status":{"category":"Awaiting court outcome","date":"2018-06"},"persistent_id":"b95e9c95c61414c3e993892e80423b869b28934e1add6f24571e8481b4d2036d","id":65633368,"location_subtype":"","month":"2018-06"},{"category":"public-order","location_type":"Force","location":{"latitude":"53.559989","street":{"id":742509,"name":"On or near Hampton Road"},"longitude":"-2.422074"},"context":"","outcome_status":{"category":"Unable to prosecute suspect","date":"2018-06"},"persistent_id":"40d9db89287ee7460c42358a567881394085edd61e9ba6255954f361f39f5744","id":65633312,"location_subtype":"","month":"2018-06"},{"category":"public-order","location_type":"Force","location":{"latitude":"53.572961","street":{"id":744187,"name":"On or near Petrol Station"},"longitude":"-2.426719"},"context":"","outcome_status":{"category":"Investigation complete; no suspect identified","date":"2018-06"},"persistent_id":"f6d37656d8c333ff289ed1a8904a789ad3a290886c044696e0bf38400191135e","id":65633322,"location_subtype":"","month":"2018-06"},{"category":"public-order","location_type":"Force","location":{"latitude":"53.567329","street":{"id":742541,"name":"On or near Recreation Street"},"longitude":"-2.435586"},"context":"","outcome_status":{"category":"Under investigation","date":"2018-06"},"persistent_id":"7bc2f04f6bd13af7f0e26266c4a8b231c6147043750145ca4b4c8668eaafd2e4","id":65634356,"location_subtype":"","month":"2018-06"},{"category":"public-order","location_type":"Force","location":{"latitude":"53.575962","street":{"id":744098,"name":"On or near Parking Area"},"longitude":"-2.426945"},"context":"","outcome_status":{"category":"Further investigation is not in the public interest","date":"2018-06"},"persistent_id":"56d25ad1b163bb7f0a485c0d2a4d5677fa1de1caa20edb9f6feb64eea58c8546","id":65636238,"location_subtype":"","month":"2018-06"},{"category":"public-order","location_type":"Force","location":{"latitude":"53.577111","street":{"id":744148,"name":"On or near Chancery Lane"},"longitude":"-2.427455"},"context":"","outcome_status":{"category":"Investigation complete; no suspect identified","date":"2018-06"},"persistent_id":"4b92580bbefb4cf222497f28a84a68ab7a6f3221c1316471f55801c9f59fccf1","id":65637235,"location_subtype":"","month":"2018-06"},{"category":"public-order","location_type":"Force","location":{"latitude":"53.562914","street":{"id":742508,"name":"On or near Back Mayfield Avenue"},"longitude":"-2.413241"},"context":"","outcome_status":{"category":"Under investigation","date":"2018-06"},"persistent_id":"7e59b292e365c9730d3ba998644eaeddd95202256a3c964422df6d713fce5052","id":65637165,"location_subtype":"","month":"2018-06"},{"category":"public-order","location_type":"Force","location":{"latitude":"53.567442","street":{"id":742346,"name":"On or near Lever Drive"},"longitude":"-2.431691"},"context":"","outcome_status":{"category":"Investigation complete; no suspect identified","date":"2018-06"},"persistent_id":"586820b1829946dde097b777e4ba836ff17e5d3301febf036378043acb38d360","id":65637178,"location_subtype":"","month":"2018-06"},{"category":"public-order","location_type":"Force","location":{"latitude":"53.571516","street":{"id":744042,"name":"On or near Back Derby Street"},"longitude":"-2.436172"},"context":"","outcome_status":{"category":"Investigation complete; no suspect identified","date":"2018-06"},"persistent_id":"eb706cb89a8fcf712b5d7e09d3893f4770489ae725960f0607b1a2d252826fc0","id":65637180,"location_subtype":"","month":"2018-06"},{"category":"public-order","location_type":"Force","location":{"latitude":"53.567258","street":{"id":742345,"name":"On or near Augustus Street"},"longitude":"-2.422947"},"context":"","outcome_status":{"category":"Unable to prosecute suspect","date":"2018-06"},"persistent_id":"76cfe4deca381595d9edf835fb7229af7321e3b6ca833a82d1d9d950149d99b5","id":65638087,"location_subtype":"","month":"2018-06"},{"category":"public-order","location_type":"Force","location":{"latitude":"53.576147","street":{"id":744105,"name":"On or near Union Buildings"},"longitude":"-2.425573"},"context":"","outcome_status":{"category":"Under investigation","date":"2018-06"},"persistent_id":"2dde05793337282f99114e565cf00e22c3a073f1b8abd9a49d7d6e43d5bafa53","id":65638014,"location_subtype":"","month":"2018-06"},{"category":"public-order","location_type":"Force","location":{"latitude":"53.559948","street":{"id":742293,"name":"On or near Manchester Road"},"longitude":"-2.405453"},"context":"","outcome_status":{"category":"Investigation complete; no suspect identified","date":"2018-06"},"persistent_id":"fec78a3d224ddc66064b21e24eccedec221124da23c5fbe5dda195487a56ea96","id":65639080,"location_subtype":"","month":"2018-06"},{"category":"public-order","location_type":"Force","location":{"latitude":"53.566152","street":{"id":742458,"name":"On or near Grecian Crescent"},"longitude":"-2.428085"},"context":"","outcome_status":{"category":"Unable to prosecute suspect","date":"2018-06"},"persistent_id":"e85202984b776e2dfaa2107fa2f42ac3c584f20d0a14f909985c9998469384c9","id":65640004,"location_subtype":"","month":"2018-06"},{"category":"public-order","location_type":"Force","location":{"latitude":"53.571894","street":{"id":744108,"name":"On or near Thynne Street"},"longitude":"-2.425878"},"context":"","outcome_status":{"category":"Under investigation","date":"2018-06"},"persistent_id":"134a1ed8ec480cc199d0e41518b688d682d2fb931f22697d96c80bfda8c5b4ed","id":65640019,"location_subtype":"","month":"2018-06"},{"category":"public-order","location_type":"Force","location":{"latitude":"53.563020","street":{"id":742452,"name":"On or near Parkfield Road"},"longitude":"-2.424203"},"context":"","outcome_status":{"category":"Awaiting court outcome","date":"2018-06"},"persistent_id":"b5f404e120200012fce93b4bea096fe65b1329f8bf23225f84869b62cd2b34b6","id":65640055,"location_subtype":"","month":"2018-06"},{"category":"public-order","location_type":"Force","location":{"latitude":"53.567128","street":{"id":742336,"name":"On or near Hilda Street"},"longitude":"-2.421662"},"context":"","outcome_status":{"category":"Under investigation","date":"2018-06"},"persistent_id":"70ec8ba41010f7fe073acfe27cea3ced2d6f2211f6537f1f8aacf1ffb1ed7a9e","id":65640076,"location_subtype":"","month":"2018-06"},{"category":"public-order","location_type":"Force","location":{"latitude":"53.565634","street":{"id":742436,"name":"On or near Weston Street"},"longitude":"-2.422025"},"context":"","outcome_status":{"category":"Investigation complete; no suspect identified","date":"2018-06"},"persistent_id":"910a21719a8ebe0163d36c47161af02a5757e7c1a516b825e9e6fd92c304edbf","id":65640075,"location_subtype":"","month":"2018-06"},{"category":"public-order","location_type":"Force","location":{"latitude":"53.565634","street":{"id":742436,"name":"On or near Weston Street"},"longitude":"-2.422025"},"context":"","outcome_status":{"category":"Investigation complete; no suspect identified","date":"2018-06"},"persistent_id":"26ed46d7b5899f7571766910d8b7832ad9f30298fc4940c8345d8051f73ffff6","id":65640095,"location_subtype":"","month":"2018-06"},{"category":"public-order","location_type":"Force","location":{"latitude":"53.579666","street":{"id":744087,"name":"On or near Bank Street"},"longitude":"-2.426817"},"context":"","outcome_status":{"category":"Under investigation","date":"2018-06"},"persistent_id":"bfe54a9e4a0bb3c3ee0d44a12f8a3cd4cc91c658ac7ed8410c595b9a343a8868","id":65641343,"location_subtype":"","month":"2018-06"},{"category":"public-order","location_type":"Force","location":{"latitude":"53.574930","street":{"id":744189,"name":"On or near Supermarket"},"longitude":"-2.429155"},"context":"","outcome_status":{"category":"Investigation complete; no suspect identified","date":"2018-06"},"persistent_id":"a016e07ae3c1db5b94a135480e628206ccb1c225a545fb9ce8f6a4eac958db21","id":65641488,"location_subtype":"","month":"2018-06"},{"category":"public-order","location_type":"Force","location":{"latitude":"53.574385","street":{"id":744183,"name":"On or near Allsopp Street"},"longitude":"-2.428047"},"context":"","outcome_status":{"category":"Investigation complete; no suspect identified","date":"2018-06"},"persistent_id":"219e05fc4e8aa360159b9d10f465532695392e9dea5d4d719d62f9f995e27968","id":65641320,"location_subtype":"","month":"2018-06"},{"category":"public-order","location_type":"Force","location":{"latitude":"53.567128","street":{"id":742336,"name":"On or near Hilda Street"},"longitude":"-2.421662"},"context":"","outcome_status":{"category":"Unable to prosecute suspect","date":"2018-06"},"persistent_id":"a1bd32126d5caf8ee9960adeacbd68a0580fdce2d15523a72ee444059e962d0e","id":65645229,"location_subtype":"","month":"2018-06"},{"category":"public-order","location_type":"Force","location":{"latitude":"53.574385","street":{"id":744183,"name":"On or near Allsopp Street"},"longitude":"-2.428047"},"context":"","outcome_status":{"category":"Investigation complete; no suspect identified","date":"2018-06"},"persistent_id":"7a35c9a4f2a5812cdbefc82628205111fd891ee2d8eb9a3a0335db4af1894263","id":65645262,"location_subtype":"","month":"2018-06"},{"category":"public-order","location_type":"Force","location":{"latitude":"53.574385","street":{"id":744183,"name":"On or near Allsopp Street"},"longitude":"-2.428047"},"context":"","outcome_status":{"category":"Awaiting court outcome","date":"2018-06"},"persistent_id":"fd7126a38c1774bc54b2342fb8db8bd6b4d91fe4a63ce39585cda823343f6b7e","id":65645181,"location_subtype":"","month":"2018-06"},{"category":"public-order","location_type":"Force","location":{"latitude":"53.565683","street":{"id":742773,"name":"On or near Back Broach Street"},"longitude":"-2.436037"},"context":"","outcome_status":{"category":"Unable to prosecute suspect","date":"2018-06"},"persistent_id":"64b6f5d3e67eb098ba3ac7f48246f48f6fab24a97cf2bce1226197a79517292f","id":65647264,"location_subtype":"","month":"2018-06"},{"category":"public-order","location_type":"Force","location":{"latitude":"53.576147","street":{"id":744105,"name":"On or near Union Buildings"},"longitude":"-2.425573"},"context":"","outcome_status":{"category":"Under investigation","date":"2018-06"},"persistent_id":"8d2e3962d431737b545c8022c025909b5ccc3e865b5fa9cb8241a31868491431","id":65647186,"location_subtype":"","month":"2018-06"},{"category":"public-order","location_type":"Force","location":{"latitude":"53.564880","street":{"id":742461,"name":"On or near Finney Street"},"longitude":"-2.429310"},"context":"","outcome_status":{"category":"Investigation complete; no suspect identified","date":"2018-06"},"persistent_id":"fa114df03cf702001b3d4ae6e954b521ea0d8ce176783858adde7da033894c0f","id":65647174,"location_subtype":"","month":"2018-06"},{"category":"public-order","location_type":"Force","location":{"latitude":"53.576147","street":{"id":744105,"name":"On or near Union Buildings"},"longitude":"-2.425573"},"context":"","outcome_status":{"category":"Investigation complete; no suspect identified","date":"2018-06"},"persistent_id":"edf85c8101d0b3e888cdde4a10eac32136043cdd35ee736e8eb8ded1d7d872e5","id":65647222,"location_subtype":"","month":"2018-06"},{"category":"public-order","location_type":"Force","location":{"latitude":"53.563700","street":{"id":742459,"name":"On or near Great Holme"},"longitude":"-2.425131"},"context":"","outcome_status":{"category":"Under investigation","date":"2018-06"},"persistent_id":"26fa6080c9f2bfa24e4d8945946f77145698a960c6624a92e1307db7c100709e","id":65647299,"location_subtype":"","month":"2018-06"},{"category":"public-order","location_type":"Force","location":{"latitude":"53.572961","street":{"id":744187,"name":"On or near Petrol Station"},"longitude":"-2.426719"},"context":"","outcome_status":{"category":"Investigation complete; no suspect identified","date":"2018-06"},"persistent_id":"d7c71e6e7d6f488edac60c161ef1ac49862e7683fddd2ff13ad80a8cf7b9c664","id":65649007,"location_subtype":"","month":"2018-06"},{"category":"public-order","location_type":"Force","location":{"latitude":"53.577111","street":{"id":744148,"name":"On or near Chancery Lane"},"longitude":"-2.427455"},"context":"","outcome_status":{"category":"Under investigation","date":"2018-06"},"persistent_id":"194c18373d90c04b499d62f3498fcf30beb5c937e93976c3d484e39039493279","id":65649037,"location_subtype":"","month":"2018-06"},{"category":"public-order","location_type":"Force","location":{"latitude":"53.567746","street":{"id":744170,"name":"On or near Back Lever Street"},"longitude":"-2.429641"},"context":"","outcome_status":{"category":"Investigation complete; no suspect identified","date":"2018-06"},"persistent_id":"c0d70c2459e849f7e42e849d6a9c8bdfee60330228bf4205dc0562ca3f2addd3","id":65649077,"location_subtype":"","month":"2018-06"},{"category":"public-order","location_type":"Force","location":{"latitude":"53.579666","street":{"id":744087,"name":"On or near Bank Street"},"longitude":"-2.426817"},"context":"","outcome_status":{"category":"Under investigation","date":"2018-06"},"persistent_id":"2b189893bd9ef64521c38560c474117a0578471fdb2cff4e1ec9d86e667cf5fd","id":65650892,"location_subtype":"","month":"2018-06"},{"category":"public-order","location_type":"Force","location":{"latitude":"53.577605","street":{"id":744094,"name":"On or near Parking Area"},"longitude":"-2.422461"},"context":"","outcome_status":{"category":"Under investigation","date":"2018-06"},"persistent_id":"8387ba98cf9f7cd03724fd5eb2c430ef8116f6b0c0370214ce36d248dfd7665b","id":65653112,"location_subtype":"","month":"2018-06"},{"category":"public-order","location_type":"Force","location":{"latitude":"53.563204","street":{"id":742360,"name":"On or near Belford Drive"},"longitude":"-2.433037"},"context":"","outcome_status":{"category":"Unable to prosecute suspect","date":"2018-06"},"persistent_id":"d12730846fa59715064842082f54d39a89e5d906ca0a15a12024a50677ab56a2","id":65653286,"location_subtype":"","month":"2018-06"},{"category":"public-order","location_type":"Force","location":{"latitude":"53.567442","street":{"id":742346,"name":"On or near Lever Drive"},"longitude":"-2.431691"},"context":"","outcome_status":{"category":"Under investigation","date":"2018-06"},"persistent_id":"591d50cfedcc9dbfffda3b44deace00bf909b8363f5333ff05cff4c347cf4d70","id":65654662,"location_subtype":"","month":"2018-06"},{"category":"public-order","location_type":"Force","location":{"latitude":"53.557388","street":{"id":742421,"name":"On or near Bishop's Close"},"longitude":"-2.418048"},"context":"","outcome_status":{"category":"Under investigation","date":"2018-06"},"persistent_id":"b0ea1fc39ecfd27d20e00d99dcc8116f023bd681cf52f91825e696c30bb2ef02","id":65655681,"location_subtype":"","month":"2018-06"},{"category":"public-order","location_type":"Force","location":{"latitude":"53.566364","street":{"id":742332,"name":"On or near Springfield Street"},"longitude":"-2.416400"},"context":"","outcome_status":{"category":"Investigation complete; no suspect identified","date":"2018-06"},"persistent_id":"948147376317b681911dee8a7ff7d0879e0c45017b9555ef595cd9f03b1078e5","id":65655708,"location_subtype":"","month":"2018-06"},{"category":"public-order","location_type":"Force","location":{"latitude":"53.575532","street":{"id":744134,"name":"On or near Glebe Street"},"longitude":"-2.421595"},"context":"","outcome_status":{"category":"Under investigation","date":"2018-06"},"persistent_id":"f584fe2d1b02d91460237f9f7b067b00a91c35f72d48f78f666188d987a571ce","id":65657638,"location_subtype":"","month":"2018-06"},{"category":"public-order","location_type":"Force","location":{"latitude":"53.574930","street":{"id":744189,"name":"On or near Supermarket"},"longitude":"-2.429155"},"context":"","outcome_status":{"category":"Under investigation","date":"2018-06"},"persistent_id":"c8fe64c9f8cfc7b99974bd26c549827203871feb556c805aee3214b8c4ae13b3","id":65657699,"location_subtype":"","month":"2018-06"},