[{"category":"criminal-damage-arson","location_type":"Force","location":{"latitude":"51.680219","street":{"id":757965,"name":"On or near Victoria Place"},"longitude":"-3.228311"},"context":"","outcome_status":{"category":"Under investigation","date":"2018-06"},"persistent_id":"ef489acb4eb1929892f8cd6344e46523e4d46734a3441d351a70a42de114f9b8","id":65985930,"location_subtype":"","month":"2018-06"},{"category":"robbery","location_type":"Force","location":{"latitude":"51.678516","street":{"id":757974,"name":"On or near Commercial Street"},"longitude":"-3.226919"},"context":"","outcome_status":{"category":"Under investigation","date":"2018-06"},"persistent_id":"a75bd6e9e04f1bfd260436e9562335fca50fda83dd9e6445bc55e4140362ffb8","id":65987736,"location_subtype":"","month":"2018-06"},{"category":"robbery","location_type":"Force","location":{"latitude":"51.678516","street":{"id":757974,"name":"On or near Commercial Street"},"longitude":"-3.226919"},"context":"","outcome_status":{"category":"Under investigation","date":"2018-06"},"persistent_id":"18047f0ea0d3cf563648f22f763d48b6bf5e351ad252e20a46db8097592aff12","id":65987737,"location_subtype":"","month":"2018-06"},{"category":"violent-crime","location_type":"Force","location":{"latitude":"51.675421","street":{"id":757953,"name":"On or near The Close"},"longitude":"-3.226286"},"context":"","outcome_status":{"category":"Unable to prosecute suspect","date":"2018-06"},"persistent_id":"40502a6af6b287cc91ec1da179849c25620b345e35e22485ef1e08ff96ed74d5","id":65984865,"location_subtype":"","month":"2018-06"},{"category":"violent-crime","location_type":"Force","location":{"latitude":"51.680219","street":{"id":757965,"name":"On or near Victoria Place"},"longitude":"-3.228311"},"context":"","outcome_status":{"category":"Under investigation","date":"2018-06"},"persistent_id":"f34983c16f4b323ed91d8faaa39a3afad842b87ce10faaca3af43349e61065fa","id":65985237,"location_subtype":"","month":"2018-06"},{"category":"violent-crime","location_type":"Force","location":{"latitude":"51.681977","street":{"id":757933,"name":"On or near Hillside Park"},"longitude":"-3.231280"},"context":"","outcome_status":{"category":"Under investigation","date":"2018-06"},"persistent_id":"4cd783ad17e9255669c05663d0657d4d256fd56aecffad4bab48bfcf223e71af","id":65985175,"location_subtype":"","month":"2018-06"},{"category":"violent-crime","location_type":"Force","location":{"latitude":"51.681433","street":{"id":757968,"name":"On or near Park Place"},"longitude":"-3.228286"},"context":"","outcome_status":{"category":"Under investigation","date":"2018-06"},"persistent_id":"d887a3d6c2c67a7d2a6ddcff988f482259ee39013b50a7c33a70b3548083a4aa","id":65984472,"location_subtype":"","month":"2018-06"}]