[{"category":"anti-social-behaviour","location_type":"Force","location":{"latitude":"51.540722","street":{"id":965412,"name":"On or near Parking Area"},"longitude":"-0.197653"},"context":"","outcome_status":null,"persistent_id":"","id":52865438,"location_subtype":"","month":"2016-11"},{"category":"anti-social-behaviour","location_type":"Force","location":{"latitude":"51.540722","street":{"id":965412,"name":"On or near Parking Area"},"longitude":"-0.197653"},"context":"","outcome_status":null,"persistent_id":"","id":52865435,"location_subtype":"","month":"2016-11"},{"category":"anti-social-behaviour","location_type":"Force","location":{"latitude":"51.540229","street":{"id":965390,"name":"On or near Glengall Passage"},"longitude":"-0.196548"},"context":"","outcome_status":null,"persistent_id":"","id":52865409,"location_subtype":"","month":"2016-11"},{"category":"anti-social-behaviour","location_type":"Force","location":{"latitude":"51.540229","street":{"id":965390,"name":"On or near Glengall Passage"},"longitude":"-0.196548"},"context":"","outcome_status":null,"persistent_id":"","id":52865408,"location_subtype":"","month":"2016-11"},{"category":"anti-social-behaviour","location_type":"Force","location":{"latitude":"51.543777","street":{"id":965324,"name":"On or near Drakes Courtyard"},"longitude":"-0.201008"},"context":"","outcome_status":null,"persistent_id":"","id":52879341,"location_subtype":"","month":"2016-11"},{"category":"anti-social-behaviour","location_type":"Force","location":{"latitude":"51.540229","street":{"id":965390,"name":"On or near Glengall Passage"},"longitude":"-0.196548"},"context":"","outcome_status":null,"persistent_id":"","id":52865407,"location_subtype":"","month":"2016-11"},{"category":"anti-social-behaviour","location_type":"Force","location":{"latitude":"51.540229","street":{"id":965390,"name":"On or near Glengall Passage"},"longitude":"-0.196548"},"context":"","outcome_status":null,"persistent_id":"","id":52865406,"location_subtype":"","month":"2016-11"},{"category":"anti-social-behaviour","location_type":"Force","location":{"latitude":"51.540229","street":{"id":965390,"name":"On or near Glengall Passage"},"longitude":"-0.196548"},"context":"","outcome_status":null,"persistent_id":"","id":52865403,"location_subtype":"","month":"2016-11"},{"category":"anti-social-behaviour","location_type":"Force","location":{"latitude":"51.540229","street":{"id":965390,"name":"On or near Glengall Passage"},"longitude":"-0.196548"},"context":"","outcome_status":null,"persistent_id":"","id":52865402,"location_subtype":"","month":"2016-11"},{"category":"anti-social-behaviour","location_type":"Force","location":{"latitude":"51.532070","street":{"id":960013,"name":"On or near Carlton Vale"},"longitude":"-0.195198"},"context":"","outcome_status":null,"persistent_id":"","id":52865393,"location_subtype":"","month":"2016-11"},{"category":"anti-social-behaviour","location_type":"Force","location":{"latitude":"51.538215","street":{"id":965405,"name":"On or near Shopping Area"},"longitude":"-0.193109"},"context":"","outcome_status":null,"persistent_id":"","id":52865392,"location_subtype":"","month":"2016-11"},{"category":"anti-social-behaviour","location_type":"Force","location":{"latitude":"51.543777","street":{"id":965324,"name":"On or near Drakes Courtyard"},"longitude":"-0.201008"},"context":"","outcome_status":null,"persistent_id":"","id":52879340,"location_subtype":"","month":"2016-11"},{"category":"anti-social-behaviour","location_type":"Force","location":{"latitude":"51.534228","street":{"id":965437,"name":"On or near Cambridge Gardens"},"longitude":"-0.193440"},"context":"","outcome_status":null,"persistent_id":"","id":52865390,"location_subtype":"","month":"2016-11"},{"category":"anti-social-behaviour","location_type":"Force","location":{"latitude":"51.536667","street":{"id":965394,"name":"On or near Coventry Close"},"longitude":"-0.193026"},"context":"","outcome_status":null,"persistent_id":"","id":52865389,"location_subtype":"","month":"2016-11"},{"category":"anti-social-behaviour","location_type":"Force","location":{"latitude":"51.543777","street":{"id":965324,"name":"On or near Drakes Courtyard"},"longitude":"-0.201008"},"context":"","outcome_status":null,"persistent_id":"","id":52879338,"location_subtype":"","month":"2016-11"},{"category":"anti-social-behaviour","location_type":"Force","location":{"latitude":"51.541809","street":{"id":965295,"name":"On or near Willesden Lane"},"longitude":"-0.206378"},"context":"","outcome_status":null,"persistent_id":"","id":52865483,"location_subtype":"","month":"2016-11"},{"category":"anti-social-behaviour","location_type":"Force","location":{"latitude":"51.539152","street":{"id":965416,"name":"On or near Victoria Mews"},"longitude":"-0.197902"},"context":"","outcome_status":null,"persistent_id":"","id":52865431,"location_subtype":"","month":"2016-11"},{"category":"anti-social-behaviour","location_type":"Force","location":{"latitude":"51.539152","street":{"id":965416,"name":"On or near Victoria Mews"},"longitude":"-0.197902"},"context":"","outcome_status":null,"persistent_id":"","id":52865430,"location_subtype":"","month":"2016-11"},{"category":"anti-social-behaviour","location_type":"Force","location":{"latitude":"51.543777","street":{"id":965324,"name":"On or near Drakes Courtyard"},"longitude":"-0.201008"},"context":"","outcome_status":null,"persistent_id":"","id":52865442,"location_subtype":"","month":"2016-11"},{"category":"anti-social-behaviour","location_type":"Force","location":{"latitude":"51.537871","street":{"id":965423,"name":"On or near Hazelmere Road"},"longitude":"-0.198804"},"context":"","outcome_status":null,"persistent_id":"","id":52865440,"location_subtype":"","month":"2016-11"},{"category":"anti-social-behaviour","location_type":"Force","location":{"latitude":"51.540722","street":{"id":965412,"name":"On or near Parking Area"},"longitude":"-0.197653"},"context":"","outcome_status":null,"persistent_id":"","id":52865436,"location_subtype":"","month":"2016-11"},{"category":"anti-social-behaviour","location_type":"Force","location":{"latitude":"51.539152","street":{"id":965416,"name":"On or near Victoria Mews"},"longitude":"-0.197902"},"context":"","outcome_status":null,"persistent_id":"","id":52865434,"location_subtype":"","month":"2016-11"},{"category":"anti-social-behaviour","location_type":"Force","location":{"latitude":"51.543777","street":{"id":965324,"name":"On or near Drakes Courtyard"},"longitude":"-0.201008"},"context":"","outcome_status":null,"persistent_id":"","id":52879337,"location_subtype":"","month":"2016-11"},{"category":"anti-social-behaviour","location_type":"Force","location":{"latitude":"51.543777","street":{"id":965324,"name":"On or near Drakes Courtyard"},"longitude":"-0.201008"},"context":"","outcome_status":null,"persistent_id":"","id":52879335,"location_subtype":"","month":"2016-11"},{"category":"anti-social-behaviour","location_type":"Force","location":{"latitude":"51.543777","street":{"id":965324,"name":"On or near Drakes Courtyard"},"longitude":"-0.201008"},"context":"","outcome_status":null,"persistent_id":"","id":52879333,"location_subtype":"","month":"2016-11"},{"category":"anti-social-behaviour","location_type":"Force","location":{"latitude":"51.540229","street":{"id":965390,"name":"On or near Glengall Passage"},"longitude":"-0.196548"},"context":"","outcome_status":null,"persistent_id":"","id":52879309,"location_subtype":"","month":"2016-11"},{"category":"anti-social-behaviour","location_type":"Force","location":{"latitude":"51.540229","street":{"id":965390,"name":"On or near Glengall Passage"},"longitude":"-0.196548"},"context":"","outcome_status":null,"persistent_id":"","id":52879307,"location_subtype":"","month":"2016-11"},{"category":"anti-social-behaviour","location_type":"Force","location":{"latitude":"51.540229","street":{"id":965390,"name":"On or near Glengall Passage"},"longitude":"-0.196548"},"context":"","outcome_status":null,"persistent_id":"","id":52879305,"location_subtype":"","month":"2016-11"},{"category":"anti-social-behaviour","location_type":"Force","location":{"latitude":"51.540229","street":{"id":965390,"name":"On or near Glengall Passage"},"longitude":"-0.196548"},"context":"","outcome_status":null,"persistent_id":"","id":52879304,"location_subtype":"","month":"2016-11"},{"category":"anti-social-behaviour","location_type":"Force","location":{"latitude":"51.540229","street":{"id":965390,"name":"On or near Glengall Passage"},"longitude":"-0.196548"},"context":"","outcome_status":null,"persistent_id":"","id":52879301,"location_subtype":"","month":"2016-11"},{"category":"anti-social-behaviour","location_type":"Force","location":{"latitude":"51.532981","street":{"id":965435,"name":"On or near Granville Road"},"longitude":"-0.195955"},"context":"","outcome_status":null,"persistent_id":"","id":52865397,"location_subtype":"","month":"2016-11"},{"category":"anti-social-behaviour","location_type":"Force","location":{"latitude":"51.535220","street":{"id":965446,"name":"On or near Alpha Place"},"longitude":"-0.194222"},"context":"","outcome_status":null,"persistent_id":"","id":52865396,"location_subtype":"","month":"2016-11"},{"category":"anti-social-behaviour","location_type":"Force","location":{"latitude":"51.535220","street":{"id":965446,"name":"On or near Alpha Place"},"longitude":"-0.194222"},"context":"","outcome_status":null,"persistent_id":"","id":52865395,"location_subtype":"","month":"2016-11"},{"category":"anti-social-behaviour","location_type":"Force","location":{"latitude":"51.540229","street":{"id":965390,"name":"On or near Glengall Passage"},"longitude":"-0.196548"},"context":"","outcome_status":null,"persistent_id":"","id":52865398,"location_subtype":"","month":"2016-11"},{"category":"anti-social-behaviour","location_type":"Force","location":{"latitude":"51.541954","street":{"id":965297,"name":"On or near Torbay Road"},"longitude":"-0.204094"},"context":"","outcome_status":null,"persistent_id":"","id":52865470,"location_subtype":"","month":"2016-11"},{"category":"anti-social-behaviour","location_type":"Force","location":{"latitude":"51.530817","street":{"id":959960,"name":"On or near Malvern Road"},"longitude":"-0.197958"},"context":"","outcome_status":null,"persistent_id":"","id":52882274,"location_subtype":"","month":"2016-11"},{"category":"anti-social-behaviour","location_type":"Force","location":{"latitude":"51.540888","street":{"id":965294,"name":"On or near Willesden Lane"},"longitude":"-0.202016"},"context":"","outcome_status":null,"persistent_id":"","id":52865457,"location_subtype":"","month":"2016-11"},{"category":"anti-social-behaviour","location_type":"Force","location":{"latitude":"51.540888","street":{"id":965294,"name":"On or near Willesden Lane"},"longitude":"-0.202016"},"context":"","outcome_status":null,"persistent_id":"","id":52865456,"location_subtype":"","month":"2016-11"},{"category":"anti-social-behaviour","location_type":"Force","location":{"latitude":"51.540888","street":{"id":965294,"name":"On or near Willesden Lane"},"longitude":"-0.202016"},"context":"","outcome_status":null,"persistent_id":"","id":52865455,"location_subtype":"","month":"2016-11"},{"category":"anti-social-behaviour","location_type":"Force","location":{"latitude":"51.539237","street":{"id":965298,"name":"On or near Tennyson Road"},"longitude":"-0.202860"},"context":"","outcome_status":null,"persistent_id":"","id":52865452,"location_subtype":"","month":"2016-11"},{"category":"anti-social-behaviour","location_type":"Force","location":{"latitude":"51.540888","street":{"id":965294,"name":"On or near Willesden Lane"},"longitude":"-0.202016"},"context":"","outcome_status":null,"persistent_id":"","id":52865451,"location_subtype":"","month":"2016-11"},{"category":"anti-social-behaviour","location_type":"Force","location":{"latitude":"51.543067","street":{"id":965302,"name":"On or near Plympton Road"},"longitude":"-0.203372"},"context":"","outcome_status":null,"persistent_id":"","id":52865458,"location_subtype":"","month":"2016-11"},{"category":"anti-social-behaviour","location_type":"Force","location":{"latitude":"51.543777","street":{"id":965324,"name":"On or near Drakes Courtyard"},"longitude":"-0.201008"},"context":"","outcome_status":null,"persistent_id":"","id":52879343,"location_subtype":"","month":"2016-11"},{"category":"anti-social-behaviour","location_type":"Force","location":{"latitude":"51.542175","street":{"id":965299,"name":"On or near Streatley Road"},"longitude":"-0.201460"},"context":"","outcome_status":null,"persistent_id":"","id":52865449,"location_subtype":"","month":"2016-11"},{"category":"anti-social-behaviour","location_type":"Force","location":{"latitude":"51.534278","street":{"id":965430,"name":"On or near Canterbury Road"},"longitude":"-0.197287"},"context":"","outcome_status":null,"persistent_id":"","id":52865429,"location_subtype":"","month":"2016-11"},{"category":"anti-social-behaviour","location_type":"Force","location":{"latitude":"51.530817","street":{"id":959960,"name":"On or near Malvern Road"},"longitude":"-0.197958"},"context":"","outcome_status":null,"persistent_id":"","id":52865427,"location_subtype":"","month":"2016-11"},{"category":"anti-social-behaviour","location_type":"Force","location":{"latitude":"51.530817","street":{"id":959960,"name":"On or near Malvern Road"},"longitude":"-0.197958"},"context":"","outcome_status":null,"persistent_id":"","id":52865424,"location_subtype":"","month":"2016-11"},{"category":"anti-social-behaviour","location_type":"Force","location":{"latitude":"51.529167","street":{"id":959980,"name":"On or near Stafford Close"},"longitude":"-0.197071"},"context":"","outcome_status":null,"persistent_id":"","id":52865422,"location_subtype":"","month":"2016-11"},{"category":"anti-social-behaviour","location_type":"Force","location":{"latitude":"51.539219","street":{"id":965344,"name":"On or near Parking Area"},"longitude":"-0.195809"},"context":"","outcome_status":null,"persistent_id":"","id":52865420,"location_subtype":"","month":"2016-11"},{"category":"anti-social-behaviour","location_type":"Force","location":{"latitude":"51.537307","street":{"id":965425,"name":"On or near Brondesbury Road"},"longitude":"-0.197182"},"context":"","outcome_status":null,"persistent_id":"","id":52865419,"location_subtype":"","month":"2016-11"},{"category":"anti-social-behaviour","location_type":"Force","location":{"latitude":"51.540229","street":{"id":965390,"name":"On or near Glengall Passage"},"longitude":"-0.196548"},"context":"","outcome_status":null,"persistent_id":"","id":52865418,"location_subtype":"","month":"2016-11"},{"category":"anti-social-behaviour","location_type":"Force","location":{"latitude":"51.540229","street":{"id":965390,"name":"On or near Glengall Passage"},"longitude":"-0.196548"},"context":"","outcome_status":null,"persistent_id":"","id":52865417,"location_subtype":"","month":"2016-11"},{"category":"anti-social-behaviour","location_type":"Force","location":{"latitude":"51.540229","street":{"id":965390,"name":"On or near Glengall Passage"},"longitude":"-0.196548"},"context":"","outcome_status":null,"persistent_id":"","id":52865415,"location_subtype":"","month":"2016-11"},{"category":"anti-social-behaviour","location_type":"Force","location":{"latitude":"51.540229","street":{"id":965390,"name":"On or near Glengall Passage"},"longitude":"-0.196548"},"context":"","outcome_status":null,"persistent_id":"","id":52865414,"location_subtype":"","month":"2016-11"},{"category":"anti-social-behaviour","location_type":"Force","location":{"latitude":"51.540229","street":{"id":965390,"name":"On or near Glengall Passage"},"longitude":"-0.196548"},"context":"","outcome_status":null,"persistent_id":"","id":52865413,"location_subtype":"","month":"2016-11"},{"category":"anti-social-behaviour","location_type":"Force","location":{"latitude":"51.540229","street":{"id":965390,"name":"On or near Glengall Passage"},"longitude":"-0.196548"},"context":"","outcome_status":null,"persistent_id":"","id":52865412,"location_subtype":"","month":"2016-11"},{"category":"anti-social-behaviour","location_type":"Force","location":{"latitude":"51.540229","street":{"id":965390,"name":"On or near Glengall Passage"},"longitude":"-0.196548"},"context":"","outcome_status":null,"persistent_id":"","id":52865411,"location_subtype":"","month":"2016-11"},{"category":"bicycle-theft","location_type":"Force","location":{"latitude":"51.538340","street":{"id":965415,"name":"On or near Victoria Road"},"longitude":"-0.198281"},"context":"","outcome_status":{"category":"Status update unavailable","date":"2017-03"},"persistent_id":"92b489b10ea3dcef3cab285ff8bf4a00d660a645db3ff7e7a0face0732dfdd67","id":52957026,"location_subtype":"","month":"2016-11"},{"category":"bicycle-theft","location_type":"Force","location":{"latitude":"51.528245","street":{"id":960010,"name":"On or near Chippenham Gardens"},"longitude":"-0.196747"},"context":"","outcome_status":{"category":"Investigation complete; no suspect identified","date":"2016-12"},"persistent_id":"f8a1997409b0a1724a6a71edb5b2c2a3fda0be2058a8b1cb9936f1abe743afa0","id":52962523,"location_subtype":"","month":"2016-11"},{"category":"burglary","location_type":"Force","location":{"latitude":"51.532070","street":{"id":960013,"name":"On or near Carlton Vale"},"longitude":"-0.195198"},"context":"","outcome_status":{"category":"Status update unavailable","date":"2017-03"},"persistent_id":"da8347b2940e38bddb07de436a0f603554536b925c773c7fdfbdeb4f59322119","id":52949187,"location_subtype":"","month":"2016-11"},{"category":"burglary","location_type":"Force","location":{"latitude":"51.539219","street":{"id":965344,"name":"On or near Parking Area"},"longitude":"-0.195809"},"context":"","outcome_status":{"category":"Status update unavailable","date":"2017-03"},"persistent_id":"b60ae855354144a0c81c9311f63a1eea35a8710504d670659f8b5c4ea01b57a4","id":52950225,"location_subtype":"","month":"2016-11"},{"category":"burglary","location_type":"Force","location":{"latitude":"51.540888","street":{"id":965294,"name":"On or near Willesden Lane"},"longitude":"-0.202016"},"context":"","outcome_status":{"category":"Status update unavailable","date":"2017-03"},"persistent_id":"032696f976dacd4c80c32f852183ca71ea510680e5dc03541654350aad1d67a0","id":52913132,"location_subtype":"","month":"2016-11"},{"category":"burglary","location_type":"Force","location":{"latitude":"51.531528","street":{"id":959990,"name":"On or near Nelson Close"},"longitude":"-0.195608"},"context":"","outcome_status":{"category":"Status update unavailable","date":"2017-03"},"persistent_id":"ab449ab80a63606c210260be8efeb8c469437c7693a1c0913be8edc0612bb695","id":52911741,"location_subtype":"","month":"2016-11"},{"category":"burglary","location_type":"Force","location":{"latitude":"51.532701","street":{"id":960095,"name":"On or near Carlton Vale"},"longitude":"-0.202338"},"context":"","outcome_status":{"category":"Investigation complete; no suspect identified","date":"2016-12"},"persistent_id":"81ee24cd67b8e9c2129c1761bb2e52aa019c48fe2a7d795d61bb88484ef9b66b","id":52900734,"location_subtype":"","month":"2016-11"},{"category":"burglary","location_type":"Force","location":{"latitude":"51.539013","street":{"id":965407,"name":"On or near Supermarket"},"longitude":"-0.194072"},"context":"","outcome_status":{"category":"Status update unavailable","date":"2017-03"},"persistent_id":"8d806f7f0ad05f108197a8079fe717681e92f57d888bd7ff5b25ec9c01576d38","id":52915597,"location_subtype":"","month":"2016-11"},{"category":"burglary","location_type":"Force","location":{"latitude":"51.536667","street":{"id":965394,"name":"On or near Coventry Close"},"longitude":"-0.193026"},"context":"","outcome_status":{"category":"Investigation complete; no suspect identified","date":"2016-11"},"persistent_id":"d8b09d2fe8f429394a9efb8602f5472f7df811f8254870fa39a48e5f628256cd","id":52910444,"location_subtype":"","month":"2016-11"},{"category":"burglary","location_type":"Force","location":{"latitude":"51.539152","street":{"id":965416,"name":"On or near Victoria Mews"},"longitude":"-0.197902"},"context":"","outcome_status":{"category":"Status update unavailable","date":"2017-03"},"persistent_id":"e18f86559003ac5fd1a849e2d96539db92edbaa62557594cf12f7da60abddc39","id":52925356,"location_subtype":"","month":"2016-11"},{"category":"criminal-damage-arson","location_type":"Force","location":{"latitude":"51.539237","street":{"id":965298,"name":"On or near Tennyson Road"},"longitude":"-0.202860"},"context":"","outcome_status":{"category":"Status update unavailable","date":"2017-03"},"persistent_id":"1bb2f31a520a2b2bcb4c98be06eecd45a041d441a676f1c53f239c6a3b9c5e7d","id":52951078,"location_subtype":"","month":"2016-11"},{"category":"criminal-damage-arson","location_type":"Force","location":{"latitude":"51.540229","street":{"id":965390,"name":"On or near Glengall Passage"},"longitude":"-0.196548"},"context":"","outcome_status":{"category":"Investigation complete; no suspect identified","date":"2016-12"},"persistent_id":"7ad7fdaf13eab7359625a51798014d87bbe2c2164181558f5922cee8bad2de3f","id":52944365,"location_subtype":"","month":"2016-11"},{"category":"criminal-damage-arson","location_type":"Force","location":{"latitude":"51.531260","street":{"id":959979,"name":"On or near Stafford Road"},"longitude":"-0.196340"},"context":"","outcome_status":{"category":"Status update unavailable","date":"2017-03"},"persistent_id":"0ec1274f694d20c40c53c7dd57483d6e4e3098caaa9d3412732ffe614f57168b","id":52910964,"location_subtype":"","month":"2016-11"},{"category":"drugs","location_type":"Force","location":{"latitude":"51.531742","street":{"id":959987,"name":"On or near Pentland Road"},"longitude":"-0.196133"},"context":"","outcome_status":{"category":"Court result unavailable","date":"2017-05"},"persistent_id":"ea20cad26d1753f415a0ebfc405230a614c4f2062c35b7b9481ed082f94183b0","id":52957150,"location_subtype":"","month":"2016-11"},{"category":"drugs","location_type":"Force","location":{"latitude":"51.533616","street":{"id":965449,"name":"On or near Rupert Road"},"longitude":"-0.201610"},"context":"","outcome_status":{"category":"Offender given a drugs possession warning","date":"2016-11"},"persistent_id":"1a3172fa15d170a4f08ab78aceead0ee8301d6da8e4040c04a71ff6f5668ef20","id":52938702,"location_subtype":"","month":"2016-11"},{"category":"drugs","location_type":"Force","location":{"latitude":"51.539115","street":{"id":965345,"name":"On or near Parking Area"},"longitude":"-0.195481"},"context":"","outcome_status":{"category":"Offender fined","date":"2016-12"},"persistent_id":"03799bdcbe2acaaf8f660bd209033625fe4b30c4029ba2d552ad8cc857034347","id":52905971,"location_subtype":"","month":"2016-11"},{"category":"drugs","location_type":"Force","location":{"latitude":"51.535220","street":{"id":965446,"name":"On or near Alpha Place"},"longitude":"-0.194222"},"context":"","outcome_status":{"category":"Court result unavailable","date":"2017-08"},"persistent_id":"745b65397b0a65c4f137febd3a3876b7e3a4b104c7c196c63b6b13804c6b4ace","id":52914845,"location_subtype":"","month":"2016-11"},{"category":"drugs","location_type":"Force","location":{"latitude":"51.541921","street":{"id":965332,"name":"On or near Callcott Road"},"longitude":"-0.202552"},"context":"","outcome_status":{"category":"Offender given a drugs possession warning","date":"2016-11"},"persistent_id":"10d8ef0425ca4c7978f81fe6f35f27ba4caf8f54a9f7ec08d1cbfb886023d734","id":52943657,"location_subtype":"","month":"2016-11"},{"category":"drugs","location_type":"Force","location":{"latitude":"51.541809","street":{"id":965295,"name":"On or near Willesden Lane"},"longitude":"-0.206378"},"context":"","outcome_status":{"category":"Offender otherwise dealt with","date":"2017-01"},"persistent_id":"163d87f6cdbf4a163055a13356e7e69ed444f14a176799891bba40c1ba1b058a","id":52955851,"location_subtype":"","month":"2016-11"},{"category":"other-theft","location_type":"Force","location":{"latitude":"51.534278","street":{"id":965430,"name":"On or near Canterbury Road"},"longitude":"-0.197287"},"context":"","outcome_status":{"category":"Status update unavailable","date":"2017-03"},"persistent_id":"805bb3ff84981edcf1ea3d87eb9826a86a7b16499a8aca4d9549ff96eb4d69e0","id":52906842,"location_subtype":"","month":"2016-11"},{"category":"other-theft","location_type":"Force","location":{"latitude":"51.543278","street":{"id":965338,"name":"On or near Theatre\/concert Hall"},"longitude":"-0.200133"},"context":"","outcome_status":{"category":"Status update unavailable","date":"2017-03"},"persistent_id":"296595e1f4c3fa39301db0b4770e1a8df48f0357369d4093773e6d2c5bcdc4c0","id":52896267,"location_subtype":"","month":"2016-11"},{"category":"other-theft","location_type":"Force","location":{"latitude":"51.532837","street":{"id":960055,"name":"On or near Neville Close"},"longitude":"-0.199478"},"context":"","outcome_status":{"category":"Status update unavailable","date":"2017-03"},"persistent_id":"07598b7a2a06284ff34df58300741dcdb8bb2ecf105a35bf813932bafd5895e9","id":52899703,"location_subtype":"","month":"2016-11"},{"category":"other-theft","location_type":"Force","location":{"latitude":"51.532428","street":{"id":959966,"name":"On or near Carlton Vale"},"longitude":"-0.198600"},"context":"","outcome_status":{"category":"Status update unavailable","date":"2017-03"},"persistent_id":"ab7f15a279102cfc999f87d630eac3dca2fe38a9317452a957eb4315c0a6077f","id":52909242,"location_subtype":"","month":"2016-11"},{"category":"other-theft","location_type":"Force","location":{"latitude":"51.534228","street":{"id":965437,"name":"On or near Cambridge Gardens"},"longitude":"-0.193440"},"context":"","outcome_status":{"category":"Investigation complete; no suspect identified","date":"2017-01"},"persistent_id":"30e813e6c32709def65d7ba4484ed4c0e0a52d7803f37f27bea09285020f3eeb","id":52911858,"location_subtype":"","month":"2016-11"},{"category":"other-theft","location_type":"Force","location":{"latitude":"51.541643","street":{"id":965414,"name":"On or near Willesden Lane"},"longitude":"-0.198453"},"context":"","outcome_status":{"category":"Status update unavailable","date":"2017-03"},"persistent_id":"a5fcda7a05b4642c3e39ee2f3d9b39abfdf0aa4f055a75d5ee4a61ac030eb0a7","id":52916065,"location_subtype":"","month":"2016-11"},{"category":"other-theft","location_type":"Force","location":{"latitude":"51.543777","street":{"id":965324,"name":"On or near Drakes Courtyard"},"longitude":"-0.201008"},"context":"","outcome_status":{"category":"Investigation complete; no suspect identified","date":"2016-11"},"persistent_id":"befddbe2f44211b9b17414f7926a70689623c53dac100e1e02455622990b8923","id":52930747,"location_subtype":"","month":"2016-11"},{"category":"other-theft","location_type":"Force","location":{"latitude":"51.536992","street":{"id":965373,"name":"On or near Mallard Close"},"longitude":"-0.194267"},"context":"","outcome_status":{"category":"Status update unavailable","date":"2017-03"},"persistent_id":"96594a7c5c16c34d790fe7ecf0457d712fb26774420a913123d367914bbd8564","id":52936463,"location_subtype":"","month":"2016-11"},{"category":"other-theft","location_type":"Force","location":{"latitude":"51.538353","street":{"id":965382,"name":"On or near Kilburn Place"},"longitude":"-0.192728"},"context":"","outcome_status":{"category":"Status update unavailable","date":"2017-03"},"persistent_id":"28de8da40f10ebd2d1c5a2eea5087c7ce3489859fd1e5c73a690fe79c85170e9","id":52939590,"location_subtype":"","month":"2016-11"},{"category":"other-theft","location_type":"Force","location":{"latitude":"51.539219","street":{"id":965344,"name":"On or near Parking Area"},"longitude":"-0.195809"},"context":"","outcome_status":{"category":"Investigation complete; no suspect identified","date":"2016-12"},"persistent_id":"aeb168929125ea36ebdd1c3bc4599cdbd4e853e4dcd86464582ec701f8d0f0e7","id":52953981,"location_subtype":"","month":"2016-11"},{"category":"other-theft","location_type":"Force","location":{"latitude":"51.543278","street":{"id":965338,"name":"On or near Theatre\/concert Hall"},"longitude":"-0.200133"},"context":"","outcome_status":{"category":"Investigation complete; no suspect identified","date":"2016-11"},"persistent_id":"fe75a6b7ad5580e2dd6db998c4cb675b7376e3ec04fe7ce4d722638f6e1a7761","id":52921814,"location_subtype":"","month":"2016-11"},{"category":"possession-of-weapons","location_type":"Force","location":{"latitude":"51.534278","street":{"id":965430,"name":"On or near Canterbury Road"},"longitude":"-0.197287"},"context":"","outcome_status":{"category":"Offender fined","date":"2016-12"},"persistent_id":"6320de57cb5bbc5592f470fa203a6d3a5546894af55d260d72e348bb06bb1902","id":52901277,"location_subtype":"","month":"2016-11"},{"category":"public-order","location_type":"Force","location":{"latitude":"51.539152","street":{"id":965416,"name":"On or near Victoria Mews"},"longitude":"-0.197902"},"context":"","outcome_status":{"category":"Investigation complete; no suspect identified","date":"2016-12"},"persistent_id":"420fc788f433d0b7a95020b47fb6408d404a51944c6992134e818644e48770ed","id":52932219,"location_subtype":"","month":"2016-11"},{"category":"public-order","location_type":"Force","location":{"latitude":"51.529167","street":{"id":959980,"name":"On or near Stafford Close"},"longitude":"-0.197071"},"context":"","outcome_status":{"category":"Offender fined","date":"2016-11"},"persistent_id":"fae6d4905263a2ccf48146d0147c4022d4e9a0fcd70da5150103a290fa8b10c7","id":52893685,"location_subtype":"","month":"2016-11"},{"category":"public-order","location_type":"Force","location":{"latitude":"51.538215","street":{"id":965405,"name":"On or near Shopping Area"},"longitude":"-0.193109"},"context":"","outcome_status":{"category":"Investigation complete; no suspect identified","date":"2016-11"},"persistent_id":"509219477435b74fe5392a455b7c9f0c28518d85851cf72aa758fde29e7d14e3","id":52952839,"location_subtype":"","month":"2016-11"},{"category":"public-order","location_type":"Force","location":{"latitude":"51.535220","street":{"id":965446,"name":"On or near Alpha Place"},"longitude":"-0.194222"},"context":"","outcome_status":{"category":"Investigation complete; no suspect identified","date":"2017-02"},"persistent_id":"5ecc15be3b749d41c0ae3e5dbb1737792eaadddc10941ab38c7d46f30e3523d8","id":52929549,"location_subtype":"","month":"2016-11"},{"category":"public-order","location_type":"Force","location":{"latitude":"51.537307","street":{"id":965425,"name":"On or near Brondesbury Road"},"longitude":"-0.197182"},"context":"","outcome_status":{"category":"Investigation complete; no suspect identified","date":"2016-11"},"persistent_id":"018747af139cd91df49bc3dbf485de68b001ad6942dc585bc874121b87f4b8f4","id":52916424,"location_subtype":"","month":"2016-11"},{"category":"public-order","location_type":"Force","location":{"latitude":"51.543777","street":{"id":965324,"name":"On or near Drakes Courtyard"},"longitude":"-0.201008"},"context":"","outcome_status":{"category":"Investigation complete; no suspect identified","date":"2017-04"},"persistent_id":"1f5ef1d87297fb492ec2d804522dc5fc29aac62d382d6b3482dffe38d0a25c85","id":52944971,"location_subtype":"","month":"2016-11"},{"category":"robbery","location_type":"Force","location":{"latitude":"51.541809","street":{"id":965295,"name":"On or near Willesden Lane"},"longitude":"-0.206378"},"context":"","outcome_status":{"category":"Investigation complete; no suspect identified","date":"2017-02"},"persistent_id":"76cf5200bbe3ab50e9ab1c45755aa355f1de0015b13201b53e451b4a825a850c","id":52962311,"location_subtype":"","month":"2016-11"},{"category":"robbery","location_type":"Force","location":{"latitude":"51.537709","street":{"id":965310,"name":"On or near Lonsdale Road"},"longitude":"-0.202271"},"context":"","outcome_status":{"category":"Investigation complete; no suspect identified","date":"2017-01"},"persistent_id":"3e12346a009c99d5839856c2874a5357ef47803f45df49a3dbe7762bdae8e9c5","id":52932926,"location_subtype":"","month":"2016-11"},{"category":"robbery","location_type":"Force","location":{"latitude":"51.537709","street":{"id":965310,"name":"On or near Lonsdale Road"},"longitude":"-0.202271"},"context":"","outcome_status":{"category":"Investigation complete; no suspect identified","date":"2017-01"},"persistent_id":"246199e5106695f1cc222ca17b51357f0555c7ee7265c665e408ece52e666a76","id":52930820,"location_subtype":"","month":"2016-11"},{"category":"robbery","location_type":"Force","location":{"latitude":"51.537871","street":{"id":965423,"name":"On or near Hazelmere Road"},"longitude":"-0.198804"},"context":"","outcome_status":{"category":"Investigation complete; no suspect identified","date":"2017-05"},"persistent_id":"6c39eb024f6cf08515e69c31485a5f37cfcf2742dfec15686cb397681ae70793","id":52908064,"location_subtype":"","month":"2016-11"},{"category":"robbery","location_type":"Force","location":{"latitude":"51.533534","street":{"id":965431,"name":"On or near Rudolph Road"},"longitude":"-0.192746"},"context":"","outcome_status":{"category":"Investigation complete; no suspect identified","date":"2017-01"},"persistent_id":"450578b7f81553c33549b400b6528049b039faf8f2ae1a962f5e4bab603732be","id":52929825,"location_subtype":"","month":"2016-11"},{"category":"robbery","location_type":"Force","location":{"latitude":"51.538257","street":{"id":965328,"name":"On or near Charteris Road"},"longitude":"-0.199884"},"context":"","outcome_status":{"category":"Investigation complete; no suspect identified","date":"2016-11"},"persistent_id":"58e1c8286fcf3c72cb21009146e658aad8f0da6ad146825afdd644161140807c","id":52911891,"location_subtype":"","month":"2016-11"},{"category":"shoplifting","location_type":"Force","location":{"latitude":"51.539746","street":{"id":965408,"name":"On or near Further\/higher Educational Building"},"longitude":"-0.194980"},"context":"","outcome_status":{"category":"Investigation complete; no suspect identified","date":"2016-11"},"persistent_id":"0eea7347de35a4305db1d2420662ce6d0333624487294925571524e58a087a98","id":52914928,"location_subtype":"","month":"2016-11"},{"category":"shoplifting","location_type":"Force","location":{"latitude":"51.538215","street":{"id":965405,"name":"On or near Shopping Area"},"longitude":"-0.193109"},"context":"","outcome_status":{"category":"Investigation complete; no suspect identified","date":"2016-11"},"persistent_id":"8909eeca59a33ba785dae9eccf26037efae0320d082ea4f735dd8cf4de47c86e","id":52941534,"location_subtype":"","month":"2016-11"},{"category":"shoplifting","location_type":"Force","location":{"latitude":"51.538215","street":{"id":965405,"name":"On or near Shopping Area"},"longitude":"-0.193109"},"context":"","outcome_status":{"category":"Investigation complete; no suspect identified","date":"2017-01"},"persistent_id":"d12e46af8275bad9cfeb1f41989bde18e7d66adb6fea18b4ef85a15002bddf93","id":52912172,"location_subtype":"","month":"2016-11"},{"category":"shoplifting","location_type":"Force","location":{"latitude":"51.538215","street":{"id":965405,"name":"On or near Shopping Area"},"longitude":"-0.193109"},"context":"","outcome_status":{"category":"Investigation complete; no suspect identified","date":"2016-12"},"persistent_id":"52683689c80473dd17a89ef07b5460e75336d102363a15cfa867821d877e57c4","id":52958217,"location_subtype":"","month":"2016-11"},{"category":"shoplifting","location_type":"Force","location":{"latitude":"51.539746","street":{"id":965408,"name":"On or near Further\/higher Educational Building"},"longitude":"-0.194980"},"context":"","outcome_status":{"category":"Investigation complete; no suspect identified","date":"2017-01"},"persistent_id":"c9dd5023642947f4becd885c03789981697dce4d31967a37865d60610bf700ca","id":52910109,"location_subtype":"","month":"2016-11"},{"category":"shoplifting","location_type":"Force","location":{"latitude":"51.539377","street":{"id":965402,"name":"On or near Birchington Road"},"longitude":"-0.193769"},"context":"","outcome_status":{"category":"Investigation complete; no suspect identified","date":"2016-12"},"persistent_id":"19f114ec716863574dc651d048e958facf53cbbfdf21a96b90a120ed3e573db2","id":52936989,"location_subtype":"","month":"2016-11"},{"category":"shoplifting","location_type":"Force","location":{"latitude":"51.539013","street":{"id":965407,"name":"On or near Supermarket"},"longitude":"-0.194072"},"context":"","outcome_status":{"category":"Investigation complete; no suspect identified","date":"2016-12"},"persistent_id":"f01d7175e03c76965e9e85db4f950ba11c2d851a8e2cf86ddfa7f1760a9e12ae","id":52904730,"location_subtype":"","month":"2016-11"},{"category":"theft-from-the-person","location_type":"Force","location":{"latitude":"51.538762","street":{"id":965406,"name":"On or near Supermarket"},"longitude":"-0.193577"},"context":"","outcome_status":{"category":"Investigation complete; no suspect identified","date":"2016-12"},"persistent_id":"fa991494c1f9de54fc06fe73fa30272eadc1a5841017f29a1c6466099d31a4bd","id":52894823,"location_subtype":"","month":"2016-11"},{"category":"theft-from-the-person","location_type":"Force","location":{"latitude":"51.538215","street":{"id":965405,"name":"On or near Shopping Area"},"longitude":"-0.193109"},"context":"","outcome_status":{"category":"Investigation complete; no suspect identified","date":"2016-11"},"persistent_id":"28bb0880e167deef34ac9f28c8b8e6afe4102778357f16a6177d379f6a18bbe1","id":52930677,"location_subtype":"","month":"2016-11"},{"category":"theft-from-the-person","location_type":"Force","location":{"latitude":"51.540318","street":{"id":965316,"name":"On or near Kenilworth Road"},"longitude":"-0.200625"},"context":"","outcome_status":{"category":"Investigation complete; no suspect identified","date":"2017-01"},"persistent_id":"4f110705af5a6be30e35d32701c8ccae3dc81feeb94978c1bdaa271f18495e0a","id":52947435,"location_subtype":"","month":"2016-11"},{"category":"theft-from-the-person","location_type":"Force","location":{"latitude":"51.540815","street":{"id":965383,"name":"On or near Kilburn High Road"},"longitude":"-0.196683"},"context":"","outcome_status":{"category":"Status update unavailable","date":"2017-03"},"persistent_id":"225438b0a8ca6de1dd7ef39475030fce36b38646e999ce75b9d5ceeae3ce7dde","id":52914034,"location_subtype":"","month":"2016-11"},{"category":"theft-from-the-person","location_type":"Force","location":{"latitude":"51.538215","street":{"id":965405,"name":"On or near Shopping Area"},"longitude":"-0.193109"},"context":"","outcome_status":{"category":"Investigation complete; no suspect identified","date":"2016-12"},"persistent_id":"29fe0a7f46b5ae53870e61434ef58305abf2ba8e5c4ebe616ab0290e16dbffcf","id":52961385,"location_subtype":"","month":"2016-11"},{"category":"theft-from-the-person","location_type":"Force","location":{"latitude":"51.540815","street":{"id":965383,"name":"On or near Kilburn High Road"},"longitude":"-0.196683"},"context":"","outcome_status":{"category":"Investigation complete; no suspect identified","date":"2016-12"},"persistent_id":"883cc68b35ed91231f4e6302500096cd8d8d6ce5a55e0047e5356120a4502a68","id":52903130,"location_subtype":"","month":"2016-11"},{"category":"theft-from-the-person","location_type":"Force","location":{"latitude":"51.538215","street":{"id":965405,"name":"On or near Shopping Area"},"longitude":"-0.193109"},"context":"","outcome_status":{"category":"Investigation complete; no suspect identified","date":"2016-12"},"persistent_id":"4bf88380877ff76d5d408328bce0fbf1321379074147d55ce8008c9925271b00","id":52929984,"location_subtype":"","month":"2016-11"},{"category":"vehicle-crime","location_type":"Force","location":{"latitude":"51.539237","street":{"id":965298,"name":"On or near Tennyson Road"},"longitude":"-0.202860"},"context":"","outcome_status":{"category":"Status update unavailable","date":"2017-03"},"persistent_id":"76168ed2135bd1b9b479de82d21df038fbecb5cc08177be0771de0e68cdb5ace","id":52888495,"location_subtype":"","month":"2016-11"},{"category":"vehicle-crime","location_type":"Force","location":{"latitude":"51.536992","street":{"id":965373,"name":"On or near Mallard Close"},"longitude":"-0.194267"},"context":"","outcome_status":{"category":"Status update unavailable","date":"2017-03"},"persistent_id":"fc02c18636a1a696b8a50624be252489d40d0e23963c83f88821604ab962e281","id":52922385,"location_subtype":"","month":"2016-11"},{"category":"vehicle-crime","location_type":"Force","location":{"latitude":"51.532048","street":{"id":960059,"name":"On or near Malvern Place"},"longitude":"-0.200778"},"context":"","outcome_status":{"category":"Status update unavailable","date":"2017-03"},"persistent_id":"fb67b70ef6b904bc3f199cab2bd228f1d00b1d78e71fc9a3db930f2c96f1bd6d","id":52963140,"location_subtype":"","month":"2016-11"},{"category":"vehicle-crime","location_type":"Force","location":{"latitude":"51.532428","street":{"id":959966,"name":"On or near Carlton Vale"},"longitude":"-0.198600"},"context":"","outcome_status":{"category":"Status update unavailable","date":"2017-03"},"persistent_id":"d37813a5a0127e1c5ddd9ba5aae69c6304b952d3a72d61ec59418a860721bd54","id":52950971,"location_subtype":"","month":"2016-11"},{"category":"vehicle-crime","location_type":"Force","location":{"latitude":"51.542175","street":{"id":965299,"name":"On or near Streatley Road"},"longitude":"-0.201460"},"context":"","outcome_status":{"category":"Investigation complete; no suspect identified","date":"2016-11"},"persistent_id":"93e9ed87138325bff3bcf72fb9e33e7a44c59d5d697c0e5bc9eccfda89f493b8","id":52948407,"location_subtype":"","month":"2016-11"},{"category":"vehicle-crime","location_type":"Force","location":{"latitude":"51.539237","street":{"id":965298,"name":"On or near Tennyson Road"},"longitude":"-0.202860"},"context":"","outcome_status":{"category":"Status update unavailable","date":"2017-03"},"persistent_id":"9cdab21c5f840516ad83c4bc08a064a1c01b7caeec02569fe0ea92d6d178f2fe","id":52947729,"location_subtype":"","month":"2016-11"},{"category":"vehicle-crime","location_type":"Force","location":{"latitude":"51.543278","street":{"id":965338,"name":"On or near Theatre\/concert Hall"},"longitude":"-0.200133"},"context":"","outcome_status":{"category":"Investigation complete; no suspect identified","date":"2017-01"},"persistent_id":"7d09b79fbca92697c99d06c93519acc07ff1d594b35fc2208090b15d8a2174f0","id":52910839,"location_subtype":"","month":"2016-11"},{"category":"vehicle-crime","location_type":"Force","location":{"latitude":"51.540888","street":{"id":965294,"name":"On or near Willesden Lane"},"longitude":"-0.202016"},"context":"","outcome_status":{"category":"Status update unavailable","date":"2017-03"},"persistent_id":"09f4a5f6ce49d4b6f0fa558785ea436056e2f09bbfb1726e2cd600212ff8cc56","id":52957703,"location_subtype":"","month":"2016-11"},{"category":"vehicle-crime","location_type":"Force","location":{"latitude":"51.543208","street":{"id":965323,"name":"On or near Dunster Gardens"},"longitude":"-0.201420"},"context":"","outcome_status":{"category":"Status update unavailable","date":"2017-03"},"persistent_id":"c4270f4c90c5dbd0983f8bc8c47bb1b90c6d21a2631cdaea8d26e3b7dda05eb9","id":52958008,"location_subtype":"","month":"2016-11"},{"category":"vehicle-crime","location_type":"Force","location":{"latitude":"51.535220","street":{"id":965446,"name":"On or near Alpha Place"},"longitude":"-0.194222"},"context":"","outcome_status":{"category":"Status update unavailable","date":"2017-03"},"persistent_id":"53d3e26f0cd651256455ce75e7373a6cd3535c928979cd076566c12db3b7ccb6","id":52944363,"location_subtype":"","month":"2016-11"},{"category":"vehicle-crime","location_type":"Force","location":{"latitude":"51.540888","street":{"id":965294,"name":"On or near Willesden Lane"},"longitude":"-0.202016"},"context":"","outcome_status":{"category":"Status update unavailable","date":"2017-03"},"persistent_id":"e86ce73d2cf01de66e23fe9a8bd710e8e51ea40dc7068398fadb2b1ca8c3b9bb","id":52940642,"location_subtype":"","month":"2016-11"},{"category":"vehicle-crime","location_type":"Force","location":{"latitude":"51.540205","street":{"id":965313,"name":"On or near Kingsley Road"},"longitude":"-0.201480"},"context":"","outcome_status":{"category":"Investigation complete; no suspect identified","date":"2017-05"},"persistent_id":"39abdcce5af01c4fcf4fda1339c94715064c167ad7e32dbd42edd9347930a4c5","id":52903573,"location_subtype":"","month":"2016-11"},{"category":"vehicle-crime","location_type":"Force","location":{"latitude":"51.539219","street":{"id":965344,"name":"On or near Parking Area"},"longitude":"-0.195809"},"context":"","outcome_status":{"category":"Status update unavailable","date":"2017-03"},"persistent_id":"9da2df03c062a1908c065c7bd9dba4b8bb632bdb888989c2e242d3dd1d1fea91","id":52899865,"location_subtype":"","month":"2016-11"},{"category":"vehicle-crime","location_type":"Force","location":{"latitude":"51.536992","street":{"id":965373,"name":"On or near Mallard Close"},"longitude":"-0.194267"},"context":"","outcome_status":{"category":"Status update unavailable","date":"2017-03"},"persistent_id":"c0221e65d6e004a38161f4aef110448a98a969ab006d002d15684967fffaf96d","id":52900344,"location_subtype":"","month":"2016-11"},{"category":"vehicle-crime","location_type":"Force","location":{"latitude":"51.532701","street":{"id":960095,"name":"On or near Carlton Vale"},"longitude":"-0.202338"},"context":"","outcome_status":{"category":"Investigation complete; no suspect identified","date":"2016-12"},"persistent_id":"73fc56202e6b94f33ee4a7838702091637aec4683865982d5345a3056d6717c9","id":52898260,"location_subtype":"","month":"2016-11"},{"category":"vehicle-crime","location_type":"Force","location":{"latitude":"51.543208","street":{"id":965323,"name":"On or near Dunster Gardens"},"longitude":"-0.201420"},"context":"","outcome_status":{"category":"Status update unavailable","date":"2017-03"},"persistent_id":"5f718d74bf9540d294873e52d7c2181ef07c141f53e7f299822bea8c49e6eeba","id":52937139,"location_subtype":"","month":"2016-11"},{"category":"vehicle-crime","location_type":"Force","location":{"latitude":"51.535220","street":{"id":965446,"name":"On or near Alpha Place"},"longitude":"-0.194222"},"context":"","outcome_status":{"category":"Investigation complete; no suspect identified","date":"2017-03"},"persistent_id":"4cd585e1fca1677afb589632b496b0744eeff00c4f4695dd16a056f7da25877e","id":52958969,"location_subtype":"","month":"2016-11"},{"category":"vehicle-crime","location_type":"Force","location":{"latitude":"51.540722","street":{"id":965412,"name":"On or near Parking Area"},"longitude":"-0.197653"},"context":"","outcome_status":{"category":"Status update unavailable","date":"2017-03"},"persistent_id":"c96d827c01ee19c1a9fc123193968614f6a8bf1ea1570211eb4334e5929861af","id":52930014,"location_subtype":"","month":"2016-11"},{"category":"vehicle-crime","location_type":"Force","location":{"latitude":"51.529167","street":{"id":959980,"name":"On or near Stafford Close"},"longitude":"-0.197071"},"context":"","outcome_status":{"category":"Investigation complete; no suspect identified","date":"2016-11"},"persistent_id":"d27ca4e0ac526db683ee56d851941f5bb6e365c7f3e6bd9421f02fdd5958a930","id":52908896,"location_subtype":"","month":"2016-11"},{"category":"violent-crime","location_type":"Force","location":{"latitude":"51.538762","street":{"id":965406,"name":"On or near Supermarket"},"longitude":"-0.193577"},"context":"","outcome_status":{"category":"Court result unavailable","date":"2017-07"},"persistent_id":"466ce181aaab0e497ee1e8a5aa7375f25bd6d91c499195572be555fb1ed386dc","id":52912647,"location_subtype":"","month":"2016-11"},{"category":"violent-crime","location_type":"Force","location":{"latitude":"51.539343","street":{"id":923831,"name":"On or near Glengall Road"},"longitude":"-0.199207"},"context":"","outcome_status":{"category":"Status update unavailable","date":"2017-03"},"persistent_id":"aa00e70cc2f76dd31c75c20e6ec7a3ddf44af3e0f713571f677810fb1b82cfb7","id":52957365,"location_subtype":"","month":"2016-11"},{"category":"violent-crime","location_type":"Force","location":{"latitude":"51.539343","street":{"id":923831,"name":"On or near Glengall Road"},"longitude":"-0.199207"},"context":"","outcome_status":{"category":"Status update unavailable","date":"2017-03"},"persistent_id":"aa00e70cc2f76dd31c75c20e6ec7a3ddf44af3e0f713571f677810fb1b82cfb7","id":52957366,"location_subtype":"","month":"2016-11"},{"category":"violent-crime","location_type":"Force","location":{"latitude":"51.539343","street":{"id":923831,"name":"On or near Glengall Road"},"longitude":"-0.199207"},"context":"","outcome_status":{"category":"Investigation complete; no suspect identified","date":"2017-02"},"persistent_id":"aa00e70cc2f76dd31c75c20e6ec7a3ddf44af3e0f713571f677810fb1b82cfb7","id":52957367,"location_subtype":"","month":"2016-11"},{"category":"violent-crime","location_type":"BTP","location":{"latitude":"51.535100","street":{"id":1488486,"name":"Kilburn Park (lu Station)"},"longitude":"-0.193995"},"context":"","outcome_status":{"category":"Status update unavailable","date":"2017-03"},"persistent_id":"","id":66301524,"location_subtype":"LU STATION","month":"2016-11"},{"category":"violent-crime","location_type":"Force","location":{"latitude":"51.534009","street":{"id":965455,"name":"On or near Albert Road"},"longitude":"-0.201436"},"context":"","outcome_status":{"category":"Investigation complete; no suspect identified","date":"2016-11"},"persistent_id":"6cb8e305bb254b41a06f53d7dfbc17b0e3abafd7f9ab5d18c556a44b28270e1f","id":52898459,"location_subtype":"","month":"2016-11"},{"category":"violent-crime","location_type":"Force","location":{"latitude":"51.541809","street":{"id":965295,"name":"On or near Willesden Lane"},"longitude":"-0.206378"},"context":"","outcome_status":{"category":"Investigation complete; no suspect identified","date":"2016-11"},"persistent_id":"5a039021b8edf5a131afd9948d43d1946286f000a72aca1ffc6681f0a0b5a6f7","id":52958904,"location_subtype":"","month":"2016-11"},{"category":"violent-crime","location_type":"Force","location":{"latitude":"51.533658","street":{"id":965453,"name":"On or near Denmark Road"},"longitude":"-0.200210"},"context":"","outcome_status":{"category":"Investigation complete; no suspect identified","date":"2016-11"},"persistent_id":"8291858bddf9033ca074e5885b6f472bfb81c06e788199623e3dac48266ab906","id":52894508,"location_subtype":"","month":"2016-11"},{"category":"violent-crime","location_type":"Force","location":{"latitude":"51.539746","street":{"id":965408,"name":"On or near Further\/higher Educational Building"},"longitude":"-0.194980"},"context":"","outcome_status":{"category":"Investigation complete; no suspect identified","date":"2016-11"},"persistent_id":"5e58210b3682f730ce970e8d21042bd3f96584e1ad36ea39960a3ee86a3dc0c5","id":52908075,"location_subtype":"","month":"2016-11"},{"category":"violent-crime","location_type":"Force","location":{"latitude":"51.543278","street":{"id":965338,"name":"On or near Theatre\/concert Hall"},"longitude":"-0.200133"},"context":"","outcome_status":{"category":"Investigation complete; no suspect identified","date":"2016-11"},"persistent_id":"9b007332bc37e00309efa79ae5b61dbbb985de6e20f6d0ac95e7a2ad4f341e4d","id":52916785,"location_subtype":"","month":"2016-11"},{"category":"violent-crime","location_type":"Force","location":{"latitude":"51.539219","street":{"id":965344,"name":"On or near Parking Area"},"longitude":"-0.195809"},"context":"","outcome_status":{"category":"Investigation complete; no suspect identified","date":"2016-11"},"persistent_id":"a0b5a862c5357c4471debda9ad162b77582d03021a12ce242b71c7473a7200ba","id":52932880,"location_subtype":"","month":"2016-11"},{"category":"violent-crime","location_type":"Force","location":{"latitude":"51.539377","street":{"id":965402,"name":"On or near Birchington Road"},"longitude":"-0.193769"},"context":"","outcome_status":{"category":"Investigation complete; no suspect identified","date":"2016-11"},"persistent_id":"377159ad0af74d98c1f7854eadff87688cd68e6a5e1e0610083e3bb2770260c5","id":52942168,"location_subtype":"","month":"2016-11"},{"category":"violent-crime","location_type":"Force","location":{"latitude":"51.540525","street":{"id":965427,"name":"On or near Further\/higher Educational Building"},"longitude":"-0.197098"},"context":"","outcome_status":{"category":"Status update unavailable","date":"2017-03"},"persistent_id":"9191f4dc6bbc23eecae0c288f102f5c0e3aec7dbf359f0cc8d1bb85a4878604c","id":52946134,"location_subtype":"","month":"2016-11"},{"category":"violent-crime","location_type":"Force","location":{"latitude":"51.533616","street":{"id":965449,"name":"On or near Rupert Road"},"longitude":"-0.201610"},"context":"","outcome_status":{"category":"Investigation complete; no suspect identified","date":"2017-01"},"persistent_id":"f38d994ffeb3058444530cef3ae1b87acce2d509ac2a8f1e66badf195f946375","id":52945788,"location_subtype":"","month":"2016-11"},{"category":"violent-crime","location_type":"Force","location":{"latitude":"51.542049","street":{"id":965333,"name":"On or near Burton Road"},"longitude":"-0.199720"},"context":"","outcome_status":{"category":"Status update unavailable","date":"2017-03"},"persistent_id":"e5168d27a1df750e144400bafe4f9196b5d9dd854d47376a94b91ce54a9eb3b2","id":52940926,"location_subtype":"","month":"2016-11"},{"category":"violent-crime","location_type":"Force","location":{"latitude":"51.543777","street":{"id":965324,"name":"On or near Drakes Courtyard"},"longitude":"-0.201008"},"context":"","outcome_status":{"category":"Status update unavailable","date":"2017-03"},"persistent_id":"a57043016c9b3bfa9bc5cd8514bd82bbf968666a587ce94829a0601bcfafd918","id":52938765,"location_subtype":"","month":"2016-11"},{"category":"violent-crime","location_type":"Force","location":{"latitude":"51.534009","street":{"id":965455,"name":"On or near Albert Road"},"longitude":"-0.201436"},"context":"","outcome_status":{"category":"Investigation complete; no suspect identified","date":"2016-12"},"persistent_id":"b8004d1709f064c34ecbd52dd7e82c73cbe3190df98099d54c254a93ce5a9530","id":52937168,"location_subtype":"","month":"2016-11"},{"category":"violent-crime","location_type":"Force","location":{"latitude":"51.539237","street":{"id":965298,"name":"On or near Tennyson Road"},"longitude":"-0.202860"},"context":"","outcome_status":{"category":"Investigation complete; no suspect identified","date":"2017-03"},"persistent_id":"b82c04dd5cbec7466a7a2052159c0a637c2d7c5fcfd556a8d6c78f1e77308859","id":52935204,"location_subtype":"","month":"2016-11"},{"category":"violent-crime","location_type":"Force","location":{"latitude":"51.539219","street":{"id":965344,"name":"On or near Parking Area"},"longitude":"-0.195809"},"context":"","outcome_status":{"category":"Status update unavailable","date":"2017-03"},"persistent_id":"0fe4971a3bed2b41c74e254ca016fa5a4082da3b7f00e28a7c4ff7425d611b46","id":52933448,"location_subtype":"","month":"2016-11"},{"category":"violent-crime","location_type":"Force","location":{"latitude":"51.539806","street":{"id":965363,"name":"On or near Quex Mews"},"longitude":"-0.194776"},"context":"","outcome_status":{"category":"Court result unavailable","date":"2017-07"},"persistent_id":"2b5b5ce7f20becb8e56eede61e52fe3990845b53dce5d2f78abf64dba5a58a3a","id":52928856,"location_subtype":"","month":"2016-11"},{"category":"violent-crime","location_type":"Force","location":{"latitude":"51.539343","street":{"id":923831,"name":"On or near Glengall Road"},"longitude":"-0.199207"},"context":"","outcome_status":{"category":"Court result unavailable","date":"2017-05"},"persistent_id":"f8bc1b129bebdd03b601d9d9352704cb1730e12a9b30d789e7bd6f9b92cc8c03","id":52927305,"location_subtype":"","month":"2016-11"},{"category":"violent-crime","location_type":"Force","location":{"latitude":"51.535220","street":{"id":965446,"name":"On or near Alpha Place"},"longitude":"-0.194222"},"context":"","outcome_status":{"category":"Status update unavailable","date":"2017-03"},"persistent_id":"72d180880270543d5b1f802bb0f46bad46bb30e73aeaf024c4d5955f81366d10","id":52913647,"location_subtype":"","month":"2016-11"},{"category":"violent-crime","location_type":"Force","location":{"latitude":"51.535220","street":{"id":965446,"name":"On or near Alpha Place"},"longitude":"-0.194222"},"context":"","outcome_status":{"category":"Investigation complete; no suspect identified","date":"2017-03"},"persistent_id":"a8a77667c03e6be39cd652691771d222e85859daf347212bf935aa8f6bcca01a","id":52913609,"location_subtype":"","month":"2016-11"},{"category":"violent-crime","location_type":"Force","location":{"latitude":"51.532981","street":{"id":965435,"name":"On or near Granville Road"},"longitude":"-0.195955"},"context":"","outcome_status":{"category":"Investigation complete; no suspect identified","date":"2017-04"},"persistent_id":"e3d6e7cb3e6ee61d00aa0d9017645d56a899bda26a14f3c4cf9f3b91a753cf2a","id":52912465,"location_subtype":"","month":"2016-11"},{"category":"violent-crime","location_type":"Force","location":{"latitude":"51.535220","street":{"id":965446,"name":"On or near Alpha Place"},"longitude":"-0.194222"},"context":"","outcome_status":{"category":"Investigation complete; no suspect identified","date":"2017-02"},"persistent_id":"51a3a0f7ffa301cef594c2226fc28f6259c727187ebe9649fcaaf490e834e225","id":52912196,"location_subtype":"","month":"2016-11"},{"category":"violent-crime","location_type":"Force","location":{"latitude":"51.539219","street":{"id":965344,"name":"On or near Parking Area"},"longitude":"-0.195809"},"context":"","outcome_status":{"category":"Status update unavailable","date":"2017-03"},"persistent_id":"f04d0cf4f3cb3d306418e3493faa05ef9c70b7907b317af267273ec96b020229","id":52956951,"location_subtype":"","month":"2016-11"},{"category":"violent-crime","location_type":"Force","location":{"latitude":"51.543278","street":{"id":965338,"name":"On or near Theatre\/concert Hall"},"longitude":"-0.200133"},"context":"","outcome_status":{"category":"Investigation complete; no suspect identified","date":"2017-03"},"persistent_id":"63db50475902fc2c93e5b4b79b7c236b83b88fb5ac4d48e08e745e2efb6b2a3a","id":52912108,"location_subtype":"","month":"2016-11"},{"category":"violent-crime","location_type":"Force","location":{"latitude":"51.541643","street":{"id":965414,"name":"On or near Willesden Lane"},"longitude":"-0.198453"},"context":"","outcome_status":{"category":"Status update unavailable","date":"2017-03"},"persistent_id":"e109228e97eff755004a928b16f7f5e6185b47e382944e14ef43d2317e74942c","id":52910465,"location_subtype":"","month":"2016-11"},{"category":"violent-crime","location_type":"Force","location":{"latitude":"51.543777","street":{"id":965324,"name":"On or near Drakes Courtyard"},"longitude":"-0.201008"},"context":"","outcome_status":{"category":"Status update unavailable","date":"2017-03"},"persistent_id":"d84bc890593d86d7266431dd63e1b36bfed78da996dcbf7f1b35aaa5a5606ab3","id":52910153,"location_subtype":"","month":"2016-11"},{"category":"violent-crime","location_type":"Force","location":{"latitude":"51.541643","street":{"id":965414,"name":"On or near Willesden Lane"},"longitude":"-0.198453"},"context":"","outcome_status":{"category":"Court result unavailable","date":"2017-11"},"persistent_id":"27d9801e3225e3d9c2c53957ccf6ec3c4b5d4fce9bc9290aeb85eef968c064a7","id":52909524,"location_subtype":"","month":"2016-11"},{"category":"violent-crime","location_type":"Force","location":{"latitude":"51.538762","street":{"id":965406,"name":"On or near Supermarket"},"longitude":"-0.193577"},"context":"","outcome_status":{"category":"Status update unavailable","date":"2017-03"},"persistent_id":"b5abf323671ea24972a554e4f3eca2855531e7a3a6d9ddc736af26cfd676ccc8","id":52909525,"location_subtype":"","month":"2016-11"},{"category":"violent-crime","location_type":"Force","location":{"latitude":"51.534684","street":{"id":965445,"name":"On or near Gorefield Place"},"longitude":"-0.195642"},"context":"","outcome_status":{"category":"Investigation complete; no suspect identified","date":"2017-03"},"persistent_id":"243697062c37d99be8f4319464b02ad78baecd649c1d9046ec593ba8994f2c65","id":52907981,"location_subtype":"","month":"2016-11"},{"category":"violent-crime","location_type":"Force","location":{"latitude":"51.543278","street":{"id":965338,"name":"On or near Theatre\/concert Hall"},"longitude":"-0.200133"},"context":"","outcome_status":{"category":"Investigation complete; no suspect identified","date":"2017-01"},"persistent_id":"71988b308c0ba9df5512fec9255d5d9c994b023e3196b2f5ee6e4696801df14d","id":52902168,"location_subtype":"","month":"2016-11"},{"category":"violent-crime","location_type":"Force","location":{"latitude":"51.529167","street":{"id":959980,"name":"On or near Stafford Close"},"longitude":"-0.197071"},"context":"","outcome_status":{"category":"Status update unavailable","date":"2017-03"},"persistent_id":"b4752927aa95b3d658a3ae9d1fa09b91cefb0cf00fbf8894979bb932222a171c","id":52893897,"location_subtype":"","month":"2016-11"},{"category":"violent-crime","location_type":"Force","location":{"latitude":"51.540525","street":{"id":965427,"name":"On or near Further\/higher Educational Building"},"longitude":"-0.197098"},"context":"","outcome_status":{"category":"Investigation complete; no suspect identified","date":"2017-01"},"persistent_id":"514c52a8bd848eee5cec3151dc7f77b5cb45a39f8ec681acd519c2a70553c41a","id":52914997,"location_subtype":"","month":"2016-11"},{"category":"violent-crime","location_type":"Force","location":{"latitude":"51.531528","street":{"id":959990,"name":"On or near Nelson Close"},"longitude":"-0.195608"},"context":"","outcome_status":{"category":"Investigation complete; no suspect identified","date":"2016-12"},"persistent_id":"ac0937cc8ce898540003fbb4d133f44b08e3c9f8ea636a821e3e6db9ee193400","id":52947045,"location_subtype":"","month":"2016-11"},{"category":"violent-crime","location_type":"Force","location":{"latitude":"51.538340","street":{"id":965415,"name":"On or near Victoria Road"},"longitude":"-0.198281"},"context":"","outcome_status":{"category":"Investigation complete; no suspect identified","date":"2018-04"},"persistent_id":"a8d0fb1b3d9faa679a1c034572b82dd0a2ab721dcbb38820016eae1472cbbd42","id":52923096,"location_subtype":"","month":"2016-11"},{"category":"violent-crime","location_type":"Force","location":{"latitude":"51.539219","street":{"id":965344,"name":"On or near Parking Area"},"longitude":"-0.195809"},"context":"","outcome_status":{"category":"Investigation complete; no suspect identified","date":"2017-03"},"persistent_id":"f04d0cf4f3cb3d306418e3493faa05ef9c70b7907b317af267273ec96b020229","id":52956952,"location_subtype":"","month":"2016-11"},{"category":"violent-crime","location_type":"Force","location":{"latitude":"51.543777","street":{"id":965324,"name":"On or near Drakes Courtyard"},"longitude":"-0.201008"},"context":"","outcome_status":{"category":"Defendant found not guilty","date":"2017-03"},"persistent_id":"4be03cfa794a01d2ab59a0a0b368864f2407c798de462d2a115a2842d0fbf57d","id":52943685,"location_subtype":"","month":"2016-11"},{"category":"violent-crime","location_type":"Force","location":{"latitude":"51.543278","street":{"id":965338,"name":"On or near Theatre\/concert Hall"},"longitude":"-0.200133"},"context":"","outcome_status":{"category":"Investigation complete; no suspect identified","date":"2016-12"},"persistent_id":"86f5c42ffb11e1413bc4db00c2270a31fc2d4b7a68cb2111d34e403ba8140d38","id":52956515,"location_subtype":"","month":"2016-11"},{"category":"other-crime","location_type":"Force","location":{"latitude":"51.531260","street":{"id":959979,"name":"On or near Stafford Road"},"longitude":"-0.196340"},"context":"","outcome_status":{"category":"Investigation complete; no suspect identified","date":"2017-01"},"persistent_id":"4e655ede58abfe7f2e938bc8b22b273b5dcd180f7a42bd5bb3c1da337d736b73","id":52898420,"location_subtype":"","month":"2016-11"},{"category":"other-crime","location_type":"Force","location":{"latitude":"51.530817","street":{"id":959960,"name":"On or near Malvern Road"},"longitude":"-0.197958"},"context":"","outcome_status":{"category":"Status update unavailable","date":"2017-03"},"persistent_id":"67a5fbef26f7beb010254c64338866d846d92377d2054844a406fdfd8850d798","id":52911847,"location_subtype":"","month":"2016-11"}]