[{"category":"anti-social-behaviour","location_type":"Force","location":{"latitude":"54.946705","street":{"id":1021401,"name":"On or near Brownsea Place"},"longitude":"-1.589041"},"context":"","outcome_status":null,"persistent_id":"","id":65775724,"location_subtype":"","month":"2018-06"},{"category":"anti-social-behaviour","location_type":"Force","location":{"latitude":"54.948801","street":{"id":1021398,"name":"On or near Fullerton Place"},"longitude":"-1.592345"},"context":"","outcome_status":null,"persistent_id":"","id":65778920,"location_subtype":"","month":"2018-06"},{"category":"anti-social-behaviour","location_type":"Force","location":{"latitude":"54.952219","street":{"id":1021403,"name":"On or near Woods Terrace"},"longitude":"-1.595902"},"context":"","outcome_status":null,"persistent_id":"","id":65778390,"location_subtype":"","month":"2018-06"},{"category":"anti-social-behaviour","location_type":"Force","location":{"latitude":"54.953197","street":{"id":1021435,"name":"On or near Cramer Street"},"longitude":"-1.598094"},"context":"","outcome_status":null,"persistent_id":"","id":65778718,"location_subtype":"","month":"2018-06"},{"category":"anti-social-behaviour","location_type":"Force","location":{"latitude":"54.950153","street":{"id":1021374,"name":"On or near Bayswater Road"},"longitude":"-1.585665"},"context":"","outcome_status":null,"persistent_id":"","id":65778090,"location_subtype":"","month":"2018-06"},{"category":"anti-social-behaviour","location_type":"Force","location":{"latitude":"54.945559","street":{"id":1021490,"name":"On or near Appian Place"},"longitude":"-1.585057"},"context":"","outcome_status":null,"persistent_id":"","id":65777483,"location_subtype":"","month":"2018-06"},{"category":"anti-social-behaviour","location_type":"Force","location":{"latitude":"54.951968","street":{"id":1021405,"name":"On or near Thames Street"},"longitude":"-1.588067"},"context":"","outcome_status":null,"persistent_id":"","id":65777473,"location_subtype":"","month":"2018-06"},{"category":"anti-social-behaviour","location_type":"Force","location":{"latitude":"54.941752","street":{"id":1021467,"name":"On or near Tribune Place"},"longitude":"-1.585892"},"context":"","outcome_status":null,"persistent_id":"","id":65777584,"location_subtype":"","month":"2018-06"},{"category":"anti-social-behaviour","location_type":"Force","location":{"latitude":"54.948801","street":{"id":1021398,"name":"On or near Fullerton Place"},"longitude":"-1.592345"},"context":"","outcome_status":null,"persistent_id":"","id":65777546,"location_subtype":"","month":"2018-06"},{"category":"anti-social-behaviour","location_type":"Force","location":{"latitude":"54.952817","street":{"id":1021443,"name":"On or near Avon Street"},"longitude":"-1.589307"},"context":"","outcome_status":null,"persistent_id":"","id":65777107,"location_subtype":"","month":"2018-06"},{"category":"anti-social-behaviour","location_type":"Force","location":{"latitude":"54.950083","street":{"id":1021413,"name":"On or near Northbourne Street"},"longitude":"-1.596860"},"context":"","outcome_status":null,"persistent_id":"","id":65776648,"location_subtype":"","month":"2018-06"},{"category":"anti-social-behaviour","location_type":"Force","location":{"latitude":"54.950197","street":{"id":1021341,"name":"On or near Woodbine Terrace"},"longitude":"-1.580060"},"context":"","outcome_status":null,"persistent_id":"","id":65777018,"location_subtype":"","month":"2018-06"},{"category":"anti-social-behaviour","location_type":"Force","location":{"latitude":"54.948801","street":{"id":1021398,"name":"On or near Fullerton Place"},"longitude":"-1.592345"},"context":"","outcome_status":null,"persistent_id":"","id":65776151,"location_subtype":"","month":"2018-06"},{"category":"anti-social-behaviour","location_type":"Force","location":{"latitude":"54.950279","street":{"id":1021410,"name":"On or near Rosebery Avenue"},"longitude":"-1.593564"},"context":"","outcome_status":null,"persistent_id":"","id":65776418,"location_subtype":"","month":"2018-06"},{"category":"anti-social-behaviour","location_type":"Force","location":{"latitude":"54.946418","street":{"id":1021325,"name":"On or near Northway"},"longitude":"-1.586625"},"context":"","outcome_status":null,"persistent_id":"","id":65776372,"location_subtype":"","month":"2018-06"},{"category":"anti-social-behaviour","location_type":"Force","location":{"latitude":"54.941752","street":{"id":1021467,"name":"On or near Tribune Place"},"longitude":"-1.585892"},"context":"","outcome_status":null,"persistent_id":"","id":65775991,"location_subtype":"","month":"2018-06"},{"category":"anti-social-behaviour","location_type":"Force","location":{"latitude":"54.952219","street":{"id":1021403,"name":"On or near Woods Terrace"},"longitude":"-1.595902"},"context":"","outcome_status":null,"persistent_id":"","id":65775362,"location_subtype":"","month":"2018-06"},{"category":"anti-social-behaviour","location_type":"Force","location":{"latitude":"54.945154","street":{"id":1021455,"name":"On or near Hadrian Place"},"longitude":"-1.587559"},"context":"","outcome_status":null,"persistent_id":"","id":65775338,"location_subtype":"","month":"2018-06"},{"category":"anti-social-behaviour","location_type":"Force","location":{"latitude":"54.949597","street":{"id":1021423,"name":"On or near Inskip Terrace"},"longitude":"-1.596553"},"context":"","outcome_status":null,"persistent_id":"","id":65775127,"location_subtype":"","month":"2018-06"},{"category":"anti-social-behaviour","location_type":"Force","location":{"latitude":"54.942329","street":{"id":1021485,"name":"On or near Crossway"},"longitude":"-1.586370"},"context":"","outcome_status":null,"persistent_id":"","id":65774802,"location_subtype":"","month":"2018-06"},{"category":"anti-social-behaviour","location_type":"Force","location":{"latitude":"54.950637","street":{"id":1021348,"name":"On or near Split Crow Road"},"longitude":"-1.585114"},"context":"","outcome_status":null,"persistent_id":"","id":65779022,"location_subtype":"","month":"2018-06"},{"category":"anti-social-behaviour","location_type":"Force","location":{"latitude":"54.944756","street":{"id":1021481,"name":"On or near Halcyon Place"},"longitude":"-1.584113"},"context":"","outcome_status":null,"persistent_id":"","id":65779068,"location_subtype":"","month":"2018-06"},{"category":"anti-social-behaviour","location_type":"Force","location":{"latitude":"54.949069","street":{"id":1021384,"name":"On or near Perry Street"},"longitude":"-1.597308"},"context":"","outcome_status":null,"persistent_id":"","id":65779061,"location_subtype":"","month":"2018-06"},{"category":"anti-social-behaviour","location_type":"Force","location":{"latitude":"54.951968","street":{"id":1021405,"name":"On or near Thames Street"},"longitude":"-1.588067"},"context":"","outcome_status":null,"persistent_id":"","id":65778931,"location_subtype":"","month":"2018-06"},{"category":"burglary","location_type":"Force","location":{"latitude":"54.947489","street":{"id":1021386,"name":"On or near Old Durham Road"},"longitude":"-1.592265"},"context":"","outcome_status":{"category":"Under investigation","date":"2018-06"},"persistent_id":"2aad278fa2fc25a2378e418e9382c96ba5750f759d6e1b58da689726638ad4bd","id":65773371,"location_subtype":"","month":"2018-06"},{"category":"burglary","location_type":"Force","location":{"latitude":"54.950552","street":{"id":1021412,"name":"On or near Raby Street"},"longitude":"-1.597230"},"context":"","outcome_status":{"category":"Investigation complete; no suspect identified","date":"2018-06"},"persistent_id":"260485759a546992d69634ac9b7df6965eb0d520ef7baf2e8181ee7bc9733e19","id":65769821,"location_subtype":"","month":"2018-06"},{"category":"burglary","location_type":"Force","location":{"latitude":"54.952817","street":{"id":1021443,"name":"On or near Avon Street"},"longitude":"-1.589307"},"context":"","outcome_status":{"category":"Investigation complete; no suspect identified","date":"2018-06"},"persistent_id":"c3a6fedcd949f3561d58c69d777c71bef2dc439dcfef7fe402ee527f2b0dc70a","id":65767879,"location_subtype":"","month":"2018-06"},{"category":"burglary","location_type":"Force","location":{"latitude":"54.952817","street":{"id":1021443,"name":"On or near Avon Street"},"longitude":"-1.589307"},"context":"","outcome_status":{"category":"Investigation complete; no suspect identified","date":"2018-06"},"persistent_id":"441af4054b4500c9af9fd0f165e702cade85056b33230c7ca5daf6aae6e871b6","id":65765969,"location_subtype":"","month":"2018-06"},{"category":"criminal-damage-arson","location_type":"Force","location":{"latitude":"54.950552","street":{"id":1021412,"name":"On or near Raby Street"},"longitude":"-1.597230"},"context":"","outcome_status":{"category":"Under investigation","date":"2018-06"},"persistent_id":"01052855768187aa56afe0500f58d6aee9d07560e44ac28981873afc768478c4","id":65752929,"location_subtype":"","month":"2018-06"},{"category":"criminal-damage-arson","location_type":"Force","location":{"latitude":"54.949597","street":{"id":1021423,"name":"On or near Inskip Terrace"},"longitude":"-1.596553"},"context":"","outcome_status":{"category":"Investigation complete; no suspect identified","date":"2018-06"},"persistent_id":"46b08bb96e37820cad13865cb3bd24561685e72b8d208a2e293ac2a7efb66538","id":65760800,"location_subtype":"","month":"2018-06"},{"category":"criminal-damage-arson","location_type":"Force","location":{"latitude":"54.945154","street":{"id":1021455,"name":"On or near Hadrian Place"},"longitude":"-1.587559"},"context":"","outcome_status":{"category":"Investigation complete; no suspect identified","date":"2018-06"},"persistent_id":"30c9f955d014daf0bba063cd7165b6b71e72d4b924f2363e03ea6ac6146ab061","id":65753149,"location_subtype":"","month":"2018-06"},{"category":"criminal-damage-arson","location_type":"Force","location":{"latitude":"54.948801","street":{"id":1021398,"name":"On or near Fullerton Place"},"longitude":"-1.592345"},"context":"","outcome_status":{"category":"Investigation complete; no suspect identified","date":"2018-06"},"persistent_id":"84212b807b52f64803803965b31b3e9d43fb6e760c52a8ad53b9f64aee81f542","id":65768172,"location_subtype":"","month":"2018-06"},{"category":"criminal-damage-arson","location_type":"Force","location":{"latitude":"54.945154","street":{"id":1021455,"name":"On or near Hadrian Place"},"longitude":"-1.587559"},"context":"","outcome_status":{"category":"Under investigation","date":"2018-06"},"persistent_id":"1afcbc72604ccc3cfa936e558f37d13008ca6d384ff51c6ab9f62d230e8ba954","id":65770445,"location_subtype":"","month":"2018-06"},{"category":"criminal-damage-arson","location_type":"Force","location":{"latitude":"54.946415","street":{"id":1021322,"name":"On or near Romney Gardens"},"longitude":"-1.583112"},"context":"","outcome_status":{"category":"Investigation complete; no suspect identified","date":"2018-06"},"persistent_id":"ec9755ade524d1b7299acdd73e0d50800f8841a1ca696504ddaa6d717321f72b","id":65763374,"location_subtype":"","month":"2018-06"},{"category":"criminal-damage-arson","location_type":"Force","location":{"latitude":"54.946415","street":{"id":1021322,"name":"On or near Romney Gardens"},"longitude":"-1.583112"},"context":"","outcome_status":{"category":"Investigation complete; no suspect identified","date":"2018-06"},"persistent_id":"30947d6361e12b631e4fc4532c3c81b25b133b94917828f1cbdc15a499825b86","id":65765333,"location_subtype":"","month":"2018-06"},{"category":"criminal-damage-arson","location_type":"Force","location":{"latitude":"54.949442","street":{"id":1021420,"name":"On or near Leyton Place"},"longitude":"-1.587764"},"context":"","outcome_status":{"category":"Under investigation","date":"2018-06"},"persistent_id":"6fa72ee31fc0c049994fd0d4ac764aca85e2c56d589ab07d116f2373c9742123","id":65756810,"location_subtype":"","month":"2018-06"},{"category":"criminal-damage-arson","location_type":"Force","location":{"latitude":"54.944756","street":{"id":1021481,"name":"On or near Halcyon Place"},"longitude":"-1.584113"},"context":"","outcome_status":{"category":"Investigation complete; no suspect identified","date":"2018-06"},"persistent_id":"ad831840d9bffcaa2657cd9c4d4fb063859b9a0c3ad064a3f8deb328c0052279","id":65765889,"location_subtype":"","month":"2018-06"},{"category":"criminal-damage-arson","location_type":"Force","location":{"latitude":"54.950725","street":{"id":1021432,"name":"On or near Deckham Street"},"longitude":"-1.592529"},"context":"","outcome_status":{"category":"Investigation complete; no suspect identified","date":"2018-06"},"persistent_id":"93e9c0b4593c87b68700e139a48573ff46f776338789d939d58256e2b5d2d802","id":65764860,"location_subtype":"","month":"2018-06"},{"category":"criminal-damage-arson","location_type":"Force","location":{"latitude":"54.951083","street":{"id":1021440,"name":"On or near Chandos Street"},"longitude":"-1.597428"},"context":"","outcome_status":{"category":"Under investigation","date":"2018-06"},"persistent_id":"f69352b0608667fbb2773d92d4e1a22da7dcb29e2b035caf9756d321782bbba0","id":65772652,"location_subtype":"","month":"2018-06"},{"category":"criminal-damage-arson","location_type":"Force","location":{"latitude":"54.949442","street":{"id":1021420,"name":"On or near Leyton Place"},"longitude":"-1.587764"},"context":"","outcome_status":{"category":"Under investigation","date":"2018-06"},"persistent_id":"a5e25379fc53a6e52f8f9ac852185b55947087fa73b31f7ce33dd98443d50361","id":65771289,"location_subtype":"","month":"2018-06"},{"category":"criminal-damage-arson","location_type":"Force","location":{"latitude":"54.945154","street":{"id":1021455,"name":"On or near Hadrian Place"},"longitude":"-1.587559"},"context":"","outcome_status":{"category":"Under investigation","date":"2018-06"},"persistent_id":"c29c92902b1d9474e447485ae2b8809875b18a036e68454884440d59d8110937","id":65773266,"location_subtype":"","month":"2018-06"},{"category":"drugs","location_type":"Force","location":{"latitude":"54.946988","street":{"id":1021323,"name":"On or near Raeburn Gardens"},"longitude":"-1.582294"},"context":"","outcome_status":{"category":"Under investigation","date":"2018-06"},"persistent_id":"8e63cc7e674c4bee0cf557694e9a65339c568d2243126f6f17e2800632e32aaa","id":65769637,"location_subtype":"","month":"2018-06"},{"category":"drugs","location_type":"Force","location":{"latitude":"54.947819","street":{"id":1014856,"name":"On or near Romford Place"},"longitude":"-1.588952"},"context":"","outcome_status":{"category":"Under investigation","date":"2018-06"},"persistent_id":"2e4d1c8692d3134d6225691cc28d63c2b2d98ff7f241b6f393d395e14c51ac32","id":65771232,"location_subtype":"","month":"2018-06"},{"category":"other-theft","location_type":"Force","location":{"latitude":"54.949220","street":{"id":1021400,"name":"On or near Conway Square"},"longitude":"-1.594137"},"context":"","outcome_status":{"category":"Investigation complete; no suspect identified","date":"2018-06"},"persistent_id":"88667ad285f9cb1955a05cb1bda88451485ca13375a27a24dd821bf4fcc3bc8c","id":65766435,"location_subtype":"","month":"2018-06"},{"category":"other-theft","location_type":"Force","location":{"latitude":"54.951083","street":{"id":1021440,"name":"On or near Chandos Street"},"longitude":"-1.597428"},"context":"","outcome_status":{"category":"Under investigation","date":"2018-06"},"persistent_id":"27ad672cbf9c1ee9d9aaf738edfa9aa6f2aaebde7d359ee5600edb5b44c413ad","id":65753455,"location_subtype":"","month":"2018-06"},{"category":"other-theft","location_type":"Force","location":{"latitude":"54.949220","street":{"id":1021400,"name":"On or near Conway Square"},"longitude":"-1.594137"},"context":"","outcome_status":{"category":"Under investigation","date":"2018-06"},"persistent_id":"8d897fe70b22d73db1f762956a2b0c36e2c48bd7eb8957cf2c7a412c83a0c0a1","id":65767369,"location_subtype":"","month":"2018-06"},{"category":"other-theft","location_type":"Force","location":{"latitude":"54.950552","street":{"id":1021412,"name":"On or near Raby Street"},"longitude":"-1.597230"},"context":"","outcome_status":{"category":"Investigation complete; no suspect identified","date":"2018-06"},"persistent_id":"bd249fd846a42e279f336d62fa808e9680fc1eb059878d94b2bf596261182698","id":65768250,"location_subtype":"","month":"2018-06"},{"category":"other-theft","location_type":"Force","location":{"latitude":"54.954089","street":{"id":1021422,"name":"On or near Jedburgh Close"},"longitude":"-1.598866"},"context":"","outcome_status":{"category":"Investigation complete; no suspect identified","date":"2018-06"},"persistent_id":"3c9aaaf8e9c43ddefc124c7c3b386ddaac2411166d4849e9132da5d15d275eb3","id":65768327,"location_subtype":"","month":"2018-06"},{"category":"other-theft","location_type":"Force","location":{"latitude":"54.954518","street":{"id":1021407,"name":"On or near St Edmund's Road"},"longitude":"-1.598237"},"context":"","outcome_status":{"category":"Investigation complete; no suspect identified","date":"2018-06"},"persistent_id":"e45bda3de545963a2505d6718d4895114b562b44e42c9625c186cd1ef4a7941a","id":65772254,"location_subtype":"","month":"2018-06"},{"category":"other-theft","location_type":"Force","location":{"latitude":"54.951665","street":{"id":1021438,"name":"On or near Clyde Street"},"longitude":"-1.588960"},"context":"","outcome_status":{"category":"Investigation complete; no suspect identified","date":"2018-06"},"persistent_id":"66833bfe1f5631f68c31242db1161922f3b532fb5a5e56b2b84f8f9444088b25","id":65772690,"location_subtype":"","month":"2018-06"},{"category":"other-theft","location_type":"Force","location":{"latitude":"54.946999","street":{"id":1021399,"name":"On or near Dryden Road"},"longitude":"-1.596376"},"context":"","outcome_status":{"category":"Investigation complete; no suspect identified","date":"2018-06"},"persistent_id":"1d7bf9b08cc4d8c0cc3aaae2368f5b1299f4acecd968a1c83f842f0e5a2daa3a","id":65759396,"location_subtype":"","month":"2018-06"},{"category":"other-theft","location_type":"Force","location":{"latitude":"54.950386","street":{"id":1021429,"name":"On or near Edgware Road"},"longitude":"-1.590612"},"context":"","outcome_status":{"category":"Investigation complete; no suspect identified","date":"2018-06"},"persistent_id":"09d3d329731bb90213181a1c8288f7d7dec214de2e04890589c86a8e1a5d0dd2","id":65761130,"location_subtype":"","month":"2018-06"},{"category":"possession-of-weapons","location_type":"Force","location":{"latitude":"54.947117","street":{"id":1021331,"name":"On or near Gainsborough Crescent"},"longitude":"-1.583433"},"context":"","outcome_status":{"category":"Investigation complete; no suspect identified","date":"2018-06"},"persistent_id":"c075e9f880412e72123df30bc8853418c34c78d06a7acd39521f90237cd0e757","id":65758492,"location_subtype":"","month":"2018-06"},{"category":"public-order","location_type":"Force","location":{"latitude":"54.950552","street":{"id":1021412,"name":"On or near Raby Street"},"longitude":"-1.597230"},"context":"","outcome_status":{"category":"Under investigation","date":"2018-06"},"persistent_id":"2de9b33c7ba1f579ed71efa7c8a8eaad329a5cd3a143518d76e05895b9819998","id":65770186,"location_subtype":"","month":"2018-06"},{"category":"public-order","location_type":"Force","location":{"latitude":"54.952219","street":{"id":1021403,"name":"On or near Woods Terrace"},"longitude":"-1.595902"},"context":"","outcome_status":{"category":"Under investigation","date":"2018-06"},"persistent_id":"b2777303059e1397c5ea9698adc44efd4e884280aae4f8c714f9a9ed745ae1bb","id":65770330,"location_subtype":"","month":"2018-06"},{"category":"public-order","location_type":"Force","location":{"latitude":"54.945154","street":{"id":1021455,"name":"On or near Hadrian Place"},"longitude":"-1.587559"},"context":"","outcome_status":{"category":"Under investigation","date":"2018-06"},"persistent_id":"4c3db2a81bd58b515f82c9d1f20b89e9020701c989e43fa4197bce682a53055e","id":65770424,"location_subtype":"","month":"2018-06"},{"category":"public-order","location_type":"Force","location":{"latitude":"54.951740","street":{"id":1021426,"name":"On or near Highcliffe Gardens"},"longitude":"-1.589771"},"context":"","outcome_status":{"category":"Under investigation","date":"2018-06"},"persistent_id":"b5ac6799eee2434fc94d913f235eaa3e443cc2a016f22057a0245042beacede3","id":65768574,"location_subtype":"","month":"2018-06"},{"category":"public-order","location_type":"Force","location":{"latitude":"54.946705","street":{"id":1021401,"name":"On or near Brownsea Place"},"longitude":"-1.589041"},"context":"","outcome_status":{"category":"Under investigation","date":"2018-06"},"persistent_id":"5ec0eba728300a278b45db5d292620491ac161e3fb527f03d7c884214f57708b","id":65771858,"location_subtype":"","month":"2018-06"},{"category":"public-order","location_type":"Force","location":{"latitude":"54.947521","street":{"id":1021393,"name":"On or near Kitchener Street"},"longitude":"-1.591141"},"context":"","outcome_status":{"category":"Under investigation","date":"2018-06"},"persistent_id":"0fcb0567e2a11bcb3230973f0bab7aac039068a49b3c86450c5da987c0239bba","id":65768878,"location_subtype":"","month":"2018-06"},{"category":"public-order","location_type":"Force","location":{"latitude":"54.950495","street":{"id":1021415,"name":"On or near Newman Place"},"longitude":"-1.593796"},"context":"","outcome_status":{"category":"Under investigation","date":"2018-06"},"persistent_id":"b709510ad9d85166ce08dd8af7b49e171796712e6acdd9a35a4061125bedc982","id":65773454,"location_subtype":"","month":"2018-06"},{"category":"public-order","location_type":"Force","location":{"latitude":"54.943220","street":{"id":1021450,"name":"On or near Prefect Place"},"longitude":"-1.589483"},"context":"","outcome_status":{"category":"Under investigation","date":"2018-06"},"persistent_id":"16a05cdb7802335d77f996b1c08351de43e2e008f99fbe19970aeaabc8c80b21","id":65768201,"location_subtype":"","month":"2018-06"},{"category":"public-order","location_type":"Force","location":{"latitude":"54.946486","street":{"id":1021385,"name":"On or near Pattinson Gardens"},"longitude":"-1.587935"},"context":"","outcome_status":{"category":"Under investigation","date":"2018-06"},"persistent_id":"36af61e2a5729569d94e1844f40551ae9ffa226bd0cca88044d61fe7fa85a35e","id":65767941,"location_subtype":"","month":"2018-06"},{"category":"public-order","location_type":"Force","location":{"latitude":"54.946486","street":{"id":1021385,"name":"On or near Pattinson Gardens"},"longitude":"-1.587935"},"context":"","outcome_status":{"category":"Under investigation","date":"2018-06"},"persistent_id":"85dcd86d02e226e6b1e8c4d024414b94799c73a445da80348375fbab0ac8d15c","id":65767923,"location_subtype":"","month":"2018-06"},{"category":"public-order","location_type":"Force","location":{"latitude":"54.952534","street":{"id":1021492,"name":"On or near South Street"},"longitude":"-1.598694"},"context":"","outcome_status":{"category":"Under investigation","date":"2018-06"},"persistent_id":"840ac6472ded8e94b433478b506679eda50a78f8d578a75b2c106a0659a259be","id":65766643,"location_subtype":"","month":"2018-06"},{"category":"public-order","location_type":"Force","location":{"latitude":"54.943220","street":{"id":1021450,"name":"On or near Prefect Place"},"longitude":"-1.589483"},"context":"","outcome_status":{"category":"Under investigation","date":"2018-06"},"persistent_id":"dcb9e0e0f59dcdd86fe431b73e14d9a255cef5c3961b0636c16b7a5bec7b7edb","id":65764564,"location_subtype":"","month":"2018-06"},{"category":"public-order","location_type":"Force","location":{"latitude":"54.950495","street":{"id":1021415,"name":"On or near Newman Place"},"longitude":"-1.593796"},"context":"","outcome_status":{"category":"Under investigation","date":"2018-06"},"persistent_id":"829fd7ff7638f9f675a379f21a22ffc8f8d2759cb6f5ff659f7513ca47c5b3d8","id":65763600,"location_subtype":"","month":"2018-06"},{"category":"public-order","location_type":"Force","location":{"latitude":"54.941752","street":{"id":1021467,"name":"On or near Tribune Place"},"longitude":"-1.585892"},"context":"","outcome_status":{"category":"Under investigation","date":"2018-06"},"persistent_id":"25414b757a9c1263bc746da0eda2265ac438086567e7d3f74db627a3839629fe","id":65758984,"location_subtype":"","month":"2018-06"},{"category":"public-order","location_type":"Force","location":{"latitude":"54.954319","street":{"id":1021411,"name":"On or near Richmond Court"},"longitude":"-1.597786"},"context":"","outcome_status":{"category":"Under investigation","date":"2018-06"},"persistent_id":"e7a7a76e4354d80a81780032bbe308479dd6bdda8a26bc9d539f3375322117e5","id":65757141,"location_subtype":"","month":"2018-06"},{"category":"public-order","location_type":"Force","location":{"latitude":"54.949220","street":{"id":1021400,"name":"On or near Conway Square"},"longitude":"-1.594137"},"context":"","outcome_status":{"category":"Investigation complete; no suspect identified","date":"2018-06"},"persistent_id":"8f5442a48d8bf16cb2f58cf23d11fcd889391121a8732decdb4ac73d1c1774fc","id":65763960,"location_subtype":"","month":"2018-06"},{"category":"public-order","location_type":"Force","location":{"latitude":"54.946988","street":{"id":1021323,"name":"On or near Raeburn Gardens"},"longitude":"-1.582294"},"context":"","outcome_status":{"category":"Investigation complete; no suspect identified","date":"2018-06"},"persistent_id":"798d02ef317ae37e0b0be43cf52a99a860d06485d903a1bb62831c754f351722","id":65774121,"location_subtype":"","month":"2018-06"},{"category":"public-order","location_type":"Force","location":{"latitude":"54.946705","street":{"id":1021401,"name":"On or near Brownsea Place"},"longitude":"-1.589041"},"context":"","outcome_status":{"category":"Investigation complete; no suspect identified","date":"2018-06"},"persistent_id":"f0909466095e3000f7cd3ab4cf6beda16078d4bb17976aadb830985b22da74b8","id":65755796,"location_subtype":"","month":"2018-06"},{"category":"public-order","location_type":"Force","location":{"latitude":"54.951604","street":{"id":1021409,"name":"On or near Shipcote Terrace"},"longitude":"-1.597501"},"context":"","outcome_status":{"category":"Investigation complete; no suspect identified","date":"2018-06"},"persistent_id":"486a97b130a5f192d67e8d8ff9eb2249fdf821ab94697a1d756ff93a0c1b39a0","id":65755852,"location_subtype":"","month":"2018-06"},{"category":"public-order","location_type":"Force","location":{"latitude":"54.947819","street":{"id":1014856,"name":"On or near Romford Place"},"longitude":"-1.588952"},"context":"","outcome_status":{"category":"Awaiting court outcome","date":"2018-06"},"persistent_id":"34a9602b4df9d94bbbf71b329707a657bc6fdc8dd699552ee071ca91517dac82","id":65756003,"location_subtype":"","month":"2018-06"},{"category":"public-order","location_type":"Force","location":{"latitude":"54.949597","street":{"id":1021423,"name":"On or near Inskip Terrace"},"longitude":"-1.596553"},"context":"","outcome_status":{"category":"Offender given a caution","date":"2018-06"},"persistent_id":"b1d90be529412bd04c571c64c3df0dbeac37ca56947058cd1806c8572202d3f1","id":65759447,"location_subtype":"","month":"2018-06"},{"category":"public-order","location_type":"Force","location":{"latitude":"54.948021","street":{"id":1021332,"name":"On or near Fielding Place"},"longitude":"-1.582299"},"context":"","outcome_status":{"category":"Investigation complete; no suspect identified","date":"2018-06"},"persistent_id":"ec979aa75ed76238cc065a2ee41f5841e9ea515799886783c8771fdef1738b8b","id":65759787,"location_subtype":"","month":"2018-06"},{"category":"public-order","location_type":"Force","location":{"latitude":"54.941987","street":{"id":1021452,"name":"On or near Old Durham Road"},"longitude":"-1.589058"},"context":"","outcome_status":{"category":"Awaiting court outcome","date":"2018-06"},"persistent_id":"47a6f1973d5678d65aebab30f265160a0366236f89bdeee72c9e7f12c095f107","id":65760550,"location_subtype":"","month":"2018-06"},{"category":"public-order","location_type":"Force","location":{"latitude":"54.947161","street":{"id":1021378,"name":"On or near Valley Gardens"},"longitude":"-1.593658"},"context":"","outcome_status":{"category":"Under investigation","date":"2018-06"},"persistent_id":"591f37d42d2d7bfa3fbb2dc024824634c41db9781b7dbd82ab91fe4dc116486b","id":65769898,"location_subtype":"","month":"2018-06"},{"category":"shoplifting","location_type":"Force","location":{"latitude":"54.952821","street":{"id":1021430,"name":"On or near Durham Place"},"longitude":"-1.595834"},"context":"","outcome_status":{"category":"Investigation complete; no suspect identified","date":"2018-06"},"persistent_id":"60e39dcd4375979b086cf06e18fe90659106606209f0920fefe4d7043284408b","id":65754778,"location_subtype":"","month":"2018-06"},{"category":"shoplifting","location_type":"Force","location":{"latitude":"54.943220","street":{"id":1021450,"name":"On or near Prefect Place"},"longitude":"-1.589483"},"context":"","outcome_status":{"category":"Under investigation","date":"2018-06"},"persistent_id":"d70c4449d5f038645808e3d368d2780ced1d71325554094182ed0c6709536afa","id":65758713,"location_subtype":"","month":"2018-06"},{"category":"theft-from-the-person","location_type":"Force","location":{"latitude":"54.946705","street":{"id":1021401,"name":"On or near Brownsea Place"},"longitude":"-1.589041"},"context":"","outcome_status":{"category":"Under investigation","date":"2018-06"},"persistent_id":"22320a20f854064d34744597d1fbb1a4ce2d378d53feb705fcea21aafd82f249","id":65759473,"location_subtype":"","month":"2018-06"},{"category":"vehicle-crime","location_type":"Force","location":{"latitude":"54.951083","street":{"id":1021440,"name":"On or near Chandos Street"},"longitude":"-1.597428"},"context":"","outcome_status":{"category":"Under investigation","date":"2018-06"},"persistent_id":"e4f4d35de0838892d4d32a7b99ba94016317f1ddf7b4dc2b363bcf1df126945e","id":65760501,"location_subtype":"","month":"2018-06"},{"category":"vehicle-crime","location_type":"Force","location":{"latitude":"54.951927","street":{"id":1021349,"name":"On or near Severn Gardens"},"longitude":"-1.586506"},"context":"","outcome_status":{"category":"Investigation complete; no suspect identified","date":"2018-06"},"persistent_id":"ff2dea364268079878edbcbb64e5edfb7960dcc1d938cce3a07191de5c9c5bb7","id":65773994,"location_subtype":"","month":"2018-06"},{"category":"vehicle-crime","location_type":"Force","location":{"latitude":"54.951083","street":{"id":1021440,"name":"On or near Chandos Street"},"longitude":"-1.597428"},"context":"","outcome_status":{"category":"Under investigation","date":"2018-06"},"persistent_id":"8493d802ce9c32eb2500e31ecc5c312c812664b27542a29a9cc3036d46f6b279","id":65760490,"location_subtype":"","month":"2018-06"},{"category":"vehicle-crime","location_type":"Force","location":{"latitude":"54.947489","street":{"id":1021386,"name":"On or near Old Durham Road"},"longitude":"-1.592265"},"context":"","outcome_status":{"category":"Investigation complete; no suspect identified","date":"2018-06"},"persistent_id":"ac7749dcaa8d0a66d04908733f2e8cc93a121aa0efad8a4b4ec272d87de46543","id":65768141,"location_subtype":"","month":"2018-06"},{"category":"vehicle-crime","location_type":"Force","location":{"latitude":"54.951083","street":{"id":1021440,"name":"On or near Chandos Street"},"longitude":"-1.597428"},"context":"","outcome_status":{"category":"Under investigation","date":"2018-06"},"persistent_id":"e288188c1dd6d7978675712e2ef927f6bcd29ab7ddc4fbabcf4c6149c179621c","id":65760475,"location_subtype":"","month":"2018-06"},{"category":"violent-crime","location_type":"Force","location":{"latitude":"54.948104","street":{"id":1021321,"name":"On or near Sheriffs Close"},"longitude":"-1.580237"},"context":"","outcome_status":{"category":"Under investigation","date":"2018-06"},"persistent_id":"16f30c809192da97ac601155130d5c6d25f73fed54678f9634d3e5a8b849f675","id":65763257,"location_subtype":"","month":"2018-06"},{"category":"violent-crime","location_type":"Force","location":{"latitude":"54.950552","street":{"id":1021412,"name":"On or near Raby Street"},"longitude":"-1.597230"},"context":"","outcome_status":{"category":"Under investigation","date":"2018-06"},"persistent_id":"20e002e31def0715ebcfb7e4f16e433b438de788fb6f734204f89d90dbda991a","id":65760993,"location_subtype":"","month":"2018-06"},{"category":"violent-crime","location_type":"Force","location":{"latitude":"54.952219","street":{"id":1021403,"name":"On or near Woods Terrace"},"longitude":"-1.595902"},"context":"","outcome_status":{"category":"Under investigation","date":"2018-06"},"persistent_id":"0eb9b1b4bce8b7903350c67def814b4c6cd07e10e27b619c920a9767b3acc071","id":65761785,"location_subtype":"","month":"2018-06"},{"category":"violent-crime","location_type":"Force","location":{"latitude":"54.949882","street":{"id":1021441,"name":"On or near Caris Street"},"longitude":"-1.593162"},"context":"","outcome_status":{"category":"Under investigation","date":"2018-06"},"persistent_id":"7ac08e3ad63a5dc25d82b07c3c293a8def8a39e7c0c1dc59e518799304bcd04c","id":65759431,"location_subtype":"","month":"2018-06"},{"category":"violent-crime","location_type":"Force","location":{"latitude":"54.951083","street":{"id":1021440,"name":"On or near Chandos Street"},"longitude":"-1.597428"},"context":"","outcome_status":{"category":"Under investigation","date":"2018-06"},"persistent_id":"4825308a91ad8f78dbf55bd5e21cb43416f196a2a0fadfb46a0698d8a43e2c5e","id":65760116,"location_subtype":"","month":"2018-06"},{"category":"violent-crime","location_type":"Force","location":{"latitude":"54.950083","street":{"id":1021413,"name":"On or near Northbourne Street"},"longitude":"-1.596860"},"context":"","outcome_status":{"category":"Under investigation","date":"2018-06"},"persistent_id":"9e9fee828c79953c4ccbc9a31a73921fb1726a6dedb33577cd853b35d718af6f","id":65760269,"location_subtype":"","month":"2018-06"},{"category":"violent-crime","location_type":"Force","location":{"latitude":"54.949492","street":{"id":1021439,"name":"On or near Chiswick Gardens"},"longitude":"-1.589278"},"context":"","outcome_status":{"category":"Under investigation","date":"2018-06"},"persistent_id":"70d0e1ae82d3e84ebbd8d41e7931aba2ecba2ce14ce84c89b60e8128739da33f","id":65759359,"location_subtype":"","month":"2018-06"},{"category":"violent-crime","location_type":"Force","location":{"latitude":"54.952821","street":{"id":1021430,"name":"On or near Durham Place"},"longitude":"-1.595834"},"context":"","outcome_status":{"category":"Under investigation","date":"2018-06"},"persistent_id":"60c0aeb0c6e94cc27dff0ce11bb7709119b540a841a8bcc6d706a867b302335b","id":65770334,"location_subtype":"","month":"2018-06"},{"category":"violent-crime","location_type":"Force","location":{"latitude":"54.953936","street":{"id":1021437,"name":"On or near Cobden Street"},"longitude":"-1.588015"},"context":"","outcome_status":{"category":"Under investigation","date":"2018-06"},"persistent_id":"54840bc7a2518e9051e082b3a38703a244c03d9259940a86b01acf06f7fd5f9f","id":65757519,"location_subtype":"","month":"2018-06"},{"category":"violent-crime","location_type":"Force","location":{"latitude":"54.946251","street":{"id":1021320,"name":"On or near Strathmore Road"},"longitude":"-1.582208"},"context":"","outcome_status":{"category":"Awaiting court outcome","date":"2018-06"},"persistent_id":"b4875839c7fc18aed512e7f468934bb0dce8cb2d3185421fa5fd3ff2d74b4faa","id":65765785,"location_subtype":"","month":"2018-06"},{"category":"violent-crime","location_type":"Force","location":{"latitude":"54.951927","street":{"id":1021349,"name":"On or near Severn Gardens"},"longitude":"-1.586506"},"context":"","outcome_status":{"category":"Under investigation","date":"2018-06"},"persistent_id":"61ecba6fc5badd2941724749331083d715eb38679ed3a5d70aff6d1f9583d592","id":65752613,"location_subtype":"","month":"2018-06"},{"category":"violent-crime","location_type":"Force","location":{"latitude":"54.949442","street":{"id":1021420,"name":"On or near Leyton Place"},"longitude":"-1.587764"},"context":"","outcome_status":{"category":"Under investigation","date":"2018-06"},"persistent_id":"c6ccc76e016383eba9ed6d47f3eb3c69b3a73f882e7a835682231f9e2bca39a9","id":65756798,"location_subtype":"","month":"2018-06"},{"category":"violent-crime","location_type":"Force","location":{"latitude":"54.945559","street":{"id":1021490,"name":"On or near Appian Place"},"longitude":"-1.585057"},"context":"","outcome_status":{"category":"Under investigation","date":"2018-06"},"persistent_id":"83ac56b7f992d70b867cdd34c8685146343ec4a63f2831a152af73093805a059","id":65752197,"location_subtype":"","month":"2018-06"},{"category":"violent-crime","location_type":"Force","location":{"latitude":"54.952219","street":{"id":1021403,"name":"On or near Woods Terrace"},"longitude":"-1.595902"},"context":"","outcome_status":{"category":"Under investigation","date":"2018-06"},"persistent_id":"5daca5daced6faa80cfcca3122ba96d926a56c2f4e8c025192cda7d690b6d096","id":65756167,"location_subtype":"","month":"2018-06"},{"category":"violent-crime","location_type":"Force","location":{"latitude":"54.949261","street":{"id":1021394,"name":"On or near Kingston Road"},"longitude":"-1.590280"},"context":"","outcome_status":{"category":"Under investigation","date":"2018-06"},"persistent_id":"b683bc05613319ebdfc4823c041e96cd324870dfec816d2c4f4f6f8c7f231c39","id":65754164,"location_subtype":"","month":"2018-06"},{"category":"violent-crime","location_type":"Force","location":{"latitude":"54.945332","street":{"id":1021484,"name":"On or near Esk Street"},"longitude":"-1.581749"},"context":"","outcome_status":{"category":"Under investigation","date":"2018-06"},"persistent_id":"07cf9fa113058031e2051a61ff8de93f8676007d3dd3072439a53b53c1a6a1ad","id":65753506,"location_subtype":"","month":"2018-06"},{"category":"violent-crime","location_type":"Force","location":{"latitude":"54.947819","street":{"id":1014856,"name":"On or near Romford Place"},"longitude":"-1.588952"},"context":"","outcome_status":{"category":"Under investigation","date":"2018-06"},"persistent_id":"3f0816455f628bc70cb4ec51a4dba2c7e65f693f51c23228576aebfed4f876d7","id":65753083,"location_subtype":"","month":"2018-06"},{"category":"violent-crime","location_type":"Force","location":{"latitude":"54.951604","street":{"id":1021409,"name":"On or near Shipcote Terrace"},"longitude":"-1.597501"},"context":"","outcome_status":{"category":"Investigation complete; no suspect identified","date":"2018-06"},"persistent_id":"2f68d56a0b46c0b5cb00c25bad6566306a2889ce64e5d559a96731e453123309","id":65768987,"location_subtype":"","month":"2018-06"},{"category":"violent-crime","location_type":"Force","location":{"latitude":"54.945559","street":{"id":1021490,"name":"On or near Appian Place"},"longitude":"-1.585057"},"context":"","outcome_status":{"category":"Under investigation","date":"2018-06"},"persistent_id":"9863579d94f49efee93fdcbbde61bdf786ec56f72c034eb702dc10002f9e1d50","id":65752834,"location_subtype":"","month":"2018-06"},{"category":"violent-crime","location_type":"Force","location":{"latitude":"54.949882","street":{"id":1021441,"name":"On or near Caris Street"},"longitude":"-1.593162"},"context":"","outcome_status":{"category":"Investigation complete; no suspect identified","date":"2018-06"},"persistent_id":"7fe4cf91e4f2ea356ff5406a06f41835cb90102dd430827ab7ff55c5fe0cf434","id":65770730,"location_subtype":"","month":"2018-06"},{"category":"violent-crime","location_type":"Force","location":{"latitude":"54.950725","street":{"id":1021432,"name":"On or near Deckham Street"},"longitude":"-1.592529"},"context":"","outcome_status":{"category":"Investigation complete; no suspect identified","date":"2018-06"},"persistent_id":"14fa287ffc99fb32fb09d66546b29989b711dc5b07196c1cfd018742b6de3978","id":65771372,"location_subtype":"","month":"2018-06"},{"category":"violent-crime","location_type":"Force","location":{"latitude":"54.948695","street":{"id":1021396,"name":"On or near Holyoake Gardens"},"longitude":"-1.595625"},"context":"","outcome_status":{"category":"Under investigation","date":"2018-06"},"persistent_id":"5fbb422b0a6350138d406b5af9ed4986a5fb4aa91ae4b5867185b16a7f27f244","id":65769698,"location_subtype":"","month":"2018-06"},{"category":"violent-crime","location_type":"Force","location":{"latitude":"54.942736","street":{"id":1021486,"name":"On or near Causeway"},"longitude":"-1.584602"},"context":"","outcome_status":{"category":"Under investigation","date":"2018-06"},"persistent_id":"02d91ff393f05f62b5850abee869048a3d7514562e5d6adca32e9eaff6d6ceeb","id":65769356,"location_subtype":"","month":"2018-06"},{"category":"violent-crime","location_type":"Force","location":{"latitude":"54.945154","street":{"id":1021455,"name":"On or near Hadrian Place"},"longitude":"-1.587559"},"context":"","outcome_status":{"category":"Under investigation","date":"2018-06"},"persistent_id":"1cd91b54218b1336a21fd2e20734d6d51ed093b5cf037fd162744eedf92f9bc4","id":65770450,"location_subtype":"","month":"2018-06"},{"category":"violent-crime","location_type":"Force","location":{"latitude":"54.943220","street":{"id":1021450,"name":"On or near Prefect Place"},"longitude":"-1.589483"},"context":"","outcome_status":{"category":"Under investigation","date":"2018-06"},"persistent_id":"333c82d680d13b9e2ee8bd1751727af860fafb36ab744c5de9210245180f7cd1","id":65769093,"location_subtype":"","month":"2018-06"},{"category":"violent-crime","location_type":"Force","location":{"latitude":"54.951604","street":{"id":1021409,"name":"On or near Shipcote Terrace"},"longitude":"-1.597501"},"context":"","outcome_status":{"category":"Under investigation","date":"2018-06"},"persistent_id":"eae3682ae2fc6f5cadf5e1455f91cabce7edaf8a9ce2b2e06939b69e7e025a6f","id":65768320,"location_subtype":"","month":"2018-06"},{"category":"violent-crime","location_type":"Force","location":{"latitude":"54.941752","street":{"id":1021467,"name":"On or near Tribune Place"},"longitude":"-1.585892"},"context":"","outcome_status":{"category":"Under investigation","date":"2018-06"},"persistent_id":"050f57008adf34727ae29305d41d10576717b89fb69834553c467bf0c10babb5","id":65771738,"location_subtype":"","month":"2018-06"},{"category":"violent-crime","location_type":"Force","location":{"latitude":"54.950083","street":{"id":1021413,"name":"On or near Northbourne Street"},"longitude":"-1.596860"},"context":"","outcome_status":{"category":"Investigation complete; no suspect identified","date":"2018-06"},"persistent_id":"fe1cba06052b822eedc136d2f6d5b9b735f241414f02e18fd03767fab0444541","id":65752414,"location_subtype":"","month":"2018-06"},{"category":"violent-crime","location_type":"Force","location":{"latitude":"54.951927","street":{"id":1021349,"name":"On or near Severn Gardens"},"longitude":"-1.586506"},"context":"","outcome_status":{"category":"Awaiting court outcome","date":"2018-06"},"persistent_id":"30240db213166423302e3247f04d65559e999aeef29c8541d303f1f27841f293","id":65752599,"location_subtype":"","month":"2018-06"},{"category":"violent-crime","location_type":"Force","location":{"latitude":"54.950083","street":{"id":1021413,"name":"On or near Northbourne Street"},"longitude":"-1.596860"},"context":"","outcome_status":{"category":"Under investigation","date":"2018-06"},"persistent_id":"8bc0f1f0d11f9cfe191b08448cd187ecd67194cb0ccf2a8d852b32261e393c82","id":65772104,"location_subtype":"","month":"2018-06"},{"category":"violent-crime","location_type":"Force","location":{"latitude":"54.950153","street":{"id":1021374,"name":"On or near Bayswater Road"},"longitude":"-1.585665"},"context":"","outcome_status":{"category":"Under investigation","date":"2018-06"},"persistent_id":"9f62410d4e2b6a169da63ee1ff5bd4079ecb0c7f094c7f161b22f29c683ec58e","id":65772218,"location_subtype":"","month":"2018-06"},{"category":"violent-crime","location_type":"Force","location":{"latitude":"54.949882","street":{"id":1021441,"name":"On or near Caris Street"},"longitude":"-1.593162"},"context":"","outcome_status":{"category":"Under investigation","date":"2018-06"},"persistent_id":"acd528ebfe2c7a0b7cc4ea63c3ca55fec14928aa6b01a9968c59de2cfe860a8e","id":65773051,"location_subtype":"","month":"2018-06"},{"category":"violent-crime","location_type":"Force","location":{"latitude":"54.952555","street":{"id":1021427,"name":"On or near Fife Street"},"longitude":"-1.594228"},"context":"","outcome_status":{"category":"Under investigation","date":"2018-06"},"persistent_id":"e2f75c0c3f204bf12ed3d169cd128360d37a6aa12927e77577f5470e2f110698","id":65773324,"location_subtype":"","month":"2018-06"},{"category":"violent-crime","location_type":"Force","location":{"latitude":"54.947027","street":{"id":1021402,"name":"On or near Baden Powell Street"},"longitude":"-1.591255"},"context":"","outcome_status":{"category":"Under investigation","date":"2018-06"},"persistent_id":"29c956152f4b1d648a747537613ede8a96e143d9839aea9f646eeab07bab6827","id":65768489,"location_subtype":"","month":"2018-06"},{"category":"violent-crime","location_type":"Force","location":{"latitude":"54.950386","street":{"id":1021429,"name":"On or near Edgware Road"},"longitude":"-1.590612"},"context":"","outcome_status":{"category":"Under investigation","date":"2018-06"},"persistent_id":"2a239c2193c02ddab4d07703377262a107b32082b61313f93bbb123ee72e5bfc","id":65773386,"location_subtype":"","month":"2018-06"},{"category":"violent-crime","location_type":"Force","location":{"latitude":"54.951604","street":{"id":1021409,"name":"On or near Shipcote Terrace"},"longitude":"-1.597501"},"context":"","outcome_status":{"category":"Under investigation","date":"2018-06"},"persistent_id":"57246a27976f928c59203d08c5e091ab4d32bced85a094e1f814a688ec43310a","id":65768465,"location_subtype":"","month":"2018-06"},{"category":"violent-crime","location_type":"Force","location":{"latitude":"54.946705","street":{"id":1021401,"name":"On or near Brownsea Place"},"longitude":"-1.589041"},"context":"","outcome_status":{"category":"Under investigation","date":"2018-06"},"persistent_id":"84e91570a86212a0e6907bd10df87ab56ad7b2e48d7a7b72abbf659338b74eac","id":65774158,"location_subtype":"","month":"2018-06"},{"category":"violent-crime","location_type":"Force","location":{"latitude":"54.944958","street":{"id":1021466,"name":"On or near Wardill Gardens"},"longitude":"-1.582674"},"context":"","outcome_status":{"category":"Under investigation","date":"2018-06"},"persistent_id":"bb4aac08d41638b5ec0f1fb5e2ea1b0f5c53fc9eaa588bba981b9d59f06bfd4a","id":65774172,"location_subtype":"","month":"2018-06"},{"category":"violent-crime","location_type":"Force","location":{"latitude":"54.945332","street":{"id":1021484,"name":"On or near Esk Street"},"longitude":"-1.581749"},"context":"","outcome_status":{"category":"Under investigation","date":"2018-06"},"persistent_id":"877936fe5122528b2b424528e5dd5b4755ae29d93b02f72f2c0d868ef509b2c3","id":65774191,"location_subtype":"","month":"2018-06"},{"category":"violent-crime","location_type":"Force","location":{"latitude":"54.945332","street":{"id":1021484,"name":"On or near Esk Street"},"longitude":"-1.581749"},"context":"","outcome_status":{"category":"Under investigation","date":"2018-06"},"persistent_id":"e6cac1031fdef9c441b235ee05c692135f323e1f23ce4f5b4f3d27a1dfca5446","id":65774194,"location_subtype":"","month":"2018-06"},{"category":"violent-crime","location_type":"Force","location":{"latitude":"54.945154","street":{"id":1021455,"name":"On or near Hadrian Place"},"longitude":"-1.587559"},"context":"","outcome_status":{"category":"Investigation complete; no suspect identified","date":"2018-06"},"persistent_id":"81c45f4c6b36991ea209a352c44b84bcd33436fe0e74a57a91f56f8f9c6665e4","id":65754143,"location_subtype":"","month":"2018-06"},{"category":"violent-crime","location_type":"Force","location":{"latitude":"54.951083","street":{"id":1021440,"name":"On or near Chandos Street"},"longitude":"-1.597428"},"context":"","outcome_status":{"category":"Investigation complete; no suspect identified","date":"2018-06"},"persistent_id":"4e1a29fc84d4abcad00809a284f262731bcc279d12da705afcd38acf2dd42010","id":65754547,"location_subtype":"","month":"2018-06"},{"category":"violent-crime","location_type":"Force","location":{"latitude":"54.945559","street":{"id":1021490,"name":"On or near Appian Place"},"longitude":"-1.585057"},"context":"","outcome_status":{"category":"Under investigation","date":"2018-06"},"persistent_id":"2b987b62656f5923d3ca2c0bf7d9211b3a57fc1b0f950270b63f482c25476d02","id":65766662,"location_subtype":"","month":"2018-06"},{"category":"violent-crime","location_type":"Force","location":{"latitude":"54.952821","street":{"id":1021430,"name":"On or near Durham Place"},"longitude":"-1.595834"},"context":"","outcome_status":{"category":"Under investigation","date":"2018-06"},"persistent_id":"2c0070f079d4029292af2c47fde4ae7affc6d7f6c6fd52ea332c2f3fb852d96b","id":65769883,"location_subtype":"","month":"2018-06"},{"category":"violent-crime","location_type":"Force","location":{"latitude":"54.948104","street":{"id":1021321,"name":"On or near Sheriffs Close"},"longitude":"-1.580237"},"context":"","outcome_status":{"category":"Under investigation","date":"2018-06"},"persistent_id":"aa43372dd47dcb870d9f9f2fcc73bccacf72b503a61255b61efe1cf61f5d5ae9","id":65766584,"location_subtype":"","month":"2018-06"},{"category":"violent-crime","location_type":"Force","location":{"latitude":"54.951083","street":{"id":1021440,"name":"On or near Chandos Street"},"longitude":"-1.597428"},"context":"","outcome_status":{"category":"Under investigation","date":"2018-06"},"persistent_id":"a8235aee4f37178f45373055e7c751890a81301df1cbe88527f995b21c6032eb","id":65766366,"location_subtype":"","month":"2018-06"},{"category":"violent-crime","location_type":"Force","location":{"latitude":"54.948801","street":{"id":1021398,"name":"On or near Fullerton Place"},"longitude":"-1.592345"},"context":"","outcome_status":{"category":"Under investigation","date":"2018-06"},"persistent_id":"dfeaca388b11fd0bc917a999cebe5a9cae286e780e58f94e0a2f04f8f97f47cf","id":65769564,"location_subtype":"","month":"2018-06"},{"category":"violent-crime","location_type":"Force","location":{"latitude":"54.952555","street":{"id":1021427,"name":"On or near Fife Street"},"longitude":"-1.594228"},"context":"","outcome_status":{"category":"Under investigation","date":"2018-06"},"persistent_id":"75820de9c0937aec074b2e199da43d43f3cf9c69b4c8a1384296038aaedb5f9a","id":65769599,"location_subtype":"","month":"2018-06"},{"category":"violent-crime","location_type":"Force","location":{"latitude":"54.950637","street":{"id":1021348,"name":"On or near Split Crow Road"},"longitude":"-1.585114"},"context":"","outcome_status":{"category":"Under investigation","date":"2018-06"},"persistent_id":"16c25c76d8c2b28009ebc21171c7f5ba96925918ef3ac2be7f13479ecf5d82eb","id":65763571,"location_subtype":"","month":"2018-06"},{"category":"other-crime","location_type":"Force","location":{"latitude":"54.941752","street":{"id":1021467,"name":"On or near Tribune Place"},"longitude":"-1.585892"},"context":"","outcome_status":{"category":"Under investigation","date":"2018-06"},"persistent_id":"9817a1f903c5e9cd8bba3244e78fde9515b8acda5e1eb09109b7918704b2909f","id":65753625,"location_subtype":"","month":"2018-06"}]