[{"category":"anti-social-behaviour","location_type":"Force","location":{"latitude":"51.392816","street":{"id":847115,"name":"On or near Knight Avenue"},"longitude":"0.556767"},"context":"","outcome_status":null,"persistent_id":"","id":65560366,"location_subtype":"","month":"2018-06"},{"category":"anti-social-behaviour","location_type":"Force","location":{"latitude":"51.387628","street":{"id":847186,"name":"On or near Freesia Close"},"longitude":"0.564125"},"context":"","outcome_status":null,"persistent_id":"","id":65559075,"location_subtype":"","month":"2018-06"},{"category":"anti-social-behaviour","location_type":"Force","location":{"latitude":"51.388765","street":{"id":847213,"name":"On or near Dalton Street"},"longitude":"0.546638"},"context":"","outcome_status":null,"persistent_id":"","id":65559312,"location_subtype":"","month":"2018-06"},{"category":"anti-social-behaviour","location_type":"Force","location":{"latitude":"51.387758","street":{"id":847105,"name":"On or near Coniston Close"},"longitude":"0.572958"},"context":"","outcome_status":null,"persistent_id":"","id":65559345,"location_subtype":"","month":"2018-06"},{"category":"anti-social-behaviour","location_type":"Force","location":{"latitude":"51.387628","street":{"id":847186,"name":"On or near Freesia Close"},"longitude":"0.564125"},"context":"","outcome_status":null,"persistent_id":"","id":65559123,"location_subtype":"","month":"2018-06"},{"category":"anti-social-behaviour","location_type":"Force","location":{"latitude":"51.394220","street":{"id":847134,"name":"On or near Sidney Road"},"longitude":"0.549298"},"context":"","outcome_status":null,"persistent_id":"","id":65559144,"location_subtype":"","month":"2018-06"},{"category":"anti-social-behaviour","location_type":"Force","location":{"latitude":"51.391394","street":{"id":847111,"name":"On or near Parr Avenue"},"longitude":"0.556027"},"context":"","outcome_status":null,"persistent_id":"","id":65559152,"location_subtype":"","month":"2018-06"},{"category":"anti-social-behaviour","location_type":"Force","location":{"latitude":"51.387628","street":{"id":847186,"name":"On or near Freesia Close"},"longitude":"0.564125"},"context":"","outcome_status":null,"persistent_id":"","id":65559157,"location_subtype":"","month":"2018-06"},{"category":"anti-social-behaviour","location_type":"Force","location":{"latitude":"51.390564","street":{"id":847267,"name":"On or near Mill Road"},"longitude":"0.542497"},"context":"","outcome_status":null,"persistent_id":"","id":65559163,"location_subtype":"","month":"2018-06"},{"category":"anti-social-behaviour","location_type":"Force","location":{"latitude":"51.388938","street":{"id":847286,"name":"On or near Arden Street"},"longitude":"0.543629"},"context":"","outcome_status":null,"persistent_id":"","id":65559176,"location_subtype":"","month":"2018-06"},{"category":"anti-social-behaviour","location_type":"Force","location":{"latitude":"51.386714","street":{"id":845744,"name":"On or near High Street"},"longitude":"0.548723"},"context":"","outcome_status":null,"persistent_id":"","id":65559217,"location_subtype":"","month":"2018-06"},{"category":"anti-social-behaviour","location_type":"Force","location":{"latitude":"51.394640","street":{"id":847147,"name":"On or near Leslie Road"},"longitude":"0.554411"},"context":"","outcome_status":null,"persistent_id":"","id":65559223,"location_subtype":"","month":"2018-06"},{"category":"anti-social-behaviour","location_type":"Force","location":{"latitude":"51.390564","street":{"id":847267,"name":"On or near Mill Road"},"longitude":"0.542497"},"context":"","outcome_status":null,"persistent_id":"","id":65559860,"location_subtype":"","month":"2018-06"},{"category":"anti-social-behaviour","location_type":"Force","location":{"latitude":"51.388499","street":{"id":847102,"name":"On or near Croombridge Drive"},"longitude":"0.569104"},"context":"","outcome_status":null,"persistent_id":"","id":65560386,"location_subtype":"","month":"2018-06"},{"category":"anti-social-behaviour","location_type":"Force","location":{"latitude":"51.391394","street":{"id":847111,"name":"On or near Parr Avenue"},"longitude":"0.556027"},"context":"","outcome_status":null,"persistent_id":"","id":65560412,"location_subtype":"","month":"2018-06"},{"category":"anti-social-behaviour","location_type":"Force","location":{"latitude":"51.390601","street":{"id":847189,"name":"On or near Church Path"},"longitude":"0.559361"},"context":"","outcome_status":null,"persistent_id":"","id":65560110,"location_subtype":"","month":"2018-06"},{"category":"anti-social-behaviour","location_type":"Force","location":{"latitude":"51.389232","street":{"id":847280,"name":"On or near Brompton Road"},"longitude":"0.542524"},"context":"","outcome_status":null,"persistent_id":"","id":65560198,"location_subtype":"","month":"2018-06"},{"category":"anti-social-behaviour","location_type":"Force","location":{"latitude":"51.388499","street":{"id":847102,"name":"On or near Croombridge Drive"},"longitude":"0.569104"},"context":"","outcome_status":null,"persistent_id":"","id":65558997,"location_subtype":"","month":"2018-06"},{"category":"anti-social-behaviour","location_type":"Force","location":{"latitude":"51.387411","street":{"id":847220,"name":"On or near Shopping Area"},"longitude":"0.546879"},"context":"","outcome_status":null,"persistent_id":"","id":65559535,"location_subtype":"","month":"2018-06"},{"category":"anti-social-behaviour","location_type":"Force","location":{"latitude":"51.390212","street":{"id":847202,"name":"On or near Otway Street"},"longitude":"0.549995"},"context":"","outcome_status":null,"persistent_id":"","id":65559923,"location_subtype":"","month":"2018-06"},{"category":"anti-social-behaviour","location_type":"Force","location":{"latitude":"51.390564","street":{"id":847267,"name":"On or near Mill Road"},"longitude":"0.542497"},"context":"","outcome_status":null,"persistent_id":"","id":65560468,"location_subtype":"","month":"2018-06"},{"category":"anti-social-behaviour","location_type":"Force","location":{"latitude":"51.392785","street":{"id":847109,"name":"On or near Waterside Lane"},"longitude":"0.569287"},"context":"","outcome_status":null,"persistent_id":"","id":65560775,"location_subtype":"","month":"2018-06"},{"category":"anti-social-behaviour","location_type":"Force","location":{"latitude":"51.388853","street":{"id":847103,"name":"On or near Copperhouse Lane"},"longitude":"0.581227"},"context":"","outcome_status":null,"persistent_id":"","id":65560780,"location_subtype":"","month":"2018-06"},{"category":"anti-social-behaviour","location_type":"Force","location":{"latitude":"51.388479","street":{"id":847176,"name":"On or near Portland Road"},"longitude":"0.560608"},"context":"","outcome_status":null,"persistent_id":"","id":65560800,"location_subtype":"","month":"2018-06"},{"category":"anti-social-behaviour","location_type":"Force","location":{"latitude":"51.388909","street":{"id":847178,"name":"On or near Oak Avenue"},"longitude":"0.561466"},"context":"","outcome_status":null,"persistent_id":"","id":65560801,"location_subtype":"","month":"2018-06"},{"category":"anti-social-behaviour","location_type":"Force","location":{"latitude":"51.390321","street":{"id":847206,"name":"On or near Jubilee Terrace"},"longitude":"0.545833"},"context":"","outcome_status":null,"persistent_id":"","id":65560816,"location_subtype":"","month":"2018-06"},{"category":"anti-social-behaviour","location_type":"Force","location":{"latitude":"51.387628","street":{"id":847186,"name":"On or near Freesia Close"},"longitude":"0.564125"},"context":"","outcome_status":null,"persistent_id":"","id":65560818,"location_subtype":"","month":"2018-06"},{"category":"anti-social-behaviour","location_type":"Force","location":{"latitude":"51.392171","street":{"id":847167,"name":"On or near Layfield Road"},"longitude":"0.565730"},"context":"","outcome_status":null,"persistent_id":"","id":65560828,"location_subtype":"","month":"2018-06"},{"category":"anti-social-behaviour","location_type":"Force","location":{"latitude":"51.390995","street":{"id":847218,"name":"On or near Burnt Oak Terrace"},"longitude":"0.550786"},"context":"","outcome_status":null,"persistent_id":"","id":65560601,"location_subtype":"","month":"2018-06"},{"category":"anti-social-behaviour","location_type":"Force","location":{"latitude":"51.387758","street":{"id":847105,"name":"On or near Coniston Close"},"longitude":"0.572958"},"context":"","outcome_status":null,"persistent_id":"","id":65559865,"location_subtype":"","month":"2018-06"},{"category":"anti-social-behaviour","location_type":"Force","location":{"latitude":"51.387228","street":{"id":847184,"name":"On or near Granville Road"},"longitude":"0.559805"},"context":"","outcome_status":null,"persistent_id":"","id":65559880,"location_subtype":"","month":"2018-06"},{"category":"anti-social-behaviour","location_type":"Force","location":{"latitude":"51.387228","street":{"id":847184,"name":"On or near Granville Road"},"longitude":"0.559805"},"context":"","outcome_status":null,"persistent_id":"","id":65559990,"location_subtype":"","month":"2018-06"},{"category":"anti-social-behaviour","location_type":"Force","location":{"latitude":"51.389089","street":{"id":847168,"name":"On or near Castlemaine Avenue"},"longitude":"0.566004"},"context":"","outcome_status":null,"persistent_id":"","id":65559992,"location_subtype":"","month":"2018-06"},{"category":"anti-social-behaviour","location_type":"Force","location":{"latitude":"51.387411","street":{"id":847220,"name":"On or near Shopping Area"},"longitude":"0.546879"},"context":"","outcome_status":null,"persistent_id":"","id":65560031,"location_subtype":"","month":"2018-06"},{"category":"anti-social-behaviour","location_type":"Force","location":{"latitude":"51.387411","street":{"id":847220,"name":"On or near Shopping Area"},"longitude":"0.546879"},"context":"","outcome_status":null,"persistent_id":"","id":65560673,"location_subtype":"","month":"2018-06"},{"category":"anti-social-behaviour","location_type":"Force","location":{"latitude":"51.387411","street":{"id":847220,"name":"On or near Shopping Area"},"longitude":"0.546879"},"context":"","outcome_status":null,"persistent_id":"","id":65560676,"location_subtype":"","month":"2018-06"},{"category":"anti-social-behaviour","location_type":"Force","location":{"latitude":"51.392551","street":{"id":847079,"name":"On or near Mariners View"},"longitude":"0.568095"},"context":"","outcome_status":null,"persistent_id":"","id":65560964,"location_subtype":"","month":"2018-06"},{"category":"anti-social-behaviour","location_type":"Force","location":{"latitude":"51.387676","street":{"id":847293,"name":"On or near Further\/higher Educational Building"},"longitude":"0.544205"},"context":"","outcome_status":null,"persistent_id":"","id":65560712,"location_subtype":"","month":"2018-06"},{"category":"anti-social-behaviour","location_type":"Force","location":{"latitude":"51.392785","street":{"id":847109,"name":"On or near Waterside Lane"},"longitude":"0.569287"},"context":"","outcome_status":null,"persistent_id":"","id":65560728,"location_subtype":"","month":"2018-06"},{"category":"anti-social-behaviour","location_type":"Force","location":{"latitude":"51.388226","street":{"id":847196,"name":"On or near West Street"},"longitude":"0.551179"},"context":"","outcome_status":null,"persistent_id":"","id":65560748,"location_subtype":"","month":"2018-06"},{"category":"anti-social-behaviour","location_type":"Force","location":{"latitude":"51.391394","street":{"id":847111,"name":"On or near Parr Avenue"},"longitude":"0.556027"},"context":"","outcome_status":null,"persistent_id":"","id":65559425,"location_subtype":"","month":"2018-06"},{"category":"anti-social-behaviour","location_type":"Force","location":{"latitude":"51.388938","street":{"id":847286,"name":"On or near Arden Street"},"longitude":"0.543629"},"context":"","outcome_status":null,"persistent_id":"","id":65559429,"location_subtype":"","month":"2018-06"},{"category":"anti-social-behaviour","location_type":"Force","location":{"latitude":"51.387228","street":{"id":847184,"name":"On or near Granville Road"},"longitude":"0.559805"},"context":"","outcome_status":null,"persistent_id":"","id":65560288,"location_subtype":"","month":"2018-06"},{"category":"anti-social-behaviour","location_type":"Force","location":{"latitude":"51.385000","street":{"id":845830,"name":"On or near Tangmere Close"},"longitude":"0.570374"},"context":"","outcome_status":null,"persistent_id":"","id":65560338,"location_subtype":"","month":"2018-06"},{"category":"anti-social-behaviour","location_type":"Force","location":{"latitude":"51.388631","street":{"id":847187,"name":"On or near Firethorn Close"},"longitude":"0.563520"},"context":"","outcome_status":null,"persistent_id":"","id":65560418,"location_subtype":"","month":"2018-06"},{"category":"anti-social-behaviour","location_type":"Force","location":{"latitude":"51.391394","street":{"id":847111,"name":"On or near Parr Avenue"},"longitude":"0.556027"},"context":"","outcome_status":null,"persistent_id":"","id":65560660,"location_subtype":"","month":"2018-06"},{"category":"anti-social-behaviour","location_type":"Force","location":{"latitude":"51.391394","street":{"id":847111,"name":"On or near Parr Avenue"},"longitude":"0.556027"},"context":"","outcome_status":null,"persistent_id":"","id":65560449,"location_subtype":"","month":"2018-06"},{"category":"anti-social-behaviour","location_type":"Force","location":{"latitude":"51.387894","street":{"id":847179,"name":"On or near Maple Avenue"},"longitude":"0.561840"},"context":"","outcome_status":null,"persistent_id":"","id":65560852,"location_subtype":"","month":"2018-06"},{"category":"anti-social-behaviour","location_type":"Force","location":{"latitude":"51.383676","street":{"id":845872,"name":"On or near Yokosuka Way"},"longitude":"0.577026"},"context":"","outcome_status":null,"persistent_id":"","id":65560860,"location_subtype":"","month":"2018-06"},{"category":"anti-social-behaviour","location_type":"Force","location":{"latitude":"51.392785","street":{"id":847109,"name":"On or near Waterside Lane"},"longitude":"0.569287"},"context":"","outcome_status":null,"persistent_id":"","id":65560865,"location_subtype":"","month":"2018-06"},{"category":"anti-social-behaviour","location_type":"Force","location":{"latitude":"51.392551","street":{"id":847079,"name":"On or near Mariners View"},"longitude":"0.568095"},"context":"","outcome_status":null,"persistent_id":"","id":65560933,"location_subtype":"","month":"2018-06"},{"category":"anti-social-behaviour","location_type":"Force","location":{"latitude":"51.391394","street":{"id":847111,"name":"On or near Parr Avenue"},"longitude":"0.556027"},"context":"","outcome_status":null,"persistent_id":"","id":65561264,"location_subtype":"","month":"2018-06"},{"category":"anti-social-behaviour","location_type":"Force","location":{"latitude":"51.391810","street":{"id":847128,"name":"On or near Trinity Road"},"longitude":"0.545556"},"context":"","outcome_status":null,"persistent_id":"","id":65561288,"location_subtype":"","month":"2018-06"},{"category":"anti-social-behaviour","location_type":"Force","location":{"latitude":"51.392785","street":{"id":847109,"name":"On or near Waterside Lane"},"longitude":"0.569287"},"context":"","outcome_status":null,"persistent_id":"","id":65560988,"location_subtype":"","month":"2018-06"},{"category":"anti-social-behaviour","location_type":"Force","location":{"latitude":"51.386867","street":{"id":847210,"name":"On or near High Street"},"longitude":"0.548329"},"context":"","outcome_status":null,"persistent_id":"","id":65558751,"location_subtype":"","month":"2018-06"},{"category":"anti-social-behaviour","location_type":"Force","location":{"latitude":"51.391394","street":{"id":847111,"name":"On or near Parr Avenue"},"longitude":"0.556027"},"context":"","outcome_status":null,"persistent_id":"","id":65560878,"location_subtype":"","month":"2018-06"},{"category":"anti-social-behaviour","location_type":"Force","location":{"latitude":"51.390561","street":{"id":847193,"name":"On or near Parking Area"},"longitude":"0.546752"},"context":"","outcome_status":null,"persistent_id":"","id":65561032,"location_subtype":"","month":"2018-06"},{"category":"anti-social-behaviour","location_type":"Force","location":{"latitude":"51.391394","street":{"id":847111,"name":"On or near Parr Avenue"},"longitude":"0.556027"},"context":"","outcome_status":null,"persistent_id":"","id":65561109,"location_subtype":"","month":"2018-06"},{"category":"anti-social-behaviour","location_type":"Force","location":{"latitude":"51.387411","street":{"id":847220,"name":"On or near Shopping Area"},"longitude":"0.546879"},"context":"","outcome_status":null,"persistent_id":"","id":65558530,"location_subtype":"","month":"2018-06"},{"category":"anti-social-behaviour","location_type":"Force","location":{"latitude":"51.393033","street":{"id":847146,"name":"On or near Lincoln Road"},"longitude":"0.551805"},"context":"","outcome_status":null,"persistent_id":"","id":65558928,"location_subtype":"","month":"2018-06"},{"category":"anti-social-behaviour","location_type":"Force","location":{"latitude":"51.391873","street":{"id":847119,"name":"On or near Church Street"},"longitude":"0.560841"},"context":"","outcome_status":null,"persistent_id":"","id":65559269,"location_subtype":"","month":"2018-06"},{"category":"anti-social-behaviour","location_type":"Force","location":{"latitude":"51.390321","street":{"id":847206,"name":"On or near Jubilee Terrace"},"longitude":"0.545833"},"context":"","outcome_status":null,"persistent_id":"","id":65559594,"location_subtype":"","month":"2018-06"},{"category":"anti-social-behaviour","location_type":"Force","location":{"latitude":"51.392543","street":{"id":847157,"name":"On or near Devonshire Road"},"longitude":"0.550326"},"context":"","outcome_status":null,"persistent_id":"","id":65559615,"location_subtype":"","month":"2018-06"},{"category":"anti-social-behaviour","location_type":"Force","location":{"latitude":"51.391394","street":{"id":847111,"name":"On or near Parr Avenue"},"longitude":"0.556027"},"context":"","outcome_status":null,"persistent_id":"","id":65559624,"location_subtype":"","month":"2018-06"},{"category":"anti-social-behaviour","location_type":"Force","location":{"latitude":"51.390540","street":{"id":847185,"name":"On or near Gillingham Green"},"longitude":"0.560939"},"context":"","outcome_status":null,"persistent_id":"","id":65559631,"location_subtype":"","month":"2018-06"},{"category":"anti-social-behaviour","location_type":"Force","location":{"latitude":"51.391394","street":{"id":847111,"name":"On or near Parr Avenue"},"longitude":"0.556027"},"context":"","outcome_status":null,"persistent_id":"","id":65559372,"location_subtype":"","month":"2018-06"},{"category":"anti-social-behaviour","location_type":"Force","location":{"latitude":"51.390178","street":{"id":847257,"name":"On or near Arden Street"},"longitude":"0.544545"},"context":"","outcome_status":null,"persistent_id":"","id":65558507,"location_subtype":"","month":"2018-06"},{"category":"anti-social-behaviour","location_type":"Force","location":{"latitude":"51.387411","street":{"id":847220,"name":"On or near Shopping Area"},"longitude":"0.546879"},"context":"","outcome_status":null,"persistent_id":"","id":65559391,"location_subtype":"","month":"2018-06"},{"category":"anti-social-behaviour","location_type":"Force","location":{"latitude":"51.395314","street":{"id":847140,"name":"On or near Pier Approach Road"},"longitude":"0.551932"},"context":"","outcome_status":null,"persistent_id":"","id":65559939,"location_subtype":"","month":"2018-06"},{"category":"anti-social-behaviour","location_type":"Force","location":{"latitude":"51.388682","street":{"id":847205,"name":"On or near King Street"},"longitude":"0.549235"},"context":"","outcome_status":null,"persistent_id":"","id":65559941,"location_subtype":"","month":"2018-06"},{"category":"anti-social-behaviour","location_type":"Force","location":{"latitude":"51.391873","street":{"id":847119,"name":"On or near Church Street"},"longitude":"0.560841"},"context":"","outcome_status":null,"persistent_id":"","id":65559681,"location_subtype":"","month":"2018-06"},{"category":"anti-social-behaviour","location_type":"Force","location":{"latitude":"51.391394","street":{"id":847111,"name":"On or near Parr Avenue"},"longitude":"0.556027"},"context":"","outcome_status":null,"persistent_id":"","id":65559701,"location_subtype":"","month":"2018-06"},{"category":"anti-social-behaviour","location_type":"Force","location":{"latitude":"51.387411","street":{"id":847220,"name":"On or near Shopping Area"},"longitude":"0.546879"},"context":"","outcome_status":null,"persistent_id":"","id":65559720,"location_subtype":"","month":"2018-06"},{"category":"anti-social-behaviour","location_type":"Force","location":{"latitude":"51.390601","street":{"id":847189,"name":"On or near Church Path"},"longitude":"0.559361"},"context":"","outcome_status":null,"persistent_id":"","id":65559723,"location_subtype":"","month":"2018-06"},{"category":"anti-social-behaviour","location_type":"Force","location":{"latitude":"51.387807","street":{"id":847172,"name":"On or near The Vineries"},"longitude":"0.563747"},"context":"","outcome_status":null,"persistent_id":"","id":65559757,"location_subtype":"","month":"2018-06"},{"category":"anti-social-behaviour","location_type":"Force","location":{"latitude":"51.386131","street":{"id":845831,"name":"On or near Odo Rise"},"longitude":"0.577409"},"context":"","outcome_status":null,"persistent_id":"","id":65559821,"location_subtype":"","month":"2018-06"},{"category":"anti-social-behaviour","location_type":"Force","location":{"latitude":"51.386131","street":{"id":845831,"name":"On or near Odo Rise"},"longitude":"0.577409"},"context":"","outcome_status":null,"persistent_id":"","id":65558693,"location_subtype":"","month":"2018-06"},{"category":"anti-social-behaviour","location_type":"Force","location":{"latitude":"51.387411","street":{"id":847220,"name":"On or near Shopping Area"},"longitude":"0.546879"},"context":"","outcome_status":null,"persistent_id":"","id":65558826,"location_subtype":"","month":"2018-06"},{"category":"anti-social-behaviour","location_type":"Force","location":{"latitude":"51.391139","street":{"id":847116,"name":"On or near Holly Close"},"longitude":"0.561073"},"context":"","outcome_status":null,"persistent_id":"","id":65558894,"location_subtype":"","month":"2018-06"},{"category":"bicycle-theft","location_type":"Force","location":{"latitude":"51.389140","street":{"id":847198,"name":"On or near Victoria Street"},"longitude":"0.550482"},"context":"","outcome_status":{"category":"Under investigation","date":"2018-06"},"persistent_id":"21847b8208ad35c89e55fecd3738ae5803761f432aba0d99e40ee2792608b748","id":65567368,"location_subtype":"","month":"2018-06"},{"category":"bicycle-theft","location_type":"Force","location":{"latitude":"51.391471","street":{"id":847078,"name":"On or near Owens Way"},"longitude":"0.572189"},"context":"","outcome_status":{"category":"Investigation complete; no suspect identified","date":"2018-06"},"persistent_id":"a997eb16c52836a80e66da7cfe36e3fd6484bb09ce07f2e8f832a79aa1432c00","id":65562943,"location_subtype":"","month":"2018-06"},{"category":"bicycle-theft","location_type":"Force","location":{"latitude":"51.393703","street":{"id":847223,"name":"On or near Medway Road"},"longitude":"0.543706"},"context":"","outcome_status":{"category":"Investigation complete; no suspect identified","date":"2018-06"},"persistent_id":"2591c26750d89c9eb1f62e126814793a92e01ea528b4d3fa6093d78d87100194","id":65562564,"location_subtype":"","month":"2018-06"},{"category":"bicycle-theft","location_type":"Force","location":{"latitude":"51.386867","street":{"id":847210,"name":"On or near High Street"},"longitude":"0.548329"},"context":"","outcome_status":{"category":"Investigation complete; no suspect identified","date":"2018-06"},"persistent_id":"da28e8fbd4bfb254b1ffdffcd9ebb43d9d8fa9425f4c9777c626d80714b87a23","id":65561748,"location_subtype":"","month":"2018-06"},{"category":"bicycle-theft","location_type":"Force","location":{"latitude":"51.393703","street":{"id":847223,"name":"On or near Medway Road"},"longitude":"0.543706"},"context":"","outcome_status":{"category":"Investigation complete; no suspect identified","date":"2018-06"},"persistent_id":"ccc84849de1d2af89431ffa85562eb3929afb016357d773aaa0c6ef506f49498","id":65561670,"location_subtype":"","month":"2018-06"},{"category":"bicycle-theft","location_type":"Force","location":{"latitude":"51.393703","street":{"id":847223,"name":"On or near Medway Road"},"longitude":"0.543706"},"context":"","outcome_status":{"category":"Investigation complete; no suspect identified","date":"2018-06"},"persistent_id":"4dcdb2b3f9ce61b3590a4350f135b1c58f3d41f72e6a24a72c4e461ed2ea1f2d","id":65562201,"location_subtype":"","month":"2018-06"},{"category":"bicycle-theft","location_type":"Force","location":{"latitude":"51.386714","street":{"id":845744,"name":"On or near High Street"},"longitude":"0.548723"},"context":"","outcome_status":{"category":"Investigation complete; no suspect identified","date":"2018-06"},"persistent_id":"11d94bb30dda884cc11af6d8cb757b050b65e4511888d8e169e53f45b70d882e","id":65565494,"location_subtype":"","month":"2018-06"},{"category":"bicycle-theft","location_type":"Force","location":{"latitude":"51.390564","street":{"id":847267,"name":"On or near Mill Road"},"longitude":"0.542497"},"context":"","outcome_status":{"category":"Under investigation","date":"2018-06"},"persistent_id":"0c7ddcf58f832fc4894c712c8133a5dfb0672319d7e37d30dbbec75b04756484","id":65563894,"location_subtype":"","month":"2018-06"},{"category":"bicycle-theft","location_type":"Force","location":{"latitude":"51.386714","street":{"id":845744,"name":"On or near High Street"},"longitude":"0.548723"},"context":"","outcome_status":{"category":"Unable to prosecute suspect","date":"2018-06"},"persistent_id":"5e55d256b2ec41b2792cf019a0265e51849a1837bb82f8992300aaf69c3f28dd","id":65567266,"location_subtype":"","month":"2018-06"},{"category":"burglary","location_type":"Force","location":{"latitude":"51.390275","street":{"id":847275,"name":"On or near Fox Street"},"longitude":"0.543775"},"context":"","outcome_status":{"category":"Under investigation","date":"2018-06"},"persistent_id":"5f39b3c583f6de9bd57751b4519e2b32c303a67a901a76fb996b382c7da806b6","id":65567748,"location_subtype":"","month":"2018-06"},{"category":"burglary","location_type":"Force","location":{"latitude":"51.390561","street":{"id":847193,"name":"On or near Parking Area"},"longitude":"0.546752"},"context":"","outcome_status":{"category":"Under investigation","date":"2018-06"},"persistent_id":"901b5eaa51705a0634a7540723a31dd1a86111c212bb21bdbc17972d1624fff5","id":65563593,"location_subtype":"","month":"2018-06"},{"category":"burglary","location_type":"Force","location":{"latitude":"51.393385","street":{"id":847110,"name":"On or near St Albans Close"},"longitude":"0.559947"},"context":"","outcome_status":{"category":"Under investigation","date":"2018-06"},"persistent_id":"78fe79e366bbb3a90c09f19517a4b683ec13811da40f5b3e35446d090ea1023f","id":65566010,"location_subtype":"","month":"2018-06"},{"category":"burglary","location_type":"Force","location":{"latitude":"51.389232","street":{"id":847280,"name":"On or near Brompton Road"},"longitude":"0.542524"},"context":"","outcome_status":{"category":"Investigation complete; no suspect identified","date":"2018-06"},"persistent_id":"e1f121789e7cda38d4bb7685eefe597f3a5cb4e5d41d19e1f0391b86c859e7c0","id":65561850,"location_subtype":"","month":"2018-06"},{"category":"burglary","location_type":"Force","location":{"latitude":"51.392590","street":{"id":847129,"name":"On or near The Ridgeway"},"longitude":"0.547756"},"context":"","outcome_status":{"category":"Under investigation","date":"2018-06"},"persistent_id":"bbb208b6252864f5e5c98459f9aeffd23dc9305780ce0fcf82d087a2da55336c","id":65566519,"location_subtype":"","month":"2018-06"},{"category":"burglary","location_type":"Force","location":{"latitude":"51.392590","street":{"id":847129,"name":"On or near The Ridgeway"},"longitude":"0.547756"},"context":"","outcome_status":{"category":"Investigation complete; no suspect identified","date":"2018-06"},"persistent_id":"42b7f0a78fd09af7ac1298abd31b0fc07281dc70567dd971eb0c4251189524c0","id":65562700,"location_subtype":"","month":"2018-06"},{"category":"burglary","location_type":"Force","location":{"latitude":"51.390776","street":{"id":847200,"name":"On or near Saunders Street"},"longitude":"0.546807"},"context":"","outcome_status":{"category":"Investigation complete; no suspect identified","date":"2018-06"},"persistent_id":"ba6ff67a21e57cd57c777bbff028d53ece2f62091a2fcc983b5ea18cf1b884bf","id":65567029,"location_subtype":"","month":"2018-06"},{"category":"burglary","location_type":"Force","location":{"latitude":"51.390275","street":{"id":847275,"name":"On or near Fox Street"},"longitude":"0.543775"},"context":"","outcome_status":{"category":"Awaiting court outcome","date":"2018-06"},"persistent_id":"012dd0293735fdbd2bc2c777b082b6305ac68fbc51dc89f3d2c850a301ae97b5","id":65564540,"location_subtype":"","month":"2018-06"},{"category":"burglary","location_type":"Force","location":{"latitude":"51.385698","street":{"id":845829,"name":"On or near Thirlmere Close"},"longitude":"0.572584"},"context":"","outcome_status":{"category":"Investigation complete; no suspect identified","date":"2018-06"},"persistent_id":"b1a60d1560b77cd872165c8917ef1f3e43bbd66bebb2c9616424bc59d422d595","id":65563429,"location_subtype":"","month":"2018-06"},{"category":"burglary","location_type":"Force","location":{"latitude":"51.395488","street":{"id":847121,"name":"On or near Blake Avenue"},"longitude":"0.555910"},"context":"","outcome_status":{"category":"Investigation complete; no suspect identified","date":"2018-06"},"persistent_id":"5ac7ba4b679dff326b44213e6241abb92b3d83dc3e9bbcceaf38671cc0bb01e1","id":65564307,"location_subtype":"","month":"2018-06"},{"category":"burglary","location_type":"Force","location":{"latitude":"51.395488","street":{"id":847121,"name":"On or near Blake Avenue"},"longitude":"0.555910"},"context":"","outcome_status":{"category":"Investigation complete; no suspect identified","date":"2018-06"},"persistent_id":"1dba2a439aa6de7a1fa5584dfe6e65ea38b7f0a18069317c3780cb548962802c","id":65563574,"location_subtype":"","month":"2018-06"},{"category":"burglary","location_type":"Force","location":{"latitude":"51.391221","street":{"id":847216,"name":"On or near Chatsworth Road"},"longitude":"0.549103"},"context":"","outcome_status":{"category":"Investigation complete; no suspect identified","date":"2018-06"},"persistent_id":"2dc753c68c021e58f3d8e9330c0ef274326a35ff4d9d148fd6ea74a0b2cadcb4","id":65561635,"location_subtype":"","month":"2018-06"},{"category":"burglary","location_type":"Force","location":{"latitude":"51.393622","street":{"id":847255,"name":"On or near Burn's Road"},"longitude":"0.544952"},"context":"","outcome_status":{"category":"Investigation complete; no suspect identified","date":"2018-06"},"persistent_id":"57d2f9fa95be65f82e9bc4516ef0c225688c6ca2b9adf77f7a897fb5a15c167a","id":65563060,"location_subtype":"","month":"2018-06"},{"category":"burglary","location_type":"Force","location":{"latitude":"51.390212","street":{"id":847202,"name":"On or near Otway Street"},"longitude":"0.549995"},"context":"","outcome_status":{"category":"Investigation complete; no suspect identified","date":"2018-06"},"persistent_id":"e11454bededb5dac5208d762643e0799a124a6ba3579708242cc22dd37f1b0f4","id":65561851,"location_subtype":"","month":"2018-06"},{"category":"criminal-damage-arson","location_type":"Force","location":{"latitude":"51.390561","street":{"id":847193,"name":"On or near Parking Area"},"longitude":"0.546752"},"context":"","outcome_status":{"category":"Investigation complete; no suspect identified","date":"2018-06"},"persistent_id":"012195fe2006af9cfd56316bf0bbc26dec66b7bf1d9fdc99c68b9e72486467e8","id":65563487,"location_subtype":"","month":"2018-06"},{"category":"criminal-damage-arson","location_type":"Force","location":{"latitude":"51.390212","street":{"id":847202,"name":"On or near Otway Street"},"longitude":"0.549995"},"context":"","outcome_status":{"category":"Investigation complete; no suspect identified","date":"2018-06"},"persistent_id":"4c0d22c2c5619ac90606acbb5e6733152388055c7ade1b3436e9ed8efec06908","id":65561582,"location_subtype":"","month":"2018-06"},{"category":"criminal-damage-arson","location_type":"Force","location":{"latitude":"51.390564","street":{"id":847267,"name":"On or near Mill Road"},"longitude":"0.542497"},"context":"","outcome_status":{"category":"Unable to prosecute suspect","date":"2018-06"},"persistent_id":"01d40feb83c6520d2f81e057994a1ca7217f4e3511ff19d14abe7be09ac75185","id":65567493,"location_subtype":"","month":"2018-06"},{"category":"criminal-damage-arson","location_type":"Force","location":{"latitude":"51.392551","street":{"id":847079,"name":"On or near Mariners View"},"longitude":"0.568095"},"context":"","outcome_status":{"category":"Under investigation","date":"2018-06"},"persistent_id":"89dfc79fb2ec4bb539452322f3ec32192f9fb3f0b38d21655afe21776b1d99ba","id":65567639,"location_subtype":"","month":"2018-06"},{"category":"criminal-damage-arson","location_type":"Force","location":{"latitude":"51.392543","street":{"id":847157,"name":"On or near Devonshire Road"},"longitude":"0.550326"},"context":"","outcome_status":{"category":"Investigation complete; no suspect identified","date":"2018-06"},"persistent_id":"08b039db3366f894e73092cc5117f7dbcae5ee19b3801bdfdec8cf3531653f34","id":65567066,"location_subtype":"","month":"2018-06"},{"category":"criminal-damage-arson","location_type":"Force","location":{"latitude":"51.388028","street":{"id":847084,"name":"On or near Yokosuka Way"},"longitude":"0.578277"},"context":"","outcome_status":{"category":"Unable to prosecute suspect","date":"2018-06"},"persistent_id":"8b111565300eaac37dfc5e44ade0887cddc0178ba2df586c0451143e012b78b2","id":65563242,"location_subtype":"","month":"2018-06"},{"category":"criminal-damage-arson","location_type":"Force","location":{"latitude":"51.392971","street":{"id":828314,"name":"On or near Corporation Road"},"longitude":"0.555856"},"context":"","outcome_status":{"category":"Investigation complete; no suspect identified","date":"2018-06"},"persistent_id":"a3bbe0bc29926887ca95fd93b16df0afc5f0230abf9190613629849fc6306a3c","id":65566238,"location_subtype":"","month":"2018-06"},{"category":"criminal-damage-arson","location_type":"Force","location":{"latitude":"51.391980","street":{"id":847114,"name":"On or near Leet Close"},"longitude":"0.561723"},"context":"","outcome_status":{"category":"Investigation complete; no suspect identified","date":"2018-06"},"persistent_id":"d2c110a6b307c9d82d9c834fdb6f890318bd25a3c73071b5b0bf21fa5696111c","id":65564765,"location_subtype":"","month":"2018-06"},{"category":"criminal-damage-arson","location_type":"Force","location":{"latitude":"51.386967","street":{"id":847197,"name":"On or near Victoria Street"},"longitude":"0.549513"},"context":"","outcome_status":{"category":"Investigation complete; no suspect identified","date":"2018-06"},"persistent_id":"c1189116a5d3fc59a1576ebcc27366a17e583f8d763c76641b741f255ed63bac","id":65563572,"location_subtype":"","month":"2018-06"},{"category":"criminal-damage-arson","location_type":"Force","location":{"latitude":"51.389818","street":{"id":847212,"name":"On or near East Street"},"longitude":"0.551972"},"context":"","outcome_status":{"category":"Unable to prosecute suspect","date":"2018-06"},"persistent_id":"afb00c60cca86f13ebd15fe226532ce4c112f4dba1ef6647dad35f9eb2b8db87","id":65562926,"location_subtype":"","month":"2018-06"},{"category":"criminal-damage-arson","location_type":"Force","location":{"latitude":"51.386714","street":{"id":845744,"name":"On or near High Street"},"longitude":"0.548723"},"context":"","outcome_status":{"category":"Investigation complete; no suspect identified","date":"2018-06"},"persistent_id":"e3e9442dc1c2052f19ac0d232351ae511b7e706d7043e994ab0ce13bc85312f9","id":65563624,"location_subtype":"","month":"2018-06"},{"category":"criminal-damage-arson","location_type":"Force","location":{"latitude":"51.389625","street":{"id":847097,"name":"On or near Grange Road"},"longitude":"0.567414"},"context":"","outcome_status":{"category":"Under investigation","date":"2018-06"},"persistent_id":"1a52a8c0a924aeb96ec1a8f0d82bc452c4de821f4b1001c6838ad15f2f19198a","id":65565882,"location_subtype":"","month":"2018-06"},{"category":"criminal-damage-arson","location_type":"Force","location":{"latitude":"51.390561","street":{"id":847193,"name":"On or near Parking Area"},"longitude":"0.546752"},"context":"","outcome_status":{"category":"Under investigation","date":"2018-06"},"persistent_id":"fd672e8462f5fef1e8b69c6660897eea0d616a22af1509d96eb7469b9f186aa2","id":65564400,"location_subtype":"","month":"2018-06"},{"category":"criminal-damage-arson","location_type":"Force","location":{"latitude":"51.388682","street":{"id":847205,"name":"On or near King Street"},"longitude":"0.549235"},"context":"","outcome_status":{"category":"Investigation complete; no suspect identified","date":"2018-06"},"persistent_id":"283fd4b7663ac285a4b5f2d138cfc9ce14209d0c908f97f20734f63edeeab6bd","id":65561731,"location_subtype":"","month":"2018-06"},{"category":"criminal-damage-arson","location_type":"Force","location":{"latitude":"51.388682","street":{"id":847205,"name":"On or near King Street"},"longitude":"0.549235"},"context":"","outcome_status":{"category":"Investigation complete; no suspect identified","date":"2018-06"},"persistent_id":"88854525e136119c1801ba436747edc23940e934cc12246751a15bf98a835917","id":65561733,"location_subtype":"","month":"2018-06"},{"category":"criminal-damage-arson","location_type":"Force","location":{"latitude":"51.391221","street":{"id":847216,"name":"On or near Chatsworth Road"},"longitude":"0.549103"},"context":"","outcome_status":{"category":"Investigation complete; no suspect identified","date":"2018-06"},"persistent_id":"6ffc0e8dbe396340dccac0d3ddce275ae555a6de1aaeeae3d6edadd151cbf64d","id":65567960,"location_subtype":"","month":"2018-06"},{"category":"criminal-damage-arson","location_type":"Force","location":{"latitude":"51.388909","street":{"id":847178,"name":"On or near Oak Avenue"},"longitude":"0.561466"},"context":"","outcome_status":{"category":"Investigation complete; no suspect identified","date":"2018-06"},"persistent_id":"e3544fc53aadcbcc595119314196bcfa04aa208296ba059e53ddc73666439f3a","id":65565377,"location_subtype":"","month":"2018-06"},{"category":"criminal-damage-arson","location_type":"Force","location":{"latitude":"51.393385","street":{"id":847110,"name":"On or near St Albans Close"},"longitude":"0.559947"},"context":"","outcome_status":{"category":"Unable to prosecute suspect","date":"2018-06"},"persistent_id":"0e2f0b2a8393f7bd887072612f2675519eefea634178543b2a5d338126e4b0d8","id":65565323,"location_subtype":"","month":"2018-06"},{"category":"criminal-damage-arson","location_type":"Force","location":{"latitude":"51.390561","street":{"id":847193,"name":"On or near Parking Area"},"longitude":"0.546752"},"context":"","outcome_status":{"category":"Investigation complete; no suspect identified","date":"2018-06"},"persistent_id":"8a83f4cd36ba79e115bbd2a5cf1a9f194578498231f29da5d696021a7f964632","id":65563864,"location_subtype":"","month":"2018-06"},{"category":"criminal-damage-arson","location_type":"Force","location":{"latitude":"51.387305","street":{"id":847208,"name":"On or near Jeffery Street"},"longitude":"0.549676"},"context":"","outcome_status":{"category":"Investigation complete; no suspect identified","date":"2018-06"},"persistent_id":"d1014ece1504303542bf18d774d45108a1bb0082151633cb813b3d0aa2d66532","id":65561423,"location_subtype":"","month":"2018-06"},{"category":"criminal-damage-arson","location_type":"Force","location":{"latitude":"51.387223","street":{"id":847204,"name":"On or near King Street"},"longitude":"0.548507"},"context":"","outcome_status":{"category":"Awaiting court outcome","date":"2018-06"},"persistent_id":"1a5787b790595b7a8437d419ae2219a3dcf5fed35e62af47db40b531c3cfb252","id":65563119,"location_subtype":"","month":"2018-06"},{"category":"criminal-damage-arson","location_type":"Force","location":{"latitude":"51.388682","street":{"id":847205,"name":"On or near King Street"},"longitude":"0.549235"},"context":"","outcome_status":{"category":"Investigation complete; no suspect identified","date":"2018-06"},"persistent_id":"5649a37527ebfaf5a22011bfb7c0e603cc85ffcf57116e41e3932c06aecda4cb","id":65561734,"location_subtype":"","month":"2018-06"},{"category":"criminal-damage-arson","location_type":"Force","location":{"latitude":"51.392171","street":{"id":847167,"name":"On or near Layfield Road"},"longitude":"0.565730"},"context":"","outcome_status":{"category":"Investigation complete; no suspect identified","date":"2018-06"},"persistent_id":"d5b1e2da5b8944a4469a4f222de549348e71ab6b221df403ca924733177f16ff","id":65564360,"location_subtype":"","month":"2018-06"},{"category":"criminal-damage-arson","location_type":"Force","location":{"latitude":"51.386867","street":{"id":847210,"name":"On or near High Street"},"longitude":"0.548329"},"context":"","outcome_status":{"category":"Under investigation","date":"2018-06"},"persistent_id":"c501a6188933d627577111448ab64138516cb1036e55b05ef75dad1cd5e97b23","id":65566402,"location_subtype":"","month":"2018-06"},{"category":"criminal-damage-arson","location_type":"Force","location":{"latitude":"51.393819","street":{"id":847112,"name":"On or near Milner Road"},"longitude":"0.555328"},"context":"","outcome_status":{"category":"Under investigation","date":"2018-06"},"persistent_id":"bf8d425e91c4d7616b5ccb2c27b4be8f3b04e07571e4cc88ea0775b66aec03b5","id":65567200,"location_subtype":"","month":"2018-06"},{"category":"criminal-damage-arson","location_type":"Force","location":{"latitude":"51.393819","street":{"id":847112,"name":"On or near Milner Road"},"longitude":"0.555328"},"context":"","outcome_status":{"category":"Unable to prosecute suspect","date":"2018-06"},"persistent_id":"a73fece02df6b6775eeb5223bbea6e6481928c898e9038c728e2440a42ebcff2","id":65563153,"location_subtype":"","month":"2018-06"},{"category":"criminal-damage-arson","location_type":"Force","location":{"latitude":"51.391801","street":{"id":847158,"name":"On or near Cornwall Road"},"longitude":"0.550113"},"context":"","outcome_status":{"category":"Unable to prosecute suspect","date":"2018-06"},"persistent_id":"92bdf77b394ede295088ca7db72de3e66952309a733ce15c54c82e731a3a05ef","id":65566411,"location_subtype":"","month":"2018-06"},{"category":"criminal-damage-arson","location_type":"Force","location":{"latitude":"51.390561","street":{"id":847193,"name":"On or near Parking Area"},"longitude":"0.546752"},"context":"","outcome_status":{"category":"Investigation complete; no suspect identified","date":"2018-06"},"persistent_id":"174a744b4ac14c64eb1f9e79ce183f42a2e620e336b3271a46ce0d073b1c34a3","id":65564025,"location_subtype":"","month":"2018-06"},{"category":"criminal-damage-arson","location_type":"Force","location":{"latitude":"51.390564","street":{"id":847267,"name":"On or near Mill Road"},"longitude":"0.542497"},"context":"","outcome_status":{"category":"Under investigation","date":"2018-06"},"persistent_id":"0c1a40f2c9db1933821f4e15a1692882944e8b60cb5598982adf01a1421cd958","id":65565831,"location_subtype":"","month":"2018-06"},{"category":"criminal-damage-arson","location_type":"Force","location":{"latitude":"51.389140","street":{"id":847198,"name":"On or near Victoria Street"},"longitude":"0.550482"},"context":"","outcome_status":{"category":"Under investigation","date":"2018-06"},"persistent_id":"6bd07e772f8dbc9acc3fd40f605e4957ebffa288bd246900123b3cc355595125","id":65567594,"location_subtype":"","month":"2018-06"},{"category":"criminal-damage-arson","location_type":"Force","location":{"latitude":"51.386867","street":{"id":847210,"name":"On or near High Street"},"longitude":"0.548329"},"context":"","outcome_status":{"category":"Unable to prosecute suspect","date":"2018-06"},"persistent_id":"d6be52f80ea50934a9f558b6e42821914a61ec4f493b37b8f4d1e328f0dc4bdc","id":65562288,"location_subtype":"","month":"2018-06"},{"category":"criminal-damage-arson","location_type":"Force","location":{"latitude":"51.387247","street":{"id":847201,"name":"On or near Railway Street"},"longitude":"0.552332"},"context":"","outcome_status":{"category":"Investigation complete; no suspect identified","date":"2018-06"},"persistent_id":"08204e7362818e8fdcd1d07ef04b0a9135d362f043b59ae1f63b9c746b69dfd9","id":65566632,"location_subtype":"","month":"2018-06"},{"category":"criminal-damage-arson","location_type":"Force","location":{"latitude":"51.388948","street":{"id":847211,"name":"On or near Gardiner Street"},"longitude":"0.548171"},"context":"","outcome_status":{"category":"Investigation complete; no suspect identified","date":"2018-06"},"persistent_id":"a2f127699a629782eef7bb2b5f4f3af1e8b3ef25089b36eebe77a97656cf411b","id":65567491,"location_subtype":"","month":"2018-06"},{"category":"criminal-damage-arson","location_type":"Force","location":{"latitude":"51.388445","street":{"id":847183,"name":"On or near Greenfield Road"},"longitude":"0.556768"},"context":"","outcome_status":{"category":"Investigation complete; no suspect identified","date":"2018-06"},"persistent_id":"b8ea3723000e9a62a9f920fc6fc9bbe2f23a394d71ac7dbfd2295254843007f1","id":65564897,"location_subtype":"","month":"2018-06"},{"category":"criminal-damage-arson","location_type":"Force","location":{"latitude":"51.390564","street":{"id":847267,"name":"On or near Mill Road"},"longitude":"0.542497"},"context":"","outcome_status":{"category":"Unable to prosecute suspect","date":"2018-06"},"persistent_id":"e7a0a7e12f5e4ba47f593d940aa15f734afa6b18ec6ca8827f3bc2fe1826a487","id":65568005,"location_subtype":"","month":"2018-06"},{"category":"drugs","location_type":"Force","location":{"latitude":"51.394468","street":{"id":847155,"name":"On or near Exmouth Road"},"longitude":"0.547443"},"context":"","outcome_status":{"category":"Awaiting court outcome","date":"2018-06"},"persistent_id":"d0a091c1b81f8af453958ecaa8e5c132691722d2f9f0aa9bcdb4004c3c2a2f0e","id":65568261,"location_subtype":"","month":"2018-06"},{"category":"drugs","location_type":"Force","location":{"latitude":"51.387628","street":{"id":847186,"name":"On or near Freesia Close"},"longitude":"0.564125"},"context":"","outcome_status":{"category":"Under investigation","date":"2018-06"},"persistent_id":"c7b57369c2c0da0edea45f4f0a4643a15230a2c43e1fe3133e7ca3387a0070c8","id":65562741,"location_subtype":"","month":"2018-06"},{"category":"drugs","location_type":"Force","location":{"latitude":"51.393622","street":{"id":847255,"name":"On or near Burn's Road"},"longitude":"0.544952"},"context":"","outcome_status":{"category":"Under investigation","date":"2018-06"},"persistent_id":"0278674872bdb69752c29b1b980ad58ac53a929255c314d32133c2430af551dc","id":65564240,"location_subtype":"","month":"2018-06"},{"category":"drugs","location_type":"Force","location":{"latitude":"51.387223","street":{"id":847204,"name":"On or near King Street"},"longitude":"0.548507"},"context":"","outcome_status":{"category":"Investigation complete; no suspect identified","date":"2018-06"},"persistent_id":"63ee4c0f758f74d5141b04b175e814113f64a8a849907c3966a0a09b4612616a","id":65561391,"location_subtype":"","month":"2018-06"},{"category":"drugs","location_type":"Force","location":{"latitude":"51.395488","street":{"id":847121,"name":"On or near Blake Avenue"},"longitude":"0.555910"},"context":"","outcome_status":{"category":"Investigation complete; no suspect identified","date":"2018-06"},"persistent_id":"a5193a4f641618d57a89f7963ab229d393caad166247b774e5ea87728ae65ce9","id":65563562,"location_subtype":"","month":"2018-06"},{"category":"drugs","location_type":"Force","location":{"latitude":"51.386495","street":{"id":847094,"name":"On or near Hazlemere Drive"},"longitude":"0.572341"},"context":"","outcome_status":{"category":"Awaiting court outcome","date":"2018-06"},"persistent_id":"a66b9ae838f56807b201f00b3234e645822536503e9ba4ff0575366ccd3fae0b","id":65565520,"location_subtype":"","month":"2018-06"},{"category":"drugs","location_type":"Force","location":{"latitude":"51.393385","street":{"id":847110,"name":"On or near St Albans Close"},"longitude":"0.559947"},"context":"","outcome_status":{"category":"Awaiting court outcome","date":"2018-06"},"persistent_id":"8aa528ebdd30108f9ed9d3ce59fb2c0b56b4cdac7b4c7db74496751778df3910","id":65567924,"location_subtype":"","month":"2018-06"},{"category":"drugs","location_type":"Force","location":{"latitude":"51.394468","street":{"id":847155,"name":"On or near Exmouth Road"},"longitude":"0.547443"},"context":"","outcome_status":{"category":"Awaiting court outcome","date":"2018-06"},"persistent_id":"3250783d54cd13921d711ed6d4ffbf93aabb83c7427ee18186ead56d0c4469d0","id":65568265,"location_subtype":"","month":"2018-06"},{"category":"drugs","location_type":"Force","location":{"latitude":"51.394468","street":{"id":847155,"name":"On or near Exmouth Road"},"longitude":"0.547443"},"context":"","outcome_status":{"category":"Awaiting court outcome","date":"2018-06"},"persistent_id":"068f1f0682c12706a494563bc48443ad6df4660068ba0200457775119491baf4","id":65568271,"location_subtype":"","month":"2018-06"},{"category":"other-theft","location_type":"Force","location":{"latitude":"51.388909","street":{"id":847178,"name":"On or near Oak Avenue"},"longitude":"0.561466"},"context":"","outcome_status":{"category":"Under investigation","date":"2018-06"},"persistent_id":"60b0c40bc7772e284c61d40d377d2df4faccea5baa805a3bfd791ecb4426ed3e","id":65563809,"location_subtype":"","month":"2018-06"},{"category":"other-theft","location_type":"Force","location":{"latitude":"51.387110","street":{"id":847177,"name":"On or near Poppy Close"},"longitude":"0.562299"},"context":"","outcome_status":{"category":"Under investigation","date":"2018-06"},"persistent_id":"1194e814c31f29a7a2c2c93c18397409e90267994b6d4f5c67ed3fe70934606d","id":65567946,"location_subtype":"","month":"2018-06"},{"category":"other-theft","location_type":"Force","location":{"latitude":"51.395488","street":{"id":847121,"name":"On or near Blake Avenue"},"longitude":"0.555910"},"context":"","outcome_status":{"category":"Under investigation","date":"2018-06"},"persistent_id":"ce308fe5e6d0eb742b18c6a02a3d9953a562c863d2d8413f0872841f542da9b4","id":65566965,"location_subtype":"","month":"2018-06"},{"category":"other-theft","location_type":"Force","location":{"latitude":"51.388948","street":{"id":847211,"name":"On or near Gardiner Street"},"longitude":"0.548171"},"context":"","outcome_status":{"category":"Under investigation","date":"2018-06"},"persistent_id":"8e7a9e883ed42386f47488c92de5162b389d677295238642d458c50e2ba1a9b8","id":65567736,"location_subtype":"","month":"2018-06"},{"category":"other-theft","location_type":"Force","location":{"latitude":"51.388948","street":{"id":847211,"name":"On or near Gardiner Street"},"longitude":"0.548171"},"context":"","outcome_status":{"category":"Under investigation","date":"2018-06"},"persistent_id":"61daf9f2d68bb654088d423a5712eafea344cf78fc3892ea8705367f34556874","id":65567732,"location_subtype":"","month":"2018-06"},{"category":"other-theft","location_type":"Force","location":{"latitude":"51.388226","street":{"id":847196,"name":"On or near West Street"},"longitude":"0.551179"},"context":"","outcome_status":{"category":"Under investigation","date":"2018-06"},"persistent_id":"2b0c76dafdf4dcb2ff3271a4a3572957fb73c7a7091936a1d5c11db77a906112","id":65567510,"location_subtype":"","month":"2018-06"},{"category":"other-theft","location_type":"Force","location":{"latitude":"51.395488","street":{"id":847121,"name":"On or near Blake Avenue"},"longitude":"0.555910"},"context":"","outcome_status":{"category":"Unable to prosecute suspect","date":"2018-06"},"persistent_id":"e38b559848a06d64561b1055496894498488c071d316ff61d0a0d1f51a209d57","id":65567358,"location_subtype":"","month":"2018-06"},{"category":"other-theft","location_type":"Force","location":{"latitude":"51.391810","street":{"id":847128,"name":"On or near Trinity Road"},"longitude":"0.545556"},"context":"","outcome_status":{"category":"Unable to prosecute suspect","date":"2018-06"},"persistent_id":"fe214504fb52fbf03cbc75202b4539cd9d67c14da65bc60924961731506cd600","id":65566978,"location_subtype":"","month":"2018-06"},{"category":"other-theft","location_type":"Force","location":{"latitude":"51.392176","street":{"id":847120,"name":"On or near Christmas Street"},"longitude":"0.562209"},"context":"","outcome_status":{"category":"Investigation complete; no suspect identified","date":"2018-06"},"persistent_id":"d7c739a142c6919bb24690dce160e6a492d47eb19bbac4c5231da9ddb7e774be","id":65566921,"location_subtype":"","month":"2018-06"},{"category":"other-theft","location_type":"Force","location":{"latitude":"51.387856","street":{"id":847096,"name":"On or near Grange Road"},"longitude":"0.575867"},"context":"","outcome_status":{"category":"Unable to prosecute suspect","date":"2018-06"},"persistent_id":"d8459fc9f1b19b2e93e28de7455575c8457d3994d16603c09fb9d7727d257511","id":65564487,"location_subtype":"","month":"2018-06"},{"category":"other-theft","location_type":"Force","location":{"latitude":"51.390564","street":{"id":847267,"name":"On or near Mill Road"},"longitude":"0.542497"},"context":"","outcome_status":{"category":"Investigation complete; no suspect identified","date":"2018-06"},"persistent_id":"877f40ab5f51472a4395ddce8b1a56c1858e9be163384aa8d7ff4ef44627600a","id":65564426,"location_subtype":"","month":"2018-06"},{"category":"other-theft","location_type":"Force","location":{"latitude":"51.390212","street":{"id":847202,"name":"On or near Otway Street"},"longitude":"0.549995"},"context":"","outcome_status":{"category":"Unable to prosecute suspect","date":"2018-06"},"persistent_id":"1050c9ae9567577724278f93014972a05e5830f62902c0c63650feb2085e1fa5","id":65561754,"location_subtype":"","month":"2018-06"},{"category":"other-theft","location_type":"Force","location":{"latitude":"51.387228","street":{"id":847184,"name":"On or near Granville Road"},"longitude":"0.559805"},"context":"","outcome_status":{"category":"Under investigation","date":"2018-06"},"persistent_id":"29d270bd3c50aa7118d8398b4c50b39c6d0a03868fd0a06b65f841bff2eb93ec","id":65568111,"location_subtype":"","month":"2018-06"},{"category":"other-theft","location_type":"Force","location":{"latitude":"51.387856","street":{"id":847096,"name":"On or near Grange Road"},"longitude":"0.575867"},"context":"","outcome_status":{"category":"Unable to prosecute suspect","date":"2018-06"},"persistent_id":"335108436c59fdab96899c7c5dea8732abaf847159f88b3a4207bc83b260561e","id":65565342,"location_subtype":"","month":"2018-06"},{"category":"other-theft","location_type":"Force","location":{"latitude":"51.386714","street":{"id":845744,"name":"On or near High Street"},"longitude":"0.548723"},"context":"","outcome_status":{"category":"Investigation complete; no suspect identified","date":"2018-06"},"persistent_id":"20e2556f2abdc4074f660571debff94a66a4d5eb4215782c9f86d41d7436f372","id":65564822,"location_subtype":"","month":"2018-06"},{"category":"other-theft","location_type":"Force","location":{"latitude":"51.387856","street":{"id":847096,"name":"On or near Grange Road"},"longitude":"0.575867"},"context":"","outcome_status":{"category":"Investigation complete; no suspect identified","date":"2018-06"},"persistent_id":"37d6c096f8a387ef984bd15d652869566ead775738050a5645da95ffd47ed89c","id":65562188,"location_subtype":"","month":"2018-06"},{"category":"other-theft","location_type":"Force","location":{"latitude":"51.387903","street":{"id":847175,"name":"On or near Railway Street"},"longitude":"0.556896"},"context":"","outcome_status":{"category":"Investigation complete; no suspect identified","date":"2018-06"},"persistent_id":"a4687007552cf0af402b6a6bd7da285aa782329068bc59762cb7f37a7ed25814","id":65568523,"location_subtype":"","month":"2018-06"},{"category":"other-theft","location_type":"Force","location":{"latitude":"51.387628","street":{"id":847186,"name":"On or near Freesia Close"},"longitude":"0.564125"},"context":"","outcome_status":{"category":"Investigation complete; no suspect identified","date":"2018-06"},"persistent_id":"ca28c9819c1fd472a73a62a37efa429a5894cf4fdfda1bafa918ecb267014142","id":65562458,"location_subtype":"","month":"2018-06"},{"category":"other-theft","location_type":"Force","location":{"latitude":"51.391810","street":{"id":847128,"name":"On or near Trinity Road"},"longitude":"0.545556"},"context":"","outcome_status":{"category":"Under investigation","date":"2018-06"},"persistent_id":"8a5aeefc46c40588da4ab4b94d39b201cd9635caabacf659d32b60679db1afa1","id":65565650,"location_subtype":"","month":"2018-06"},{"category":"possession-of-weapons","location_type":"Force","location":{"latitude":"51.388626","street":{"id":847191,"name":"On or near Bluebell Close"},"longitude":"0.564555"},"context":"","outcome_status":{"category":"Action to be taken by another organisation","date":"2018-06"},"persistent_id":"88ca94433614b71dc199a31a7a04d1eaec53620b8194369fb19078f0dfeae2b2","id":65564328,"location_subtype":"","month":"2018-06"},{"category":"public-order","location_type":"Force","location":{"latitude":"51.386714","street":{"id":845744,"name":"On or near High Street"},"longitude":"0.548723"},"context":"","outcome_status":{"category":"Investigation complete; no suspect identified","date":"2018-06"},"persistent_id":"1a5736d397b88fccc917ca81aa0dc83cb196f97df57a78bbbc6edebaafd8db8f","id":65566241,"location_subtype":"","month":"2018-06"},{"category":"public-order","location_type":"Force","location":{"latitude":"51.387700","street":{"id":847108,"name":"On or near Archbishops Crescent"},"longitude":"0.575211"},"context":"","outcome_status":{"category":"Under investigation","date":"2018-06"},"persistent_id":"7770da8c76058cd7cf3febc66e020a8166b6313207c75ca11f83ba5936ad79c5","id":65564932,"location_subtype":"","month":"2018-06"},{"category":"public-order","location_type":"Force","location":{"latitude":"51.388954","street":{"id":847209,"name":"On or near James Street"},"longitude":"0.547051"},"context":"","outcome_status":{"category":"Under investigation","date":"2018-06"},"persistent_id":"509dde1dfcad16fd5070258f9502d159ca6b9141901e295271dc5ff5da02d266","id":65564939,"location_subtype":"","month":"2018-06"},{"category":"public-order","location_type":"Force","location":{"latitude":"51.389818","street":{"id":847212,"name":"On or near East Street"},"longitude":"0.551972"},"context":"","outcome_status":{"category":"Under investigation","date":"2018-06"},"persistent_id":"cfcbfc333f5208ff8af412e2526ff85a202bc4e3d78445dc35f78af0774d84a5","id":65565208,"location_subtype":"","month":"2018-06"},{"category":"public-order","location_type":"Force","location":{"latitude":"51.389749","street":{"id":847215,"name":"On or near Cross Street"},"longitude":"0.546462"},"context":"","outcome_status":{"category":"Under investigation","date":"2018-06"},"persistent_id":"5c06689bd98acd39ffdbbe1dd21ca78df3f4d6936f13efc282c2a1a02729c789","id":65564072,"location_subtype":"","month":"2018-06"},{"category":"public-order","location_type":"Force","location":{"latitude":"51.392495","street":{"id":847122,"name":"On or near Baron Close"},"longitude":"0.562011"},"context":"","outcome_status":{"category":"Investigation complete; no suspect identified","date":"2018-06"},"persistent_id":"6b247eb7d3e34ce11a33417f701918a6efbb12b1eb963b2384f72080e8fc1fbf","id":65565442,"location_subtype":"","month":"2018-06"},{"category":"public-order","location_type":"Force","location":{"latitude":"51.386867","street":{"id":847210,"name":"On or near High Street"},"longitude":"0.548329"},"context":"","outcome_status":{"category":"Under investigation","date":"2018-06"},"persistent_id":"641bf186be042d17d9d8190ebdca0010933c00ef5c23c9a6537277a2b7292269","id":65567388,"location_subtype":"","month":"2018-06"},{"category":"public-order","location_type":"Force","location":{"latitude":"51.387223","street":{"id":847204,"name":"On or near King Street"},"longitude":"0.548507"},"context":"","outcome_status":{"category":"Unable to prosecute suspect","date":"2018-06"},"persistent_id":"ad8defa67bf059969a77ddc1734ab268a0e1c04fb749324c530ad2807bc98d97","id":65566235,"location_subtype":"","month":"2018-06"},{"category":"public-order","location_type":"Force","location":{"latitude":"51.388938","street":{"id":847286,"name":"On or near Arden Street"},"longitude":"0.543629"},"context":"","outcome_status":{"category":"Under investigation","date":"2018-06"},"persistent_id":"a599c6376245f13518cea2b3dfadd423fdab1f27a99f034290c8da967d7d59a3","id":65562950,"location_subtype":"","month":"2018-06"},{"category":"public-order","location_type":"Force","location":{"latitude":"51.386495","street":{"id":847094,"name":"On or near Hazlemere Drive"},"longitude":"0.572341"},"context":"","outcome_status":{"category":"Under investigation","date":"2018-06"},"persistent_id":"af59327ad489ae07caf3889c639893fbf2fbe2aea3d1a10943772e7a58424f0b","id":65567290,"location_subtype":"","month":"2018-06"},{"category":"public-order","location_type":"Force","location":{"latitude":"51.392543","street":{"id":847157,"name":"On or near Devonshire Road"},"longitude":"0.550326"},"context":"","outcome_status":{"category":"Investigation complete; no suspect identified","date":"2018-06"},"persistent_id":"c6495374d72719733848cc55c9f5eddde78bb80a4e1e892dc84d6518246e6c2e","id":65567069,"location_subtype":"","month":"2018-06"},{"category":"public-order","location_type":"Force","location":{"latitude":"51.387929","street":{"id":847190,"name":"On or near Cavendish Avenue"},"longitude":"0.560261"},"context":"","outcome_status":{"category":"Under investigation","date":"2018-06"},"persistent_id":"38e3145fd0e5d54fb80eab3e7638d243a15dd6b70693efa6e49670be4e0bbb61","id":65567429,"location_subtype":"","month":"2018-06"},{"category":"public-order","location_type":"Force","location":{"latitude":"51.386867","street":{"id":847210,"name":"On or near High Street"},"longitude":"0.548329"},"context":"","outcome_status":{"category":"Under investigation","date":"2018-06"},"persistent_id":"c050ea72fe64e4566c5d3d903f188ccaba7e2d3b8f5fc223afc8784da72b6427","id":65567693,"location_subtype":"","month":"2018-06"},{"category":"public-order","location_type":"Force","location":{"latitude":"51.386714","street":{"id":845744,"name":"On or near High Street"},"longitude":"0.548723"},"context":"","outcome_status":{"category":"Investigation complete; no suspect identified","date":"2018-06"},"persistent_id":"ab7972836894d19da71c543ae29a5c1c91c9840ef73177465c2861c522e29bc8","id":65563625,"location_subtype":"","month":"2018-06"},{"category":"public-order","location_type":"Force","location":{"latitude":"51.387228","street":{"id":847184,"name":"On or near Granville Road"},"longitude":"0.559805"},"context":"","outcome_status":{"category":"Under investigation","date":"2018-06"},"persistent_id":"eb0eeee05bf99f4e8cee00579e74772376d88c35f057816da5eff9f5df2665ce","id":65568021,"location_subtype":"","month":"2018-06"},{"category":"public-order","location_type":"Force","location":{"latitude":"51.391394","street":{"id":847111,"name":"On or near Parr Avenue"},"longitude":"0.556027"},"context":"","outcome_status":{"category":"Under investigation","date":"2018-06"},"persistent_id":"2192afed7333422d8816f1aa0f7eea8bdef146a68071730c3f3ce15d33c1cce0","id":65568148,"location_subtype":"","month":"2018-06"},{"category":"public-order","location_type":"Force","location":{"latitude":"51.391545","street":{"id":847132,"name":"On or near St George's Road"},"longitude":"0.546576"},"context":"","outcome_status":{"category":"Investigation complete; no suspect identified","date":"2018-06"},"persistent_id":"e428b33863cbf781502a9aec59d45abbb17f7f8ae56ca48cfdf56091ced102a9","id":65561394,"location_subtype":"","month":"2018-06"},{"category":"public-order","location_type":"Force","location":{"latitude":"51.390842","street":{"id":847217,"name":"On or near Burnt Oak Terrace"},"longitude":"0.552877"},"context":"","outcome_status":{"category":"Unable to prosecute suspect","date":"2018-06"},"persistent_id":"95e29af314ec1562d038b01934227150658f13cdd5765e71c1782a28fc0f9f60","id":65561500,"location_subtype":"","month":"2018-06"},{"category":"public-order","location_type":"Force","location":{"latitude":"51.387411","street":{"id":847220,"name":"On or near Shopping Area"},"longitude":"0.546879"},"context":"","outcome_status":{"category":"Investigation complete; no suspect identified","date":"2018-06"},"persistent_id":"281ba3a5813683f973eeb309afb12a5e1d4bddb84aecafe100be16cc0b18b3ad","id":65562609,"location_subtype":"","month":"2018-06"},{"category":"public-order","location_type":"Force","location":{"latitude":"51.394220","street":{"id":847134,"name":"On or near Sidney Road"},"longitude":"0.549298"},"context":"","outcome_status":{"category":"Unable to prosecute suspect","date":"2018-06"},"persistent_id":"4df3cee7179d71249c5895222c42988ea303e4a92894613435194e46cf32ade3","id":65562090,"location_subtype":"","month":"2018-06"},{"category":"public-order","location_type":"Force","location":{"latitude":"51.386867","street":{"id":847210,"name":"On or near High Street"},"longitude":"0.548329"},"context":"","outcome_status":{"category":"Unable to prosecute suspect","date":"2018-06"},"persistent_id":"848726c0f5331d597b834b6c87aef72829fabb971116e9ff0e595fbe082e1270","id":65561853,"location_subtype":"","month":"2018-06"},{"category":"public-order","location_type":"Force","location":{"latitude":"51.387758","street":{"id":847105,"name":"On or near Coniston Close"},"longitude":"0.572958"},"context":"","outcome_status":{"category":"Investigation complete; no suspect identified","date":"2018-06"},"persistent_id":"e0a8004428d54a434af02ce56847da80a9d8b0fa461335d69d095ca79160978b","id":65562476,"location_subtype":"","month":"2018-06"},{"category":"public-order","location_type":"Force","location":{"latitude":"51.394661","street":{"id":847142,"name":"On or near Medway Road"},"longitude":"0.546419"},"context":"","outcome_status":{"category":"Unable to prosecute suspect","date":"2018-06"},"persistent_id":"ef83eda816ab9ad42f8726443b999aaf891910537ed45b8899c8e1fc5971b18d","id":65562678,"location_subtype":"","month":"2018-06"},{"category":"public-order","location_type":"Force","location":{"latitude":"51.388938","street":{"id":847286,"name":"On or near Arden Street"},"longitude":"0.543629"},"context":"","outcome_status":{"category":"Investigation complete; no suspect identified","date":"2018-06"},"persistent_id":"d6d88b22b19ea41627b0e680f1b2877881fccc2479266611dbd9569ddd55ea98","id":65561952,"location_subtype":"","month":"2018-06"},{"category":"public-order","location_type":"Force","location":{"latitude":"51.386714","street":{"id":845744,"name":"On or near High Street"},"longitude":"0.548723"},"context":"","outcome_status":{"category":"Investigation complete; no suspect identified","date":"2018-06"},"persistent_id":"cee38689b4728b07f0fc6f697c4bde50f3a3214ceeac674f2d5d1f57f61d71e8","id":65563626,"location_subtype":"","month":"2018-06"},{"category":"public-order","location_type":"Force","location":{"latitude":"51.386867","street":{"id":847210,"name":"On or near High Street"},"longitude":"0.548329"},"context":"","outcome_status":{"category":"Action to be taken by another organisation","date":"2018-06"},"persistent_id":"3d3eba1e9658ee3f37a00acf6969bc45228a915ff1b7e3fec3bad7c6dcb12e16","id":65563212,"location_subtype":"","month":"2018-06"},{"category":"public-order","location_type":"Force","location":{"latitude":"51.386867","street":{"id":847210,"name":"On or near High Street"},"longitude":"0.548329"},"context":"","outcome_status":{"category":"Investigation complete; no suspect identified","date":"2018-06"},"persistent_id":"293f24e63c2e83f6c20c2460effa30ecfc2b1ad498062a5e17cdc6ed67ba649a","id":65563993,"location_subtype":"","month":"2018-06"},{"category":"public-order","location_type":"Force","location":{"latitude":"51.386867","street":{"id":847210,"name":"On or near High Street"},"longitude":"0.548329"},"context":"","outcome_status":{"category":"Unable to prosecute suspect","date":"2018-06"},"persistent_id":"548fe49b7dc6e7bedae498704419009d0340ea28824c0056a43a26377c0c28d4","id":65564053,"location_subtype":"","month":"2018-06"},{"category":"public-order","location_type":"Force","location":{"latitude":"51.393385","street":{"id":847110,"name":"On or near St Albans Close"},"longitude":"0.559947"},"context":"","outcome_status":{"category":"Investigation complete; no suspect identified","date":"2018-06"},"persistent_id":"64e556a9e5f801bcd58bd6aab17be5107d49a5f8fb5b1003419b65a9feb6e98d","id":65564063,"location_subtype":"","month":"2018-06"},{"category":"public-order","location_type":"Force","location":{"latitude":"51.389014","street":{"id":847203,"name":"On or near Kingswood Road"},"longitude":"0.552559"},"context":"","outcome_status":{"category":"Action to be taken by another organisation","date":"2018-06"},"persistent_id":"733627df0d5248c98bdaa88c3e87d6e5e089521f6fbd477e1bcf7f49b3ea9cbf","id":65564232,"location_subtype":"","month":"2018-06"},{"category":"public-order","location_type":"Force","location":{"latitude":"51.391810","street":{"id":847128,"name":"On or near Trinity Road"},"longitude":"0.545556"},"context":"","outcome_status":{"category":"Investigation complete; no suspect identified","date":"2018-06"},"persistent_id":"f85ca0f8587338c963f754b29d74a900c6684f3867a79c9a950915f48406c27b","id":65565949,"location_subtype":"","month":"2018-06"},{"category":"public-order","location_type":"Force","location":{"latitude":"51.387305","street":{"id":847208,"name":"On or near Jeffery Street"},"longitude":"0.549676"},"context":"","outcome_status":{"category":"Investigation complete; no suspect identified","date":"2018-06"},"persistent_id":"7b304d5aa1b7b90362c5397a6da33f12a771a4c94258b8df6fc2254383339789","id":65564614,"location_subtype":"","month":"2018-06"},{"category":"public-order","location_type":"Force","location":{"latitude":"51.392495","street":{"id":847122,"name":"On or near Baron Close"},"longitude":"0.562011"},"context":"","outcome_status":{"category":"Action to be taken by another organisation","date":"2018-06"},"persistent_id":"cddaaa64a1b70300dcdf8a33ddb6ae05aad8a165596014edfd0966049b472edc","id":65563756,"location_subtype":"","month":"2018-06"},{"category":"public-order","location_type":"Force","location":{"latitude":"51.386714","street":{"id":845744,"name":"On or near High Street"},"longitude":"0.548723"},"context":"","outcome_status":{"category":"Investigation complete; no suspect identified","date":"2018-06"},"persistent_id":"52a00c4a1262b89664a729e7377b9e91ce18a9555646b563184f5559dedc26c4","id":65561769,"location_subtype":"","month":"2018-06"},{"category":"public-order","location_type":"Force","location":{"latitude":"51.388657","street":{"id":847285,"name":"On or near Britton Street"},"longitude":"0.543325"},"context":"","outcome_status":{"category":"Unable to prosecute suspect","date":"2018-06"},"persistent_id":"b0b6956ad596f4b31e4fd73f74037896806c08028379ac8f4a7df34c9b96a9c7","id":65565628,"location_subtype":"","month":"2018-06"},{"category":"public-order","location_type":"Force","location":{"latitude":"51.386867","street":{"id":847210,"name":"On or near High Street"},"longitude":"0.548329"},"context":"","outcome_status":{"category":"Unable to prosecute suspect","date":"2018-06"},"persistent_id":"a430e4dff4ef09fdb9b6e304a4027739f2f40bbb25913fbc12e151c3d02bd47d","id":65566172,"location_subtype":"","month":"2018-06"},{"category":"public-order","location_type":"Force","location":{"latitude":"51.390212","street":{"id":847202,"name":"On or near Otway Street"},"longitude":"0.549995"},"context":"","outcome_status":{"category":"Action to be taken by another organisation","date":"2018-06"},"persistent_id":"6925130188162e6a9204d501ec8b5fda27c90a6381b10c30cc2a3bb671faafe9","id":65566500,"location_subtype":"","month":"2018-06"},{"category":"public-order","location_type":"Force","location":{"latitude":"51.392495","street":{"id":847122,"name":"On or near Baron Close"},"longitude":"0.562011"},"context":"","outcome_status":{"category":"Investigation complete; no suspect identified","date":"2018-06"},"persistent_id":"f12b4482bd7906d82626d2db83616e434b127a3dc27a2f0cb6b3dc8e7b205626","id":65566550,"location_subtype":"","month":"2018-06"},{"category":"public-order","location_type":"Force","location":{"latitude":"51.390275","street":{"id":847275,"name":"On or near Fox Street"},"longitude":"0.543775"},"context":"","outcome_status":{"category":"Investigation complete; no suspect identified","date":"2018-06"},"persistent_id":"ab8afc98454999f1b3292c886553a4dfde1367903b60fa4b0b2f65c13763d187","id":65566922,"location_subtype":"","month":"2018-06"},{"category":"public-order","location_type":"Force","location":{"latitude":"51.393385","street":{"id":847110,"name":"On or near St Albans Close"},"longitude":"0.559947"},"context":"","outcome_status":{"category":"Investigation complete; no suspect identified","date":"2018-06"},"persistent_id":"bbdbeb16df515e7da1e9e6442811fbf287b01d824c8b32ff8dbddadddcf8593a","id":65567041,"location_subtype":"","month":"2018-06"},{"category":"public-order","location_type":"Force","location":{"latitude":"51.388954","street":{"id":847209,"name":"On or near James Street"},"longitude":"0.547051"},"context":"","outcome_status":{"category":"Investigation complete; no suspect identified","date":"2018-06"},"persistent_id":"cb933a0953fb85b42d4b265798efbc73d644fe59139113f06d516ba7cbfc538a","id":65567545,"location_subtype":"","month":"2018-06"},{"category":"public-order","location_type":"Force","location":{"latitude":"51.386867","street":{"id":847210,"name":"On or near High Street"},"longitude":"0.548329"},"context":"","outcome_status":{"category":"Unable to prosecute suspect","date":"2018-06"},"persistent_id":"1a5eb196248bf73d5a8629a3d5da9fbac3ba6ce70a4c2a9bead0fd7b90936131","id":65562150,"location_subtype":"","month":"2018-06"},{"category":"public-order","location_type":"Force","location":{"latitude":"51.391394","street":{"id":847111,"name":"On or near Parr Avenue"},"longitude":"0.556027"},"context":"","outcome_status":{"category":"Unable to prosecute suspect","date":"2018-06"},"persistent_id":"3ac354e7aa8837bfa03787f679ad95693b6a93dda30233017d57ddecb135fd13","id":65568140,"location_subtype":"","month":"2018-06"},{"category":"public-order","location_type":"Force","location":{"latitude":"51.391394","street":{"id":847111,"name":"On or near Parr Avenue"},"longitude":"0.556027"},"context":"","outcome_status":{"category":"Unable to prosecute suspect","date":"2018-06"},"persistent_id":"8c37241200dfa443e197431d70920c4a49b391828b29ca02f211f091dcd209eb","id":65568153,"location_subtype":"","month":"2018-06"},{"category":"public-order","location_type":"Force","location":{"latitude":"51.390561","street":{"id":847193,"name":"On or near Parking Area"},"longitude":"0.546752"},"context":"","outcome_status":{"category":"Investigation complete; no suspect identified","date":"2018-06"},"persistent_id":"64256a39c31787f57aed94d06188c134f6184d24f4042a0d5b27ee89b386776c","id":65567757,"location_subtype":"","month":"2018-06"},{"category":"public-order","location_type":"Force","location":{"latitude":"51.390561","street":{"id":847193,"name":"On or near Parking Area"},"longitude":"0.546752"},"context":"","outcome_status":{"category":"Investigation complete; no suspect identified","date":"2018-06"},"persistent_id":"c0fc7d404e5459ccc8cefb6a3100b47bbc3896997fa5b689201dbbf05b50e629","id":65562536,"location_subtype":"","month":"2018-06"},{"category":"public-order","location_type":"Force","location":{"latitude":"51.389232","street":{"id":847280,"name":"On or near Brompton Road"},"longitude":"0.542524"},"context":"","outcome_status":{"category":"Action to be taken by another organisation","date":"2018-06"},"persistent_id":"37defdf52426480d86fdf8e9676626e222d763f5929dfee278bce51740958df0","id":65562753,"location_subtype":"","month":"2018-06"},{"category":"public-order","location_type":"Force","location":{"latitude":"51.389749","street":{"id":847215,"name":"On or near Cross Street"},"longitude":"0.546462"},"context":"","outcome_status":{"category":"Action to be taken by another organisation","date":"2018-06"},"persistent_id":"570a9cb67b8d5ce10155a36e7c091f52bda462bdd9d36e69839bf8988b7a375a","id":65564075,"location_subtype":"","month":"2018-06"},{"category":"public-order","location_type":"Force","location":{"latitude":"51.392785","street":{"id":847109,"name":"On or near Waterside Lane"},"longitude":"0.569287"},"context":"","outcome_status":{"category":"Investigation complete; no suspect identified","date":"2018-06"},"persistent_id":"f287126d85a96e3422c4a3688aa0c18eaae6787e75a3a6a4e7f84e7a2a587dd7","id":65567172,"location_subtype":"","month":"2018-06"},{"category":"public-order","location_type":"Force","location":{"latitude":"51.386867","street":{"id":847210,"name":"On or near High Street"},"longitude":"0.548329"},"context":"","outcome_status":{"category":"Unable to prosecute suspect","date":"2018-06"},"persistent_id":"9d28c5a4974d3c9e74b8c1a0bd35ce8c248c0ff6d8682aeb23d18a91be0d246c","id":65564425,"location_subtype":"","month":"2018-06"},{"category":"robbery","location_type":"Force","location":{"latitude":"51.386867","street":{"id":847210,"name":"On or near High Street"},"longitude":"0.548329"},"context":"","outcome_status":{"category":"Under investigation","date":"2018-06"},"persistent_id":"a3cbccf40650fbdc525730119facf124f877962d470adebe981b965fd2c36c9f","id":65566401,"location_subtype":"","month":"2018-06"},{"category":"robbery","location_type":"Force","location":{"latitude":"51.389818","street":{"id":847212,"name":"On or near East Street"},"longitude":"0.551972"},"context":"","outcome_status":{"category":"Unable to prosecute suspect","date":"2018-06"},"persistent_id":"8e5b7c4467f2bccd2c934b01dbab1cf816bfd8d02f3ecb01c5fd32b73022ef96","id":65562770,"location_subtype":"","month":"2018-06"},{"category":"robbery","location_type":"Force","location":{"latitude":"51.386867","street":{"id":847210,"name":"On or near High Street"},"longitude":"0.548329"},"context":"","outcome_status":{"category":"Under investigation","date":"2018-06"},"persistent_id":"a9d47989c1c7afbe0ce409aa5911fcc84b567888d62413d5247e90206a1e9e5c","id":65561775,"location_subtype":"","month":"2018-06"},{"category":"robbery","location_type":"Force","location":{"latitude":"51.387247","street":{"id":847201,"name":"On or near Railway Street"},"longitude":"0.552332"},"context":"","outcome_status":{"category":"Unable to prosecute suspect","date":"2018-06"},"persistent_id":"c39305dffa3275137ec282f9b07ba6fbc446aec0993a3c3cb87ba9bc027fb15c","id":65561631,"location_subtype":"","month":"2018-06"},{"category":"robbery","location_type":"Force","location":{"latitude":"51.390776","street":{"id":847200,"name":"On or near Saunders Street"},"longitude":"0.546807"},"context":"","outcome_status":{"category":"Investigation complete; no suspect identified","date":"2018-06"},"persistent_id":"a95b6ee634f572b64714b76f218edd5f629eaa87b1bf192e5152f60a30854a2b","id":65563548,"location_subtype":"","month":"2018-06"},{"category":"robbery","location_type":"Force","location":{"latitude":"51.393385","street":{"id":847110,"name":"On or near St Albans Close"},"longitude":"0.559947"},"context":"","outcome_status":{"category":"Awaiting court outcome","date":"2018-06"},"persistent_id":"6c37765d930194b88557e54b226f9a3dc4fd6364bd2ea7110c0c38c8c61fed9c","id":65566820,"location_subtype":"","month":"2018-06"},{"category":"robbery","location_type":"Force","location":{"latitude":"51.387411","street":{"id":847220,"name":"On or near Shopping Area"},"longitude":"0.546879"},"context":"","outcome_status":{"category":"Awaiting court outcome","date":"2018-06"},"persistent_id":"67cb706daccf2a62dd44725d1f2ebbea3c731a5a58828294604955d6be0ac0db","id":65567285,"location_subtype":"","month":"2018-06"},{"category":"robbery","location_type":"Force","location":{"latitude":"51.392495","street":{"id":847122,"name":"On or near Baron Close"},"longitude":"0.562011"},"context":"","outcome_status":{"category":"Under investigation","date":"2018-06"},"persistent_id":"f3b41d9c09b0386438e2fcaf5291cae3f96d30c5b9624c2c3f8dd00570410923","id":65566904,"location_subtype":"","month":"2018-06"},{"category":"robbery","location_type":"Force","location":{"latitude":"51.386867","street":{"id":847210,"name":"On or near High Street"},"longitude":"0.548329"},"context":"","outcome_status":{"category":"Under investigation","date":"2018-06"},"persistent_id":"6ef07a107a80fa01618c4ebeb7d5f1b4036d2feaae241d368854d165b4eb7f7d","id":65567287,"location_subtype":"","month":"2018-06"},{"category":"robbery","location_type":"Force","location":{"latitude":"51.385000","street":{"id":845830,"name":"On or near Tangmere Close"},"longitude":"0.570374"},"context":"","outcome_status":{"category":"Under investigation","date":"2018-06"},"persistent_id":"3d0885c7739aadee467aa06cb79fb08b03629b956dc43cbf666bfd9e24241cd5","id":65567104,"location_subtype":"","month":"2018-06"},{"category":"shoplifting","location_type":"Force","location":{"latitude":"51.387411","street":{"id":847220,"name":"On or near Shopping Area"},"longitude":"0.546879"},"context":"","outcome_status":{"category":"Investigation complete; no suspect identified","date":"2018-06"},"persistent_id":"33885e7496efa6f8800c0fccc2fc6a9404438e146ce9355b73b2fdcf67b10b58","id":65566065,"location_subtype":"","month":"2018-06"},{"category":"shoplifting","location_type":"Force","location":{"latitude":"51.386867","street":{"id":847210,"name":"On or near High Street"},"longitude":"0.548329"},"context":"","outcome_status":{"category":"Awaiting court outcome","date":"2018-06"},"persistent_id":"6b52c0cadcab3778d71eeff69e3fe19cbf7a32a37bc9f68a278fc3967f60fb76","id":65566614,"location_subtype":"","month":"2018-06"},{"category":"shoplifting","location_type":"Force","location":{"latitude":"51.387223","street":{"id":847204,"name":"On or near King Street"},"longitude":"0.548507"},"context":"","outcome_status":{"category":"Under investigation","date":"2018-06"},"persistent_id":"82b1993f705f3cf6da25e84c0256d62cbf53a2ded5ff5f02e5e73b3605e4e72a","id":65567810,"location_subtype":"","month":"2018-06"},{"category":"shoplifting","location_type":"Force","location":{"latitude":"51.386867","street":{"id":847210,"name":"On or near High Street"},"longitude":"0.548329"},"context":"","outcome_status":{"category":"Investigation complete; no suspect identified","date":"2018-06"},"persistent_id":"77be64976a83b0994ed15db492f874f6e83792e06d7e9fa1bb4c30d0914b3d20","id":65564757,"location_subtype":"","month":"2018-06"},{"category":"shoplifting","location_type":"Force","location":{"latitude":"51.387411","street":{"id":847220,"name":"On or near Shopping Area"},"longitude":"0.546879"},"context":"","outcome_status":{"category":"Action to be taken by another organisation","date":"2018-06"},"persistent_id":"17816bb8e209de0f40c9690508715f274bd96899e52d2a3816b81cb620981d97","id":65562079,"location_subtype":"","month":"2018-06"},{"category":"shoplifting","location_type":"Force","location":{"latitude":"51.390842","street":{"id":847217,"name":"On or near Burnt Oak Terrace"},"longitude":"0.552877"},"context":"","outcome_status":{"category":"Awaiting court outcome","date":"2018-06"},"persistent_id":"faff917c9dde27dfa394b3a6a1e1fa282785f009507b29092f9c66976f163492","id":65565325,"location_subtype":"","month":"2018-06"},{"category":"shoplifting","location_type":"Force","location":{"latitude":"51.386867","street":{"id":847210,"name":"On or near High Street"},"longitude":"0.548329"},"context":"","outcome_status":{"category":"Investigation complete; no suspect identified","date":"2018-06"},"persistent_id":"561c35cfaf0b0c41197f1dc92e83632add1924c71b22c827268b21015d3ab540","id":65564136,"location_subtype":"","month":"2018-06"},{"category":"shoplifting","location_type":"Force","location":{"latitude":"51.387223","street":{"id":847204,"name":"On or near King Street"},"longitude":"0.548507"},"context":"","outcome_status":{"category":"Investigation complete; no suspect identified","date":"2018-06"},"persistent_id":"2e1588444d03b8a273756c1ad29bef99a5756b5e03e962a8b365be78d2b99c3e","id":65566337,"location_subtype":"","month":"2018-06"},{"category":"shoplifting","location_type":"Force","location":{"latitude":"51.387223","street":{"id":847204,"name":"On or near King Street"},"longitude":"0.548507"},"context":"","outcome_status":{"category":"Under investigation","date":"2018-06"},"persistent_id":"ed0b6bf6bccaca254b7d6aca67ab2cf6ce7ddeaa381605ba4514daa0ab537340","id":65567826,"location_subtype":"","month":"2018-06"},{"category":"shoplifting","location_type":"Force","location":{"latitude":"51.387411","street":{"id":847220,"name":"On or near Shopping Area"},"longitude":"0.546879"},"context":"","outcome_status":{"category":"Action to be taken by another organisation","date":"2018-06"},"persistent_id":"a74ed5fb24e72793c136420a35ecfb05df881907cfa4ac2cd4866d2a0d1f0e69","id":65566394,"location_subtype":"","month":"2018-06"},{"category":"shoplifting","location_type":"Force","location":{"latitude":"51.388481","street":{"id":847258,"name":"On or near Supermarket"},"longitude":"0.544394"},"context":"","outcome_status":{"category":"Under investigation","date":"2018-06"},"persistent_id":"c51e46115986480297f6973e33668fe7b7bbede8cfb7ad18953e543a4a9214e0","id":65565857,"location_subtype":"","month":"2018-06"},{"category":"shoplifting","location_type":"Force","location":{"latitude":"51.387223","street":{"id":847204,"name":"On or near King Street"},"longitude":"0.548507"},"context":"","outcome_status":{"category":"Awaiting court outcome","date":"2018-06"},"persistent_id":"e31e957074426be1558cb65b097fa9b816251710df7c1bc5a6da13128737b3d5","id":65567288,"location_subtype":"","month":"2018-06"},{"category":"shoplifting","location_type":"Force","location":{"latitude":"51.387411","street":{"id":847220,"name":"On or near Shopping Area"},"longitude":"0.546879"},"context":"","outcome_status":{"category":"Investigation complete; no suspect identified","date":"2018-06"},"persistent_id":"e9c80850cc6bf8218bd87c47d23bc5fffe3ba41aaf530ee58819057a4aa20f89","id":65563696,"location_subtype":"","month":"2018-06"},{"category":"shoplifting","location_type":"Force","location":{"latitude":"51.386867","street":{"id":847210,"name":"On or near High Street"},"longitude":"0.548329"},"context":"","outcome_status":{"category":"Awaiting court outcome","date":"2018-06"},"persistent_id":"c508983b408eebe8a1e1e7d1d55a211b518628ff847d911bf25d04b3f2e0beaf","id":65566618,"location_subtype":"","month":"2018-06"},{"category":"shoplifting","location_type":"Force","location":{"latitude":"51.387223","street":{"id":847204,"name":"On or near King Street"},"longitude":"0.548507"},"context":"","outcome_status":{"category":"Investigation complete; no suspect identified","date":"2018-06"},"persistent_id":"e48d9755352f0409c5315571b1d7c24a00a840ef9834ad37c3fcd7bd5437f5b8","id":65563640,"location_subtype":"","month":"2018-06"},{"category":"shoplifting","location_type":"Force","location":{"latitude":"51.387411","street":{"id":847220,"name":"On or near Shopping Area"},"longitude":"0.546879"},"context":"","outcome_status":{"category":"Action to be taken by another organisation","date":"2018-06"},"persistent_id":"ae5d385467f06acbfd2a06082b553c3e75ee41fef233f842327a20f6c48eeba1","id":65564907,"location_subtype":"","month":"2018-06"},{"category":"shoplifting","location_type":"Force","location":{"latitude":"51.386867","street":{"id":847210,"name":"On or near High Street"},"longitude":"0.548329"},"context":"","outcome_status":{"category":"Under investigation","date":"2018-06"},"persistent_id":"ce8de98a3557b587166a21fc785e994158d5c555d5244a473acb51e7552d91a4","id":65565012,"location_subtype":"","month":"2018-06"},{"category":"shoplifting","location_type":"Force","location":{"latitude":"51.386867","street":{"id":847210,"name":"On or near High Street"},"longitude":"0.548329"},"context":"","outcome_status":{"category":"Investigation complete; no suspect identified","date":"2018-06"},"persistent_id":"4a0ddd9dbc0f6b72e12a8ae261779bff767bf3eb119d953adc4f302f6c73dcc9","id":65563249,"location_subtype":"","month":"2018-06"},{"category":"shoplifting","location_type":"Force","location":{"latitude":"51.387411","street":{"id":847220,"name":"On or near Shopping Area"},"longitude":"0.546879"},"context":"","outcome_status":{"category":"Under investigation","date":"2018-06"},"persistent_id":"eabbdc60b7772f973e20f0274265a0662d305a65f6a33571d6b9928d2569acba","id":65566351,"location_subtype":"","month":"2018-06"},{"category":"shoplifting","location_type":"Force","location":{"latitude":"51.386867","street":{"id":847210,"name":"On or near High Street"},"longitude":"0.548329"},"context":"","outcome_status":{"category":"Action to be taken by another organisation","date":"2018-06"},"persistent_id":"f5a2d8cc4aefdacaa329180cf72c6aa67908864b18dd72b08a1f06db1b1e1260","id":65564649,"location_subtype":"","month":"2018-06"},{"category":"shoplifting","location_type":"Force","location":{"latitude":"51.395488","street":{"id":847121,"name":"On or near Blake Avenue"},"longitude":"0.555910"},"context":"","outcome_status":{"category":"Investigation complete; no suspect identified","date":"2018-06"},"persistent_id":"60b6198cde2fbcddadd2865e5214bd16809c4800e2b698007432bc2cc8338d31","id":65564761,"location_subtype":"","month":"2018-06"},{"category":"shoplifting","location_type":"Force","location":{"latitude":"51.386867","street":{"id":847210,"name":"On or near High Street"},"longitude":"0.548329"},"context":"","outcome_status":{"category":"Investigation complete; no suspect identified","date":"2018-06"},"persistent_id":"e9334ae935076c0efec6c960b024c78a14c4bf4f133a2058a248676f8bcdc3f1","id":65562779,"location_subtype":"","month":"2018-06"},{"category":"shoplifting","location_type":"Force","location":{"latitude":"51.387223","street":{"id":847204,"name":"On or near King Street"},"longitude":"0.548507"},"context":"","outcome_status":{"category":"Investigation complete; no suspect identified","date":"2018-06"},"persistent_id":"e0cb876019aff187e232c88528e8ad8eee2722268e9b5b85166cd5006cd12efc","id":65563639,"location_subtype":"","month":"2018-06"},{"category":"theft-from-the-person","location_type":"Force","location":{"latitude":"51.386867","street":{"id":847210,"name":"On or near High Street"},"longitude":"0.548329"},"context":"","outcome_status":{"category":"Investigation complete; no suspect identified","date":"2018-06"},"persistent_id":"42be6d274ab8d0d70524b7eb8625fd5272e974d0fe705834b02878597b49f6af","id":65566748,"location_subtype":"","month":"2018-06"},{"category":"theft-from-the-person","location_type":"Force","location":{"latitude":"51.387247","street":{"id":847201,"name":"On or near Railway Street"},"longitude":"0.552332"},"context":"","outcome_status":{"category":"Investigation complete; no suspect identified","date":"2018-06"},"persistent_id":"d3005617cc7200ac22b62db08dea66ed5ae6185d4f2ac73f22a13c3178f7e8e3","id":65566761,"location_subtype":"","month":"2018-06"},{"category":"theft-from-the-person","location_type":"Force","location":{"latitude":"51.391394","street":{"id":847111,"name":"On or near Parr Avenue"},"longitude":"0.556027"},"context":"","outcome_status":{"category":"Action to be taken by another organisation","date":"2018-06"},"persistent_id":"16eec921c9f731912989b42f4070960e282b859add5e5b7a4e3a1498ebd14a68","id":65562488,"location_subtype":"","month":"2018-06"},{"category":"vehicle-crime","location_type":"Force","location":{"latitude":"51.391394","street":{"id":847111,"name":"On or near Parr Avenue"},"longitude":"0.556027"},"context":"","outcome_status":{"category":"Under investigation","date":"2018-06"},"persistent_id":"9a2168f605d29a219a587d0a8656322e5aad53eeadf69aa243ad1d9caeb9fef6","id":65568012,"location_subtype":"","month":"2018-06"},{"category":"vehicle-crime","location_type":"Force","location":{"latitude":"51.390212","street":{"id":847202,"name":"On or near Otway Street"},"longitude":"0.549995"},"context":"","outcome_status":{"category":"Investigation complete; no suspect identified","date":"2018-06"},"persistent_id":"dbc34e80e044d82bf3db2115036db252407275882d145a2f1716909569e388a9","id":65567414,"location_subtype":"","month":"2018-06"},{"category":"vehicle-crime","location_type":"Force","location":{"latitude":"51.392171","street":{"id":847167,"name":"On or near Layfield Road"},"longitude":"0.565730"},"context":"","outcome_status":{"category":"Investigation complete; no suspect identified","date":"2018-06"},"persistent_id":"32325eee541ce791f3a8ab9cb141c00b735cdcc932ffadc904e56a576ddfc925","id":65564788,"location_subtype":"","month":"2018-06"},{"category":"vehicle-crime","location_type":"Force","location":{"latitude":"51.389818","street":{"id":847212,"name":"On or near East Street"},"longitude":"0.551972"},"context":"","outcome_status":{"category":"Investigation complete; no suspect identified","date":"2018-06"},"persistent_id":"02ef6c2b7382cb64949c7390fd2d07e81033b9437713946377a01df8851f5337","id":65564392,"location_subtype":"","month":"2018-06"},{"category":"vehicle-crime","location_type":"Force","location":{"latitude":"51.387856","street":{"id":847096,"name":"On or near Grange Road"},"longitude":"0.575867"},"context":"","outcome_status":{"category":"Under investigation","date":"2018-06"},"persistent_id":"f38ff60f9f43ac0f5c295ac0d697889d2185d2d356cd2b731e5e1c6062158a3f","id":65567385,"location_subtype":"","month":"2018-06"},{"category":"vehicle-crime","location_type":"Force","location":{"latitude":"51.389140","street":{"id":847198,"name":"On or near Victoria Street"},"longitude":"0.550482"},"context":"","outcome_status":{"category":"Under investigation","date":"2018-06"},"persistent_id":"187d2cc7e566260e2ef777e8f6bcf334bf0755adb2cf8c02e694ccf54449473c","id":65567789,"location_subtype":"","month":"2018-06"},{"category":"vehicle-crime","location_type":"Force","location":{"latitude":"51.388948","street":{"id":847211,"name":"On or near Gardiner Street"},"longitude":"0.548171"},"context":"","outcome_status":{"category":"Investigation complete; no suspect identified","date":"2018-06"},"persistent_id":"f985ba9d172eca03db330b52b33a2c710d2d37cd43f4149283b323f30625d720","id":65564799,"location_subtype":"","month":"2018-06"},{"category":"vehicle-crime","location_type":"Force","location":{"latitude":"51.387700","street":{"id":847108,"name":"On or near Archbishops Crescent"},"longitude":"0.575211"},"context":"","outcome_status":{"category":"Investigation complete; no suspect identified","date":"2018-06"},"persistent_id":"674d1934ed0ca787d092803ba8fe342243eeb775359291d887b5928917c72d86","id":65565638,"location_subtype":"","month":"2018-06"},{"category":"vehicle-crime","location_type":"Force","location":{"latitude":"51.389140","street":{"id":847198,"name":"On or near Victoria Street"},"longitude":"0.550482"},"context":"","outcome_status":{"category":"Investigation complete; no suspect identified","date":"2018-06"},"persistent_id":"ac6cfe282ea4a34d26ce875c4da3f1c36fcf478e370ff1720dc171463ff7087a","id":65562250,"location_subtype":"","month":"2018-06"},{"category":"vehicle-crime","location_type":"Force","location":{"latitude":"51.388948","street":{"id":847211,"name":"On or near Gardiner Street"},"longitude":"0.548171"},"context":"","outcome_status":{"category":"Investigation complete; no suspect identified","date":"2018-06"},"persistent_id":"8c98067a8f25e524c6b87770ab28a9a45fb93b0e5b51cc32e311242eb5891e91","id":65563973,"location_subtype":"","month":"2018-06"},{"category":"vehicle-crime","location_type":"Force","location":{"latitude":"51.390561","street":{"id":847193,"name":"On or near Parking Area"},"longitude":"0.546752"},"context":"","outcome_status":{"category":"Investigation complete; no suspect identified","date":"2018-06"},"persistent_id":"a95fd7a74cdf5d0853a46d62924b637184ee2e4f27a9370b44212ab5237c36f2","id":65567550,"location_subtype":"","month":"2018-06"},{"category":"vehicle-crime","location_type":"Force","location":{"latitude":"51.393622","street":{"id":847255,"name":"On or near Burn's Road"},"longitude":"0.544952"},"context":"","outcome_status":{"category":"Investigation complete; no suspect identified","date":"2018-06"},"persistent_id":"31b1d798a96fdc5890ef4c7f0103a6730d7b48bb388915bc228be5f3cb2d5b25","id":65562923,"location_subtype":"","month":"2018-06"},{"category":"vehicle-crime","location_type":"Force","location":{"latitude":"51.391221","street":{"id":847216,"name":"On or near Chatsworth Road"},"longitude":"0.549103"},"context":"","outcome_status":{"category":"Investigation complete; no suspect identified","date":"2018-06"},"persistent_id":"d0231a20f693eebbb833be1f7f87f72a4756b4c0ffc366a0c04aa8cacec9342b","id":65562690,"location_subtype":"","month":"2018-06"},{"category":"vehicle-crime","location_type":"Force","location":{"latitude":"51.385000","street":{"id":845830,"name":"On or near Tangmere Close"},"longitude":"0.570374"},"context":"","outcome_status":{"category":"Investigation complete; no suspect identified","date":"2018-06"},"persistent_id":"d9a2b4a3bdc6fcc61c73e443d6494e3065051f79e57de2eb285c26ca6163e289","id":65564621,"location_subtype":"","month":"2018-06"},{"category":"vehicle-crime","location_type":"Force","location":{"latitude":"51.389155","street":{"id":847199,"name":"On or near Skinner Street"},"longitude":"0.545667"},"context":"","outcome_status":{"category":"Unable to prosecute suspect","date":"2018-06"},"persistent_id":"4f29e3f432f45b347df5b139012ddb48d4ee43167af751ec0a60ff81011776b5","id":65561388,"location_subtype":"","month":"2018-06"},{"category":"vehicle-crime","location_type":"Force","location":{"latitude":"51.393786","street":{"id":847133,"name":"On or near St Andrews Road"},"longitude":"0.552710"},"context":"","outcome_status":{"category":"Investigation complete; no suspect identified","date":"2018-06"},"persistent_id":"cb76e9f6c0da5e6fae06b50c375303af779851e49f936668ea28cbdfecc532bb","id":65565130,"location_subtype":"","month":"2018-06"},{"category":"vehicle-crime","location_type":"Force","location":{"latitude":"51.393777","street":{"id":847164,"name":"On or near Baden Road"},"longitude":"0.554391"},"context":"","outcome_status":{"category":"Investigation complete; no suspect identified","date":"2018-06"},"persistent_id":"a9a59eb69ed3eb070f1e9fc269149f842e2da99aa09cb06c95ddf2a21b86ddc5","id":65565211,"location_subtype":"","month":"2018-06"},{"category":"vehicle-crime","location_type":"Force","location":{"latitude":"51.385000","street":{"id":845830,"name":"On or near Tangmere Close"},"longitude":"0.570374"},"context":"","outcome_status":{"category":"Investigation complete; no suspect identified","date":"2018-06"},"persistent_id":"1390d8f0f2242a79ca9b4165d9cd3c9467f149354314e750c473e5528f4028e1","id":65564623,"location_subtype":"","month":"2018-06"},{"category":"vehicle-crime","location_type":"Force","location":{"latitude":"51.393819","street":{"id":847112,"name":"On or near Milner Road"},"longitude":"0.555328"},"context":"","outcome_status":{"category":"Investigation complete; no suspect identified","date":"2018-06"},"persistent_id":"7cc3c45a6ad081abeb4b8b6c830a4a58d1839243e5f368fb0f07aecaf0eba54a","id":65564528,"location_subtype":"","month":"2018-06"},{"category":"vehicle-crime","location_type":"Force","location":{"latitude":"51.391221","street":{"id":847216,"name":"On or near Chatsworth Road"},"longitude":"0.549103"},