[{"category":"anti-social-behaviour","location_type":"Force","location":{"latitude":"52.523855","street":{"id":1262413,"name":"On or near The Feldings"},"longitude":"-1.817579"},"context":"","outcome_status":null,"persistent_id":"","id":65882546,"location_subtype":"","month":"2018-06"},{"category":"anti-social-behaviour","location_type":"Force","location":{"latitude":"52.520838","street":{"id":1262464,"name":"On or near Chester Road"},"longitude":"-1.803369"},"context":"","outcome_status":null,"persistent_id":"","id":65885439,"location_subtype":"","month":"2018-06"},{"category":"anti-social-behaviour","location_type":"Force","location":{"latitude":"52.515930","street":{"id":1262376,"name":"On or near Danby Grove"},"longitude":"-1.826704"},"context":"","outcome_status":null,"persistent_id":"","id":65885012,"location_subtype":"","month":"2018-06"},{"category":"anti-social-behaviour","location_type":"Force","location":{"latitude":"52.520677","street":{"id":1262443,"name":"On or near Plants Brook Crescent"},"longitude":"-1.814792"},"context":"","outcome_status":null,"persistent_id":"","id":65884283,"location_subtype":"","month":"2018-06"},{"category":"anti-social-behaviour","location_type":"Force","location":{"latitude":"52.516925","street":{"id":1262494,"name":"On or near Sports\/recreation Area"},"longitude":"-1.801560"},"context":"","outcome_status":null,"persistent_id":"","id":65884103,"location_subtype":"","month":"2018-06"},{"category":"anti-social-behaviour","location_type":"Force","location":{"latitude":"52.520677","street":{"id":1262443,"name":"On or near Plants Brook Crescent"},"longitude":"-1.814792"},"context":"","outcome_status":null,"persistent_id":"","id":65883959,"location_subtype":"","month":"2018-06"},{"category":"anti-social-behaviour","location_type":"Force","location":{"latitude":"52.521938","street":{"id":1262437,"name":"On or near St Mary's Close"},"longitude":"-1.810498"},"context":"","outcome_status":null,"persistent_id":"","id":65883578,"location_subtype":"","month":"2018-06"},{"category":"anti-social-behaviour","location_type":"Force","location":{"latitude":"52.512826","street":{"id":1262344,"name":"On or near Quilter Road"},"longitude":"-1.831063"},"context":"","outcome_status":null,"persistent_id":"","id":65883985,"location_subtype":"","month":"2018-06"},{"category":"anti-social-behaviour","location_type":"Force","location":{"latitude":"52.523855","street":{"id":1262413,"name":"On or near The Feldings"},"longitude":"-1.817579"},"context":"","outcome_status":null,"persistent_id":"","id":65883170,"location_subtype":"","month":"2018-06"},{"category":"anti-social-behaviour","location_type":"Force","location":{"latitude":"52.523855","street":{"id":1262413,"name":"On or near The Feldings"},"longitude":"-1.817579"},"context":"","outcome_status":null,"persistent_id":"","id":65883738,"location_subtype":"","month":"2018-06"},{"category":"anti-social-behaviour","location_type":"Force","location":{"latitude":"52.520838","street":{"id":1262464,"name":"On or near Chester Road"},"longitude":"-1.803369"},"context":"","outcome_status":null,"persistent_id":"","id":65883050,"location_subtype":"","month":"2018-06"},{"category":"anti-social-behaviour","location_type":"Force","location":{"latitude":"52.524381","street":{"id":1262470,"name":"On or near Ashford Close"},"longitude":"-1.814673"},"context":"","outcome_status":null,"persistent_id":"","id":65882041,"location_subtype":"","month":"2018-06"},{"category":"anti-social-behaviour","location_type":"Force","location":{"latitude":"52.522885","street":{"id":1262481,"name":"On or near Julia Avenue"},"longitude":"-1.801400"},"context":"","outcome_status":null,"persistent_id":"","id":65881982,"location_subtype":"","month":"2018-06"},{"category":"anti-social-behaviour","location_type":"Force","location":{"latitude":"52.519852","street":{"id":1262447,"name":"On or near Oakmeadow Avenue"},"longitude":"-1.810728"},"context":"","outcome_status":null,"persistent_id":"","id":65882754,"location_subtype":"","month":"2018-06"},{"category":"anti-social-behaviour","location_type":"Force","location":{"latitude":"52.509638","street":{"id":1259684,"name":"On or near Wingfoot Way"},"longitude":"-1.821262"},"context":"","outcome_status":null,"persistent_id":"","id":65882241,"location_subtype":"","month":"2018-06"},{"category":"anti-social-behaviour","location_type":"Force","location":{"latitude":"52.512529","street":{"id":1262475,"name":"On or near Dunlop Way"},"longitude":"-1.801963"},"context":"","outcome_status":null,"persistent_id":"","id":65881668,"location_subtype":"","month":"2018-06"},{"category":"anti-social-behaviour","location_type":"Force","location":{"latitude":"52.514188","street":{"id":1262357,"name":"On or near Round Road"},"longitude":"-1.828066"},"context":"","outcome_status":null,"persistent_id":"","id":65881390,"location_subtype":"","month":"2018-06"},{"category":"bicycle-theft","location_type":"Force","location":{"latitude":"52.515193","street":{"id":1262368,"name":"On or near Hartwell Road"},"longitude":"-1.826250"},"context":"","outcome_status":{"category":"Under investigation","date":"2018-06"},"persistent_id":"0f65b7d450b5f59ac7034c6adcce78c1505f147cba3b228d27f7d997cc490ee2","id":65874659,"location_subtype":"","month":"2018-06"},{"category":"bicycle-theft","location_type":"Force","location":{"latitude":"52.516775","street":{"id":1262412,"name":"On or near Tyburn Road"},"longitude":"-1.820128"},"context":"","outcome_status":{"category":"Under investigation","date":"2018-06"},"persistent_id":"c5997df972abd6aa9037779e316bfe62abe7ae05be2a0dc36f75169f30e28e44","id":65861831,"location_subtype":"","month":"2018-06"},{"category":"burglary","location_type":"Force","location":{"latitude":"52.516611","street":{"id":1262370,"name":"On or near Firtree Road"},"longitude":"-1.830990"},"context":"","outcome_status":{"category":"Investigation complete; no suspect identified","date":"2018-06"},"persistent_id":"174e5151c201bcdba8cf681a2c4ef9d979612af7c5d41fa47c4e15fdcfc3258a","id":65863349,"location_subtype":"","month":"2018-06"},{"category":"burglary","location_type":"Force","location":{"latitude":"52.516611","street":{"id":1262370,"name":"On or near Firtree Road"},"longitude":"-1.830990"},"context":"","outcome_status":{"category":"Investigation complete; no suspect identified","date":"2018-06"},"persistent_id":"5d59919f6bfeee50b3878d8f147541558aa2f6142f9682780a1cc504fcb6db09","id":65865300,"location_subtype":"","month":"2018-06"},{"category":"burglary","location_type":"Force","location":{"latitude":"52.515481","street":{"id":1262422,"name":"On or near Holly Lane"},"longitude":"-1.820517"},"context":"","outcome_status":{"category":"Under investigation","date":"2018-06"},"persistent_id":"9a21e6896e5509c3acec8e3878df6357c63d37b5697ea5586330f3e73464b1c4","id":65863368,"location_subtype":"","month":"2018-06"},{"category":"burglary","location_type":"Force","location":{"latitude":"52.523650","street":{"id":1262430,"name":"On or near Varley Vale"},"longitude":"-1.813350"},"context":"","outcome_status":{"category":"Investigation complete; no suspect identified","date":"2018-06"},"persistent_id":"1cae64abe786798d2f31f414904493b28d4b3f48ef0a6f34fe44faf988fc0c75","id":65879250,"location_subtype":"","month":"2018-06"},{"category":"burglary","location_type":"Force","location":{"latitude":"52.515740","street":{"id":1262350,"name":"On or near Summerlee Road"},"longitude":"-1.825835"},"context":"","outcome_status":{"category":"Investigation complete; no suspect identified","date":"2018-06"},"persistent_id":"0a832f599a780396b673fd79a7f2a1b8705ff030e1a6c3342e55df5072fa3a37","id":65866199,"location_subtype":"","month":"2018-06"},{"category":"criminal-damage-arson","location_type":"Force","location":{"latitude":"52.520489","street":{"id":1262456,"name":"On or near Hadfield Close"},"longitude":"-1.809325"},"context":"","outcome_status":{"category":"Investigation complete; no suspect identified","date":"2018-06"},"persistent_id":"3c06cdc0d18bf5d05b2f6c9fbcd82328d448e45ea228ca2db34d0d0a33055770","id":65864514,"location_subtype":"","month":"2018-06"},{"category":"criminal-damage-arson","location_type":"Force","location":{"latitude":"52.516232","street":{"id":1262384,"name":"On or near Bracken Road"},"longitude":"-1.824227"},"context":"","outcome_status":{"category":"Under investigation","date":"2018-06"},"persistent_id":"c355d01f700bf555b8a0fffd48154db8b341889feaa0f50082a4fba42e5364fc","id":65872881,"location_subtype":"","month":"2018-06"},{"category":"criminal-damage-arson","location_type":"Force","location":{"latitude":"52.526166","street":{"id":1262671,"name":"On or near Eachelhurst Road"},"longitude":"-1.801253"},"context":"","outcome_status":{"category":"Unable to prosecute suspect","date":"2018-06"},"persistent_id":"aa9e75cf820cc225ca376c4e516b30e22ff2a46db6b91749ca3f6e3398c0bdc2","id":65860353,"location_subtype":"","month":"2018-06"},{"category":"criminal-damage-arson","location_type":"Force","location":{"latitude":"52.520227","street":{"id":1262421,"name":"On or near Hollydale Road"},"longitude":"-1.820483"},"context":"","outcome_status":{"category":"Investigation complete; no suspect identified","date":"2018-06"},"persistent_id":"5f593127bdba087014e7cc15306f0ca77aa73634f38e8c0e16d433cc53486ca1","id":65862593,"location_subtype":"","month":"2018-06"},{"category":"criminal-damage-arson","location_type":"Force","location":{"latitude":"52.520227","street":{"id":1262421,"name":"On or near Hollydale Road"},"longitude":"-1.820483"},"context":"","outcome_status":{"category":"Investigation complete; no suspect identified","date":"2018-06"},"persistent_id":"47b485e6f539e7193b74c7e3f67e858abfd7adda7d529679cacb2be0706d0aea","id":65864510,"location_subtype":"","month":"2018-06"},{"category":"criminal-damage-arson","location_type":"Force","location":{"latitude":"52.517825","street":{"id":1262468,"name":"On or near Berwood Lane"},"longitude":"-1.807789"},"context":"","outcome_status":{"category":"Under investigation","date":"2018-06"},"persistent_id":"bd3d21ee518aea26e1e79f86648b287277b2e8859af5a7f86cce02dfca004512","id":65880972,"location_subtype":"","month":"2018-06"},{"category":"criminal-damage-arson","location_type":"Force","location":{"latitude":"52.512826","street":{"id":1262344,"name":"On or near Quilter Road"},"longitude":"-1.831063"},"context":"","outcome_status":{"category":"Under investigation","date":"2018-06"},"persistent_id":"38a6da7a18ff88f121d2bd29ee9bfacb95fd199c9109aa0406c8de74e4e47838","id":65872844,"location_subtype":"","month":"2018-06"},{"category":"criminal-damage-arson","location_type":"Force","location":{"latitude":"52.516177","street":{"id":1262377,"name":"On or near Colston Road"},"longitude":"-1.829208"},"context":"","outcome_status":{"category":"Investigation complete; no suspect identified","date":"2018-06"},"persistent_id":"25e3e348b5324fc5a9cb8a5704e20152e648abdef3f1469bdc42915e2ae3217e","id":65874040,"location_subtype":"","month":"2018-06"},{"category":"criminal-damage-arson","location_type":"Force","location":{"latitude":"52.522863","street":{"id":1262458,"name":"On or near Ellerby Grove"},"longitude":"-1.804407"},"context":"","outcome_status":{"category":"Under investigation","date":"2018-06"},"persistent_id":"f0338f23aaff031c59e7e550d0f08991e26c067f9395f8161080b5bba74d7a6d","id":65879992,"location_subtype":"","month":"2018-06"},{"category":"criminal-damage-arson","location_type":"Force","location":{"latitude":"52.522863","street":{"id":1262458,"name":"On or near Ellerby Grove"},"longitude":"-1.804407"},"context":"","outcome_status":{"category":"Under investigation","date":"2018-06"},"persistent_id":"fb4a91c1923927748f8d7a9c73f05f0bc1c81a998eace551a5ed0699c9d72c60","id":65879990,"location_subtype":"","month":"2018-06"},{"category":"criminal-damage-arson","location_type":"Force","location":{"latitude":"52.515930","street":{"id":1262376,"name":"On or near Danby Grove"},"longitude":"-1.826704"},"context":"","outcome_status":{"category":"Under investigation","date":"2018-06"},"persistent_id":"bb0d1908dd34baa4eaf2c533c34a6bbfd82bddfd307e830c17abd1153ce84b9a","id":65878085,"location_subtype":"","month":"2018-06"},{"category":"criminal-damage-arson","location_type":"Force","location":{"latitude":"52.520899","street":{"id":1262457,"name":"On or near Gunter Road"},"longitude":"-1.807584"},"context":"","outcome_status":{"category":"Under investigation","date":"2018-06"},"persistent_id":"3056eaa2cec95833cf857b08302cba50564ccdc7b1b2e79066db9238cc3beed5","id":65871485,"location_subtype":"","month":"2018-06"},{"category":"criminal-damage-arson","location_type":"Force","location":{"latitude":"52.517777","street":{"id":1262411,"name":"On or near Tyburn Road"},"longitude":"-1.817471"},"context":"","outcome_status":{"category":"Investigation complete; no suspect identified","date":"2018-06"},"persistent_id":"364607d2f7efc8a013408c36463be77ccd147dfce86ff98c39a0ec627b0306fa","id":65862906,"location_subtype":"","month":"2018-06"},{"category":"drugs","location_type":"Force","location":{"latitude":"52.509638","street":{"id":1259684,"name":"On or near Wingfoot Way"},"longitude":"-1.821262"},"context":"","outcome_status":{"category":"Under investigation","date":"2018-06"},"persistent_id":"d13008adfc7629d30eb1e356ec5bce45a284cf4733b2114db13592281ea57d44","id":65865804,"location_subtype":"","month":"2018-06"},{"category":"drugs","location_type":"Force","location":{"latitude":"52.519852","street":{"id":1262447,"name":"On or near Oakmeadow Avenue"},"longitude":"-1.810728"},"context":"","outcome_status":{"category":"Formal action is not in the public interest","date":"2018-06"},"persistent_id":"feebccff09eaeaefe24d37045ba8d7a7e18b955ee9220a73ec34128a49f6241c","id":65873988,"location_subtype":"","month":"2018-06"},{"category":"drugs","location_type":"Force","location":{"latitude":"52.511014","street":{"id":1259705,"name":"On or near Tyburn Road"},"longitude":"-1.834090"},"context":"","outcome_status":{"category":"Awaiting court outcome","date":"2018-06"},"persistent_id":"8ad6c1594613ca60f503a24354162f9acee3e151f9d37b12216d10e5d15ce02d","id":65874280,"location_subtype":"","month":"2018-06"},{"category":"drugs","location_type":"Force","location":{"latitude":"52.524285","street":{"id":1262477,"name":"On or near Timbers Way"},"longitude":"-1.800377"},"context":"","outcome_status":{"category":"Under investigation","date":"2018-06"},"persistent_id":"a718467e3c572f248e4832a8500ce30d7c47c8ad2d6a3b40854c0111665c0224","id":65874277,"location_subtype":"","month":"2018-06"},{"category":"drugs","location_type":"Force","location":{"latitude":"52.523855","street":{"id":1262413,"name":"On or near The Feldings"},"longitude":"-1.817579"},"context":"","outcome_status":{"category":"Offender given a caution","date":"2018-06"},"persistent_id":"20733655ada590ccebffa9c4c6fa396bf93b9eaefbca3f7cd52f7ff22d9020bb","id":65878164,"location_subtype":"","month":"2018-06"},{"category":"drugs","location_type":"Force","location":{"latitude":"52.509638","street":{"id":1259684,"name":"On or near Wingfoot Way"},"longitude":"-1.821262"},"context":"","outcome_status":{"category":"Under investigation","date":"2018-06"},"persistent_id":"d12e79e21257696ff2623c90b27671350af6584138df25603b2004a15bcb3710","id":65872473,"location_subtype":"","month":"2018-06"},{"category":"other-theft","location_type":"Force","location":{"latitude":"52.508160","street":{"id":1259721,"name":"On or near Shopping Area"},"longitude":"-1.824937"},"context":"","outcome_status":{"category":"Investigation complete; no suspect identified","date":"2018-06"},"persistent_id":"83edf177dc8cc3001659876e651451f8a8d08d60bb7c00ca268040fe724d1d0a","id":65865498,"location_subtype":"","month":"2018-06"},{"category":"other-theft","location_type":"Force","location":{"latitude":"52.519852","street":{"id":1262447,"name":"On or near Oakmeadow Avenue"},"longitude":"-1.810728"},"context":"","outcome_status":{"category":"Investigation complete; no suspect identified","date":"2018-06"},"persistent_id":"1e102cb3c606979c8735b418cbe55db882afccd5b3c3d1871ad1bd4c6a942ee5","id":65871056,"location_subtype":"","month":"2018-06"},{"category":"other-theft","location_type":"Force","location":{"latitude":"52.508160","street":{"id":1259721,"name":"On or near Shopping Area"},"longitude":"-1.824937"},"context":"","outcome_status":{"category":"Under investigation","date":"2018-06"},"persistent_id":"fb75a72b229f88149c062f9c38e2cb76aefab4be9a28582fd3f5ae6aa2ffcf79","id":65871057,"location_subtype":"","month":"2018-06"},{"category":"other-theft","location_type":"Force","location":{"latitude":"52.509112","street":{"id":1259700,"name":"On or near Shopping Area"},"longitude":"-1.823725"},"context":"","outcome_status":{"category":"Under investigation","date":"2018-06"},"persistent_id":"7bec6cfcd4697721f82215e561c957674bfd7e8013712cc18063a42977deb64e","id":65869694,"location_subtype":"","month":"2018-06"},{"category":"other-theft","location_type":"Force","location":{"latitude":"52.514478","street":{"id":1262405,"name":"On or near Petrol Station"},"longitude":"-1.823600"},"context":"","outcome_status":{"category":"Investigation complete; no suspect identified","date":"2018-06"},"persistent_id":"af95dd12d272cf6ab208d70ed530d6b782438804358058339c4332125e1a6e9b","id":65868668,"location_subtype":"","month":"2018-06"},{"category":"other-theft","location_type":"Force","location":{"latitude":"52.508160","street":{"id":1259721,"name":"On or near Shopping Area"},"longitude":"-1.824937"},"context":"","outcome_status":{"category":"Investigation complete; no suspect identified","date":"2018-06"},"persistent_id":"a4ac287308e03c1641de4fd0128e9a24b15a16e111fb50f50c912be141c197ae","id":65866815,"location_subtype":"","month":"2018-06"},{"category":"other-theft","location_type":"Force","location":{"latitude":"52.516414","street":{"id":1262363,"name":"On or near Ismere Road"},"longitude":"-1.825553"},"context":"","outcome_status":{"category":"Under investigation","date":"2018-06"},"persistent_id":"2dc03d19998ecc1565d0a5ba35e3edf7503b7fd2df4a819a25e594d0a8113822","id":65868929,"location_subtype":"","month":"2018-06"},{"category":"other-theft","location_type":"Force","location":{"latitude":"52.512826","street":{"id":1262344,"name":"On or near Quilter Road"},"longitude":"-1.831063"},"context":"","outcome_status":{"category":"Investigation complete; no suspect identified","date":"2018-06"},"persistent_id":"6e8abfba1d26658171e4cf7c8c0c7fa8eb9059e4d3245f3fd2d7b1082b461710","id":65867834,"location_subtype":"","month":"2018-06"},{"category":"other-theft","location_type":"Force","location":{"latitude":"52.514478","street":{"id":1262405,"name":"On or near Petrol Station"},"longitude":"-1.823600"},"context":"","outcome_status":{"category":"Investigation complete; no suspect identified","date":"2018-06"},"persistent_id":"ce73946eb10baa7e3ce8b8efee508e78236b26722925a441282e48ca19bf9151","id":65864124,"location_subtype":"","month":"2018-06"},{"category":"other-theft","location_type":"Force","location":{"latitude":"52.509638","street":{"id":1259684,"name":"On or near Wingfoot Way"},"longitude":"-1.821262"},"context":"","outcome_status":{"category":"Under investigation","date":"2018-06"},"persistent_id":"c4c8fee9f42978bff49d04450190437783f7cb6e4b88fef27595ab398003388b","id":65880995,"location_subtype":"","month":"2018-06"},{"category":"other-theft","location_type":"Force","location":{"latitude":"52.514478","street":{"id":1262405,"name":"On or near Petrol Station"},"longitude":"-1.823600"},"context":"","outcome_status":{"category":"Investigation complete; no suspect identified","date":"2018-06"},"persistent_id":"19cea49baf2d8acbb773be1b5d550ec8a31eead2368d308c08cec2d828e00354","id":65872826,"location_subtype":"","month":"2018-06"},{"category":"other-theft","location_type":"Force","location":{"latitude":"52.514457","street":{"id":1262351,"name":"On or near Spruce Grove"},"longitude":"-1.827196"},"context":"","outcome_status":{"category":"Under investigation","date":"2018-06"},"persistent_id":"92732a0e2ea11a40dc6e95cbb94f1220d7adbd5aa8be7372029e4965a3bec5f7","id":65880527,"location_subtype":"","month":"2018-06"},{"category":"other-theft","location_type":"Force","location":{"latitude":"52.524285","street":{"id":1262477,"name":"On or near Timbers Way"},"longitude":"-1.800377"},"context":"","outcome_status":{"category":"Unable to prosecute suspect","date":"2018-06"},"persistent_id":"caf856f16810b9cd2c9b9b96d5aabe1cba095ac929b1c5f4d1edba54b62162a5","id":65860874,"location_subtype":"","month":"2018-06"},{"category":"other-theft","location_type":"Force","location":{"latitude":"52.518477","street":{"id":1243702,"name":"On or near Petrol Station"},"longitude":"-1.805104"},"context":"","outcome_status":{"category":"Under investigation","date":"2018-06"},"persistent_id":"3fb74fe223d5ffd779ec1eadf04b50d3b060d00f51e76c042e4c77faed39bd5a","id":65879518,"location_subtype":"","month":"2018-06"},{"category":"other-theft","location_type":"Force","location":{"latitude":"52.514478","street":{"id":1262405,"name":"On or near Petrol Station"},"longitude":"-1.823600"},"context":"","outcome_status":{"category":"Under investigation","date":"2018-06"},"persistent_id":"bf6476b11ec7a438176dc134498fe478960ceeba2999c53cc3bfefd8397934d8","id":65876650,"location_subtype":"","month":"2018-06"},{"category":"other-theft","location_type":"Force","location":{"latitude":"52.514478","street":{"id":1262405,"name":"On or near Petrol Station"},"longitude":"-1.823600"},"context":"","outcome_status":{"category":"Investigation complete; no suspect identified","date":"2018-06"},"persistent_id":"a9f687295e4caa0e2be9272c17820769452316569733201202e6a7b286de85ed","id":65874384,"location_subtype":"","month":"2018-06"},{"category":"other-theft","location_type":"Force","location":{"latitude":"52.514478","street":{"id":1262405,"name":"On or near Petrol Station"},"longitude":"-1.823600"},"context":"","outcome_status":{"category":"Investigation complete; no suspect identified","date":"2018-06"},"persistent_id":"790bf2f226e1fca253d76f6a31f37f33b7bbbe93e47f165dde1b5f74b01062f6","id":65865827,"location_subtype":"","month":"2018-06"},{"category":"other-theft","location_type":"Force","location":{"latitude":"52.516611","street":{"id":1262370,"name":"On or near Firtree Road"},"longitude":"-1.830990"},"context":"","outcome_status":{"category":"Under investigation","date":"2018-06"},"persistent_id":"090802eef1c6641421dd1d0643f2d7486140d45309bfb0fa68352d3aefb0c064","id":65872787,"location_subtype":"","month":"2018-06"},{"category":"possession-of-weapons","location_type":"Force","location":{"latitude":"52.519872","street":{"id":1262410,"name":"On or near Waldley Grove"},"longitude":"-1.817124"},"context":"","outcome_status":{"category":"Unable to prosecute suspect","date":"2018-06"},"persistent_id":"d51fcc864ac7df473d181f926cebd5ca6319814181558082748f54c6005f68c3","id":65878914,"location_subtype":"","month":"2018-06"},{"category":"possession-of-weapons","location_type":"Force","location":{"latitude":"52.511014","street":{"id":1259705,"name":"On or near Tyburn Road"},"longitude":"-1.834090"},"context":"","outcome_status":{"category":"Awaiting court outcome","date":"2018-06"},"persistent_id":"ccebf1eaadc28abd6483ceebdda3b43d1b1d30d5c7e8bb62bacf224faa29d179","id":65874819,"location_subtype":"","month":"2018-06"},{"category":"public-order","location_type":"Force","location":{"latitude":"52.512529","street":{"id":1262475,"name":"On or near Dunlop Way"},"longitude":"-1.801963"},"context":"","outcome_status":{"category":"Under investigation","date":"2018-06"},"persistent_id":"de1ed5fd0dda6f4ad39b12156ec40dadbc6e5349e3e748ed4ac4c3428da46a10","id":65874064,"location_subtype":"","month":"2018-06"},{"category":"public-order","location_type":"Force","location":{"latitude":"52.516414","street":{"id":1262363,"name":"On or near Ismere Road"},"longitude":"-1.825553"},"context":"","outcome_status":{"category":"Under investigation","date":"2018-06"},"persistent_id":"95bad76e0b1887a63b878258a92ea015dbb02e8e085b9629090206784ddaa726","id":65879857,"location_subtype":"","month":"2018-06"},{"category":"public-order","location_type":"Force","location":{"latitude":"52.524554","street":{"id":1262715,"name":"On or near Springthorpe Road"},"longitude":"-1.816353"},"context":"","outcome_status":{"category":"Under investigation","date":"2018-06"},"persistent_id":"a7198b5c7b5c05d57602f563fb7ca5c690a55be76e60abb92c16ec7d6bda44dd","id":65875628,"location_subtype":"","month":"2018-06"},{"category":"public-order","location_type":"Force","location":{"latitude":"52.524854","street":{"id":1262824,"name":"On or near Springthorpe Green"},"longitude":"-1.818194"},"context":"","outcome_status":{"category":"Under investigation","date":"2018-06"},"persistent_id":"4950cb5273c8bbc6825130d562f5d846574d9263c3e6b0c3948221979fe5a0a2","id":65866906,"location_subtype":"","month":"2018-06"},{"category":"public-order","location_type":"Force","location":{"latitude":"52.517777","street":{"id":1262411,"name":"On or near Tyburn Road"},"longitude":"-1.817471"},"context":"","outcome_status":{"category":"Unable to prosecute suspect","date":"2018-06"},"persistent_id":"d5f46443cb1bd99ba1478f039b0ba4b516f0a90d229ca196ef2596981ea88eb6","id":65864338,"location_subtype":"","month":"2018-06"},{"category":"public-order","location_type":"Force","location":{"latitude":"52.520790","street":{"id":1262414,"name":"On or near Terrys Lane"},"longitude":"-1.818225"},"context":"","outcome_status":{"category":"Awaiting court outcome","date":"2018-06"},"persistent_id":"887d83d0a0e93ec687e631d4a92058fce16b9b0749710df63809e1570fe9123f","id":65864396,"location_subtype":"","month":"2018-06"},{"category":"public-order","location_type":"Force","location":{"latitude":"52.518477","street":{"id":1243702,"name":"On or near Petrol Station"},"longitude":"-1.805104"},"context":"","outcome_status":{"category":"Investigation complete; no suspect identified","date":"2018-06"},"persistent_id":"4731ed339f9bd464ad42d96d64585ab2c4171edb6f9e1426508f2a04834d966a","id":65861087,"location_subtype":"","month":"2018-06"},{"category":"public-order","location_type":"Force","location":{"latitude":"52.520216","street":{"id":1262490,"name":"On or near Chester Road"},"longitude":"-1.801928"},"context":"","outcome_status":{"category":"Under investigation","date":"2018-06"},"persistent_id":"86f1d67f3d710b38e70c1971cebba334a6caf1ddbabba0492031f4108b2c9a63","id":65869848,"location_subtype":"","month":"2018-06"},{"category":"robbery","location_type":"Force","location":{"latitude":"52.511014","street":{"id":1259705,"name":"On or near Tyburn Road"},"longitude":"-1.834090"},"context":"","outcome_status":{"category":"Under investigation","date":"2018-06"},"persistent_id":"85e7a1952adab76041f35b07566875d04c5211a6189a0874d23883a021fdf1a4","id":65873076,"location_subtype":"","month":"2018-06"},{"category":"robbery","location_type":"Force","location":{"latitude":"52.512529","street":{"id":1262475,"name":"On or near Dunlop Way"},"longitude":"-1.801963"},"context":"","outcome_status":{"category":"Investigation complete; no suspect identified","date":"2018-06"},"persistent_id":"84e8c8a7f9b86ef66acaeb8f9bb2b3e65f227de87165ec1549b932204b954f55","id":65863705,"location_subtype":"","month":"2018-06"},{"category":"robbery","location_type":"Force","location":{"latitude":"52.526166","street":{"id":1262671,"name":"On or near Eachelhurst Road"},"longitude":"-1.801253"},"context":"","outcome_status":{"category":"Under investigation","date":"2018-06"},"persistent_id":"2224ed497b024f334d76f3190cf4c301345e2cd5c4eaa884323f2ed1e9a84b4d","id":65880159,"location_subtype":"","month":"2018-06"},{"category":"shoplifting","location_type":"Force","location":{"latitude":"52.509638","street":{"id":1259684,"name":"On or near Wingfoot Way"},"longitude":"-1.821262"},"context":"","outcome_status":{"category":"Under investigation","date":"2018-06"},"persistent_id":"128d1a1cad70508d219f5d6569d3a71d8e5c60adaa465755409276fc1bb16d1d","id":65865981,"location_subtype":"","month":"2018-06"},{"category":"shoplifting","location_type":"Force","location":{"latitude":"52.509638","street":{"id":1259684,"name":"On or near Wingfoot Way"},"longitude":"-1.821262"},"context":"","outcome_status":{"category":"Under investigation","date":"2018-06"},"persistent_id":"ef1b75783d02de842f90557f076027ff9a373fcb3c600396f309288afa2bdf71","id":65879141,"location_subtype":"","month":"2018-06"},{"category":"shoplifting","location_type":"Force","location":{"latitude":"52.514478","street":{"id":1262405,"name":"On or near Petrol Station"},"longitude":"-1.823600"},"context":"","outcome_status":{"category":"Under investigation","date":"2018-06"},"persistent_id":"b1769487d4d6bfd8e28b751a9a2bd883631374514625582583ae0ce3847daf20","id":65876286,"location_subtype":"","month":"2018-06"},{"category":"shoplifting","location_type":"Force","location":{"latitude":"52.512529","street":{"id":1262475,"name":"On or near Dunlop Way"},"longitude":"-1.801963"},"context":"","outcome_status":{"category":"Under investigation","date":"2018-06"},"persistent_id":"553a3937f91f330f484e014b83798f07a5447522ae6fe4d5680db3be63740238","id":65863672,"location_subtype":"","month":"2018-06"},{"category":"shoplifting","location_type":"Force","location":{"latitude":"52.512529","street":{"id":1262475,"name":"On or near Dunlop Way"},"longitude":"-1.801963"},"context":"","outcome_status":{"category":"Awaiting court outcome","date":"2018-06"},"persistent_id":"9c0dddd51354a97b78b1b9e4957c4bf17af992f72f9dda108580734535ebc29f","id":65874476,"location_subtype":"","month":"2018-06"},{"category":"shoplifting","location_type":"Force","location":{"latitude":"52.509638","street":{"id":1259684,"name":"On or near Wingfoot Way"},"longitude":"-1.821262"},"context":"","outcome_status":{"category":"Under investigation","date":"2018-06"},"persistent_id":"a4b3626a48376358693774da6578356f535277e58d77785bd2b526edbe7d0e98","id":65874480,"location_subtype":"","month":"2018-06"},{"category":"shoplifting","location_type":"Force","location":{"latitude":"52.509112","street":{"id":1259700,"name":"On or near Shopping Area"},"longitude":"-1.823725"},"context":"","outcome_status":{"category":"Investigation complete; no suspect identified","date":"2018-06"},"persistent_id":"c0fa487ae07362d8b5e85b6d6ac19476a34a6485d3d869e34c587f9fcbfb4d12","id":65866391,"location_subtype":"","month":"2018-06"},{"category":"shoplifting","location_type":"Force","location":{"latitude":"52.516882","street":{"id":1262420,"name":"On or near Kingsbury Road"},"longitude":"-1.819538"},"context":"","outcome_status":{"category":"Investigation complete; no suspect identified","date":"2018-06"},"persistent_id":"94d40a1fbe145434ed50476c1197c9a668b533e1b58585a2e35d02ab18bfe2cf","id":65872271,"location_subtype":"","month":"2018-06"},{"category":"shoplifting","location_type":"Force","location":{"latitude":"52.516925","street":{"id":1262494,"name":"On or near Sports\/recreation Area"},"longitude":"-1.801560"},"context":"","outcome_status":{"category":"Investigation complete; no suspect identified","date":"2018-06"},"persistent_id":"df8719cad304a566305969e1cadd643faf1c8a6c1071f20503c089ce56bc2ce5","id":65864563,"location_subtype":"","month":"2018-06"},{"category":"shoplifting","location_type":"Force","location":{"latitude":"52.512529","street":{"id":1262475,"name":"On or near Dunlop Way"},"longitude":"-1.801963"},"context":"","outcome_status":{"category":"Investigation complete; no suspect identified","date":"2018-06"},"persistent_id":"28ea89c928aef8a296b9828f43bb8646b575a7c01576a473238d8e16745130d2","id":65872274,"location_subtype":"","month":"2018-06"},{"category":"shoplifting","location_type":"Force","location":{"latitude":"52.512529","street":{"id":1262475,"name":"On or near Dunlop Way"},"longitude":"-1.801963"},"context":"","outcome_status":{"category":"Under investigation","date":"2018-06"},"persistent_id":"82a40504310a920be8ae8fff5e2a84ddf5b1ebaa52f3fbf14631852fa6f1f056","id":65877713,"location_subtype":"","month":"2018-06"},{"category":"shoplifting","location_type":"Force","location":{"latitude":"52.512529","street":{"id":1262475,"name":"On or near Dunlop Way"},"longitude":"-1.801963"},"context":"","outcome_status":{"category":"Investigation complete; no suspect identified","date":"2018-06"},"persistent_id":"7bff9d86fea31db6acc16d189ff6043dec45e06836b188dda69e890b9bc293ca","id":65863670,"location_subtype":"","month":"2018-06"},{"category":"shoplifting","location_type":"Force","location":{"latitude":"52.518477","street":{"id":1243702,"name":"On or near Petrol Station"},"longitude":"-1.805104"},"context":"","outcome_status":{"category":"Under investigation","date":"2018-06"},"persistent_id":"bb5371c4e232e148881c847dbaa80c4194be746b4e076661ab28b5ea6648c38a","id":65877172,"location_subtype":"","month":"2018-06"},{"category":"theft-from-the-person","location_type":"Force","location":{"latitude":"52.516882","street":{"id":1262420,"name":"On or near Kingsbury Road"},"longitude":"-1.819538"},"context":"","outcome_status":{"category":"Investigation complete; no suspect identified","date":"2018-06"},"persistent_id":"67192a9af0030ef34aeed25f822e7d97d9b89cf819110e7a771f9db2c69d5c12","id":65863282,"location_subtype":"","month":"2018-06"},{"category":"vehicle-crime","location_type":"Force","location":{"latitude":"52.523204","street":{"id":1262436,"name":"On or near The Gables"},"longitude":"-1.815223"},"context":"","outcome_status":{"category":"Investigation complete; no suspect identified","date":"2018-06"},"persistent_id":"3530736a974c9e129510e058f263416be276c9962a11143ca2a490f40b6720c1","id":65866483,"location_subtype":"","month":"2018-06"},{"category":"vehicle-crime","location_type":"Force","location":{"latitude":"52.524381","street":{"id":1262470,"name":"On or near Ashford Close"},"longitude":"-1.814673"},"context":"","outcome_status":{"category":"Investigation complete; no suspect identified","date":"2018-06"},"persistent_id":"f323913edb06e90f8ce7e2f5994aae3d2c00b1542750fa91f58948aa5238541b","id":65866059,"location_subtype":"","month":"2018-06"},{"category":"vehicle-crime","location_type":"Force","location":{"latitude":"52.521817","street":{"id":1262431,"name":"On or near Varley Road"},"longitude":"-1.813579"},"context":"","outcome_status":{"category":"Investigation complete; no suspect identified","date":"2018-06"},"persistent_id":"51a424a593775af52d56884ede24d522e648d6be5260bbb195f49022e0bbbdcf","id":65864617,"location_subtype":"","month":"2018-06"},{"category":"vehicle-crime","location_type":"Force","location":{"latitude":"52.522595","street":{"id":1262419,"name":"On or near Paget Road"},"longitude":"-1.816759"},"context":"","outcome_status":{"category":"Investigation complete; no suspect identified","date":"2018-06"},"persistent_id":"8972bf8516ded6d571eb11ae56082f20500a39d9af890b01468d7b7da464823f","id":65865027,"location_subtype":"","month":"2018-06"},{"category":"vehicle-crime","location_type":"Force","location":{"latitude":"52.517777","street":{"id":1262411,"name":"On or near Tyburn Road"},"longitude":"-1.817471"},"context":"","outcome_status":{"category":"Unable to prosecute suspect","date":"2018-06"},"persistent_id":"286de21cc8c59fac2a20c0394b7b9da3ac53bb78896566bb83acd22b74aa378b","id":65878263,"location_subtype":"","month":"2018-06"},{"category":"vehicle-crime","location_type":"Force","location":{"latitude":"52.521263","street":{"id":1262461,"name":"On or near Cresswell Grove"},"longitude":"-1.815954"},"context":"","outcome_status":{"category":"Investigation complete; no suspect identified","date":"2018-06"},"persistent_id":"8b74274424b901002dba7972c92f315ddf3fd6e11f0b4f1acf9af167df812083","id":65868528,"location_subtype":"","month":"2018-06"},{"category":"vehicle-crime","location_type":"Force","location":{"latitude":"52.520227","street":{"id":1262421,"name":"On or near Hollydale Road"},"longitude":"-1.820483"},"context":"","outcome_status":{"category":"Investigation complete; no suspect identified","date":"2018-06"},"persistent_id":"a082f906630702ba4ee9f92af7e3d9f0c16e0176c592764bdf8b52024358a079","id":65862785,"location_subtype":"","month":"2018-06"},{"category":"vehicle-crime","location_type":"Force","location":{"latitude":"52.524482","street":{"id":1262439,"name":"On or near Sowerby March"},"longitude":"-1.810251"},"context":"","outcome_status":{"category":"Under investigation","date":"2018-06"},"persistent_id":"11d2a7b9d75a61f4a9aba792764f5358f1d236407c157947f3671a71a19ee1c9","id":65880552,"location_subtype":"","month":"2018-06"},{"category":"vehicle-crime","location_type":"Force","location":{"latitude":"52.512529","street":{"id":1262475,"name":"On or near Dunlop Way"},"longitude":"-1.801963"},"context":"","outcome_status":{"category":"Investigation complete; no suspect identified","date":"2018-06"},"persistent_id":"141e1e75a354f6a4c8db163bfb4fa1604e3f6754e47d3f4418e62d70f24beb85","id":65877242,"location_subtype":"","month":"2018-06"},{"category":"vehicle-crime","location_type":"Force","location":{"latitude":"52.523374","street":{"id":1262486,"name":"On or near Edgemond Avenue"},"longitude":"-1.798524"},"context":"","outcome_status":{"category":"Under investigation","date":"2018-06"},"persistent_id":"6efa01a26382d2974917fc58dcf9fb25164ca05713389aca6ab3eba5f7f7b31a","id":65876246,"location_subtype":"","month":"2018-06"},{"category":"vehicle-crime","location_type":"Force","location":{"latitude":"52.520216","street":{"id":1262490,"name":"On or near Chester Road"},"longitude":"-1.801928"},"context":"","outcome_status":{"category":"Under investigation","date":"2018-06"},"persistent_id":"dec32e4aba2a4023a53ced5cf570cb03574a7224a508645a659f85b604778694","id":65875076,"location_subtype":"","month":"2018-06"},{"category":"vehicle-crime","location_type":"Force","location":{"latitude":"52.520216","street":{"id":1262490,"name":"On or near Chester Road"},"longitude":"-1.801928"},"context":"","outcome_status":{"category":"Investigation complete; no suspect identified","date":"2018-06"},"persistent_id":"1e5eba6ea2399d4c879fe9b367b7f6556360defa9d30ac07212596b0c2a8cf85","id":65874946,"location_subtype":"","month":"2018-06"},{"category":"vehicle-crime","location_type":"Force","location":{"latitude":"52.523361","street":{"id":1262463,"name":"On or near Chestergate Croft"},"longitude":"-1.812098"},"context":"","outcome_status":{"category":"Investigation complete; no suspect identified","date":"2018-06"},"persistent_id":"4c6e18d8ebc0cb77090ab4d6e088aeb30ef061cf48a00b9a4d75392dd884f098","id":65871426,"location_subtype":"","month":"2018-06"},{"category":"vehicle-crime","location_type":"Force","location":{"latitude":"52.524854","street":{"id":1262824,"name":"On or near Springthorpe Green"},"longitude":"-1.818194"},"context":"","outcome_status":{"category":"Investigation complete; no suspect identified","date":"2018-06"},"persistent_id":"1936ef955c4c64d8d2b79b3e4cb791192c6b265c793d2e658866330278a9e46a","id":65870201,"location_subtype":"","month":"2018-06"},{"category":"vehicle-crime","location_type":"Force","location":{"latitude":"52.522610","street":{"id":1262452,"name":"On or near Jesmond Grove"},"longitude":"-1.809390"},"context":"","outcome_status":{"category":"Investigation complete; no suspect identified","date":"2018-06"},"persistent_id":"e44bd493dda32b35ad67ee373f2d00893c2a85c7de11dbea038e7d56809da454","id":65869382,"location_subtype":"","month":"2018-06"},{"category":"vehicle-crime","location_type":"Force","location":{"latitude":"52.523180","street":{"id":1262423,"name":"On or near Blossom Road"},"longitude":"-1.817390"},"context":"","outcome_status":{"category":"Investigation complete; no suspect identified","date":"2018-06"},"persistent_id":"2a7ef20796693b03277fddd121ffb4391d24e0f76670cff1ca90f0a40debd294","id":65866478,"location_subtype":"","month":"2018-06"},{"category":"vehicle-crime","location_type":"Force","location":{"latitude":"52.523855","street":{"id":1262413,"name":"On or near The Feldings"},"longitude":"-1.817579"},"context":"","outcome_status":{"category":"Investigation complete; no suspect identified","date":"2018-06"},"persistent_id":"a61d361fb2223fa8571350b20fb011c67f63331556197722e8d8a779046c4cdc","id":65865932,"location_subtype":"","month":"2018-06"},{"category":"vehicle-crime","location_type":"Force","location":{"latitude":"52.525350","street":{"id":1262714,"name":"On or near Windfall Court"},"longitude":"-1.813932"},"context":"","outcome_status":{"category":"Investigation complete; no suspect identified","date":"2018-06"},"persistent_id":"6622df283b751c8c0e8cee079164fe6c42257a7cf0dd9f5f14eb65c81ec7e54a","id":65865729,"location_subtype":"","month":"2018-06"},{"category":"vehicle-crime","location_type":"Force","location":{"latitude":"52.509428","street":{"id":1259611,"name":"On or near Newport Road"},"longitude":"-1.796643"},"context":"","outcome_status":{"category":"Under investigation","date":"2018-06"},"persistent_id":"6c0350ea7138e7dbf815cea4cfd15fec1e6373dbaead364c913804bd3251af09","id":65865029,"location_subtype":"","month":"2018-06"},{"category":"vehicle-crime","location_type":"Force","location":{"latitude":"52.509428","street":{"id":1259611,"name":"On or near Newport Road"},"longitude":"-1.796643"},"context":"","outcome_status":{"category":"Investigation complete; no suspect identified","date":"2018-06"},"persistent_id":"27f8b2730857787a2ef9d971217512f0caa7bd00cf69f8076c2ccc9f8b3066a0","id":65865023,"location_subtype":"","month":"2018-06"},{"category":"vehicle-crime","location_type":"Force","location":{"latitude":"52.512826","street":{"id":1262344,"name":"On or near Quilter Road"},"longitude":"-1.831063"},"context":"","outcome_status":{"category":"Investigation complete; no suspect identified","date":"2018-06"},"persistent_id":"aeb47bc970f85e05172796047b13d248289520e94cae6040354aae01b17f5ab7","id":65863601,"location_subtype":"","month":"2018-06"},{"category":"vehicle-crime","location_type":"Force","location":{"latitude":"52.521635","street":{"id":1262454,"name":"On or near Halford Grove"},"longitude":"-1.806844"},"context":"","outcome_status":{"category":"Investigation complete; no suspect identified","date":"2018-06"},"persistent_id":"62d1f8864d140d91f948f1c4c05823b40fae96d588cddcb5251fee9e50348760","id":65861791,"location_subtype":"","month":"2018-06"},{"category":"violent-crime","location_type":"Force","location":{"latitude":"52.524296","street":{"id":1262417,"name":"On or near Spiral Green"},"longitude":"-1.817872"},"context":"","outcome_status":{"category":"Under investigation","date":"2018-06"},"persistent_id":"96ea42c4679841b1d982bf6b7fbf3de1a689b3d8c3235b67646b628fc4570185","id":65870513,"location_subtype":"","month":"2018-06"},{"category":"violent-crime","location_type":"Force","location":{"latitude":"52.520444","street":{"id":1262440,"name":"On or near Smallwood Close"},"longitude":"-1.815441"},"context":"","outcome_status":{"category":"Unable to prosecute suspect","date":"2018-06"},"persistent_id":"e5bd8fc9f94555e36ba1a45ab713ef8fe8354f78e0ba16e97dd59eb590432e7a","id":65870940,"location_subtype":"","month":"2018-06"},{"category":"violent-crime","location_type":"Force","location":{"latitude":"52.516337","street":{"id":1262394,"name":"On or near Ardenleigh Way"},"longitude":"-1.834292"},"context":"","outcome_status":{"category":"Under investigation","date":"2018-06"},"persistent_id":"a69a6a4310c333ae40d0c7623c938462e4f3bde07473e6944864aeb737fa68ba","id":65860256,"location_subtype":"","month":"2018-06"},{"category":"violent-crime","location_type":"Force","location":{"latitude":"52.520790","street":{"id":1262414,"name":"On or near Terrys Lane"},"longitude":"-1.818225"},"context":"","outcome_status":{"category":"Local resolution","date":"2018-06"},"persistent_id":"38ab70c66a82a80000193efcb6dd874ae317dbafb2a6ab80c73bdaea2cb05f00","id":65870882,"location_subtype":"","month":"2018-06"},{"category":"violent-crime","location_type":"Force","location":{"latitude":"52.524296","street":{"id":1262417,"name":"On or near Spiral Green"},"longitude":"-1.817872"},"context":"","outcome_status":{"category":"Under investigation","date":"2018-06"},"persistent_id":"eb2b9060a5c33bdda38453c81346872469441366a1a4ac7ec64cbaf2e03775ee","id":65873564,"location_subtype":"","month":"2018-06"},{"category":"violent-crime","location_type":"Force","location":{"latitude":"52.508160","street":{"id":1259721,"name":"On or near Shopping Area"},"longitude":"-1.824937"},"context":"","outcome_status":{"category":"Under investigation","date":"2018-06"},"persistent_id":"2b9c4dbdf35d1fe81499663eba29f73ab656bd7a60de8a594783796a17b403ea","id":65873788,"location_subtype":"","month":"2018-06"},{"category":"violent-crime","location_type":"Force","location":{"latitude":"52.516337","street":{"id":1262394,"name":"On or near Ardenleigh Way"},"longitude":"-1.834292"},"context":"","outcome_status":{"category":"Unable to prosecute suspect","date":"2018-06"},"persistent_id":"f4256237413818dff2a5ebee86d78b202cb4a65f9087c04a24ec36657191bcd0","id":65861331,"location_subtype":"","month":"2018-06"},{"category":"violent-crime","location_type":"Force","location":{"latitude":"52.526452","street":{"id":1262688,"name":"On or near Saltney Close"},"longitude":"-1.811584"},"context":"","outcome_status":{"category":"Investigation complete; no suspect identified","date":"2018-06"},"persistent_id":"fc8cf43b23ca24b927b120363a8ed7e4bc5b2c67e9d16e62899214887500f2e9","id":65878900,"location_subtype":"","month":"2018-06"},{"category":"violent-crime","location_type":"Force","location":{"latitude":"52.522863","street":{"id":1262458,"name":"On or near Ellerby Grove"},"longitude":"-1.804407"},"context":"","outcome_status":{"category":"Unable to prosecute suspect","date":"2018-06"},"persistent_id":"97039a32f464cdbf0899d02a130eda7e35908c80a728088d51da207d0368ea29","id":65868424,"location_subtype":"","month":"2018-06"},{"category":"violent-crime","location_type":"Force","location":{"latitude":"52.516337","street":{"id":1262394,"name":"On or near Ardenleigh Way"},"longitude":"-1.834292"},"context":"","outcome_status":{"category":"Unable to prosecute suspect","date":"2018-06"},"persistent_id":"6681d459a419ea8e4b963a895771a815d130697a5f136857fb04c66ee90d11d5","id":65874019,"location_subtype":"","month":"2018-06"},{"category":"violent-crime","location_type":"Force","location":{"latitude":"52.517430","street":{"id":1262472,"name":"On or near Apollo Croft"},"longitude":"-1.813597"},"context":"","outcome_status":{"category":"Under investigation","date":"2018-06"},"persistent_id":"d4f783b0dca1cbefcfbc4301d58f361cdd0ffb25df687542cf7ab1618f906490","id":65874848,"location_subtype":"","month":"2018-06"},{"category":"violent-crime","location_type":"Force","location":{"latitude":"52.524482","street":{"id":1262439,"name":"On or near Sowerby March"},"longitude":"-1.810251"},"context":"","outcome_status":{"category":"Investigation complete; no suspect identified","date":"2018-06"},"persistent_id":"ad60c45e39be67da48460aca797eb2cb50555e69f0b0a4a0ae3a1efae5fdcfe1","id":65875490,"location_subtype":"","month":"2018-06"},{"category":"violent-crime","location_type":"Force","location":{"latitude":"52.522599","street":{"id":1262441,"name":"On or near Pype Hayes Road"},"longitude":"-1.813841"},"context":"","outcome_status":{"category":"Under investigation","date":"2018-06"},"persistent_id":"e6a73b206b1868fcca438ebd3625b978e65933fabec47f55bff5af8eabae9324","id":65875282,"location_subtype":"","month":"2018-06"},{"category":"violent-crime","location_type":"Force","location":{"latitude":"52.516177","street":{"id":1262377,"name":"On or near Colston Road"},"longitude":"-1.829208"},"context":"","outcome_status":{"category":"Under investigation","date":"2018-06"},"persistent_id":"df29acd8feecd12f7402ace31dc227816162a66b7b2b8e2b48a11ff0374fd81c","id":65876042,"location_subtype":"","month":"2018-06"},{"category":"violent-crime","location_type":"Force","location":{"latitude":"52.523374","street":{"id":1262486,"name":"On or near Edgemond Avenue"},"longitude":"-1.798524"},"context":"","outcome_status":{"category":"Awaiting court outcome","date":"2018-06"},"persistent_id":"bfb39b3872dd3cab50906ba11b70686da96fe7237a7306773468abce42d16a6f","id":65870530,"location_subtype":"","month":"2018-06"},{"category":"violent-crime","location_type":"Force","location":{"latitude":"52.520838","street":{"id":1262464,"name":"On or near Chester Road"},"longitude":"-1.803369"},"context":"","outcome_status":{"category":"Under investigation","date":"2018-06"},"persistent_id":"0ca376f24bc4d4dd43078c6fc2727a81db4296013fcac00fc6f4a4283cec3e52","id":65866186,"location_subtype":"","month":"2018-06"},{"category":"violent-crime","location_type":"Force","location":{"latitude":"52.522369","street":{"id":1262444,"name":"On or near Park Tree Walk"},"longitude":"-1.815934"},"context":"","outcome_status":{"category":"Under investigation","date":"2018-06"},"persistent_id":"713b7686e11cb4aa29d71cfb0f82587e5167bc2e46fdd9a29a4b0d927ddded33","id":65877341,"location_subtype":"","month":"2018-06"},{"category":"violent-crime","location_type":"Force","location":{"latitude":"52.515487","street":{"id":1262375,"name":"On or near Doreen Grove"},"longitude":"-1.831082"},"context":"","outcome_status":{"category":"Under investigation","date":"2018-06"},"persistent_id":"f60ac84d1af7c59b0e37c13b7c2af12d9e205e0fa8e6bab56e1578009336627f","id":65880394,"location_subtype":"","month":"2018-06"},{"category":"violent-crime","location_type":"Force","location":{"latitude":"52.517523","street":{"id":1262446,"name":"On or near Oakmeadow Way"},"longitude":"-1.815527"},"context":"","outcome_status":{"category":"Under investigation","date":"2018-06"},"persistent_id":"75b3a1519d4639621a36cd555380914db115c97fd23e6f5848c5c2595c39abdf","id":65863467,"location_subtype":"","month":"2018-06"},{"category":"violent-crime","location_type":"Force","location":{"latitude":"52.523871","street":{"id":1262484,"name":"On or near Galton Close"},"longitude":"-1.799598"},"context":"","outcome_status":{"category":"Under investigation","date":"2018-06"},"persistent_id":"d3b66c0cff21404f52e4d99062d6ec286ce4604487936fe7ab836a699371a054","id":65862459,"location_subtype":"","month":"2018-06"},{"category":"violent-crime","location_type":"Force","location":{"latitude":"52.518685","street":{"id":1262408,"name":"On or near Westwood View"},"longitude":"-1.817365"},"context":"","outcome_status":{"category":"Under investigation","date":"2018-06"},"persistent_id":"0a9fa285cc795419746ebf7dac941f3307a9f3305b9803b10363c3d5fcaadc53","id":65879792,"location_subtype":"","month":"2018-06"},{"category":"violent-crime","location_type":"Force","location":{"latitude":"52.520216","street":{"id":1262490,"name":"On or near Chester Road"},"longitude":"-1.801928"},"context":"","outcome_status":{"category":"Investigation complete; no suspect identified","date":"2018-06"},"persistent_id":"4f8198375168cb5ec502982a282fc21b56b29b993b4ac7204ed5d5edd1a1b875","id":65879366,"location_subtype":"","month":"2018-06"},{"category":"violent-crime","location_type":"Force","location":{"latitude":"52.519626","street":{"id":1262450,"name":"On or near Kingsbury Avenue"},"longitude":"-1.815283"},"context":"","outcome_status":{"category":"Under investigation","date":"2018-06"},"persistent_id":"304d6dc62e2ec1a710cab864b5c4589ef848febeebdd762892902de27b1bab79","id":65861972,"location_subtype":"","month":"2018-06"},{"category":"violent-crime","location_type":"Force","location":{"latitude":"52.528050","street":{"id":1262692,"name":"On or near Grange Road"},"longitude":"-1.815557"},"context":"","outcome_status":{"category":"Under investigation","date":"2018-06"},"persistent_id":"0e9348bcd701335c942ac24fc1bbdd8fd061a7a1c180e5e9ae13e87ae1c6780b","id":65880722,"location_subtype":"","month":"2018-06"},{"category":"violent-crime","location_type":"Force","location":{"latitude":"52.516177","street":{"id":1262377,"name":"On or near Colston Road"},"longitude":"-1.829208"},"context":"","outcome_status":{"category":"Under investigation","date":"2018-06"},"persistent_id":"db52108f795b41f2767b20b6c813be96c4bdaa88cea47e46b4b86cb91512bb4f","id":65860621,"location_subtype":"","month":"2018-06"},{"category":"violent-crime","location_type":"Force","location":{"latitude":"52.520790","street":{"id":1262414,"name":"On or near Terrys Lane"},"longitude":"-1.818225"},"context":"","outcome_status":{"category":"Under investigation","date":"2018-06"},"persistent_id":"a483675f6cfcf0ffcbf40cdaa8ad257fc1158882a38593b3308f0c1159c6c05e","id":65880756,"location_subtype":"","month":"2018-06"},{"category":"violent-crime","location_type":"Force","location":{"latitude":"52.516177","street":{"id":1262377,"name":"On or near Colston Road"},"longitude":"-1.829208"},"context":"","outcome_status":{"category":"Unable to prosecute suspect","date":"2018-06"},"persistent_id":"b0bcf89cba758c0a5c53567484b0751326e9ec373736ca5a1f06b11c95b16514","id":65860757,"location_subtype":"","month":"2018-06"},{"category":"violent-crime","location_type":"Force","location":{"latitude":"52.522863","street":{"id":1262458,"name":"On or near Ellerby Grove"},"longitude":"-1.804407"},"context":"","outcome_status":{"category":"Under investigation","date":"2018-06"},"persistent_id":"b793e39e1755b0a038892f8ae531ad2275ef3fd49e1bed2aad27a0ff8befaaca","id":65868113,"location_subtype":"","month":"2018-06"},{"category":"violent-crime","location_type":"Force","location":{"latitude":"52.515577","street":{"id":1262359,"name":"On or near Quorn Grove"},"longitude":"-1.825025"},"context":"","outcome_status":{"category":"Under investigation","date":"2018-06"},"persistent_id":"4ce8888e44568e6206b5a2e58837437d5591cff61789663cf31564999cea5c26","id":65868158,"location_subtype":"","month":"2018-06"},{"category":"violent-crime","location_type":"Force","location":{"latitude":"52.511524","street":{"id":1262424,"name":"On or near Wood Lane"},"longitude":"-1.825896"},"context":"","outcome_status":{"category":"Under investigation","date":"2018-06"},"persistent_id":"dfd8fb51d757635de69dc23749407959cdcad9af37851f123d93870f84c6c503","id":65869097,"location_subtype":"","month":"2018-06"},{"category":"violent-crime","location_type":"Force","location":{"latitude":"52.511014","street":{"id":1259705,"name":"On or near Tyburn Road"},"longitude":"-1.834090"},"context":"","outcome_status":{"category":"Under investigation","date":"2018-06"},"persistent_id":"d80df37a6bfe8f4726d2543e261189a88d6e29d104de530d007fcbf5f1b3db29","id":65866598,"location_subtype":"","month":"2018-06"},{"category":"violent-crime","location_type":"Force","location":{"latitude":"52.514288","street":{"id":1262364,"name":"On or near Inland Road"},"longitude":"-1.828508"},"context":"","outcome_status":{"category":"Under investigation","date":"2018-06"},"persistent_id":"c3a3b9d047d40a706aad61eb96553e5f3211cdb619b43191bdd58c9e1a36528d","id":65869144,"location_subtype":"","month":"2018-06"},{"category":"other-crime","location_type":"Force","location":{"latitude":"52.511014","street":{"id":1259705,"name":"On or near Tyburn Road"},"longitude":"-1.834090"},"context":"","outcome_status":{"category":"Awaiting court outcome","date":"2018-06"},"persistent_id":"f51e511292440455e80185941a208922fae9553fa5e623ba91fe672d149173ec","id":65874417,"location_subtype":"","month":"2018-06"},{"category":"other-crime","location_type":"Force","location":{"latitude":"52.525811","street":{"id":1262620,"name":"On or near Waterside Close"},"longitude":"-1.793251"},"context":"","outcome_status":{"category":"Unable to prosecute suspect","date":"2018-06"},"persistent_id":"740b2f672884e7392339ae87399c9c1cdcfb390a1c3a60730140607035718ea5","id":65862761,"location_subtype":"","month":"2018-06"}]