[{"category":"anti-social-behaviour","location_type":"Force","location":{"latitude":"51.601667","street":{"id":982421,"name":"On or near Sports\/recreation Area"},"longitude":"0.107686"},"context":"","outcome_status":null,"persistent_id":"","id":66150402,"location_subtype":"","month":"2018-06"},{"category":"anti-social-behaviour","location_type":"Force","location":{"latitude":"51.601667","street":{"id":982421,"name":"On or near Sports\/recreation Area"},"longitude":"0.107686"},"context":"","outcome_status":null,"persistent_id":"","id":66150403,"location_subtype":"","month":"2018-06"},{"category":"anti-social-behaviour","location_type":"Force","location":{"latitude":"51.586955","street":{"id":977296,"name":"On or near Carlton Drive"},"longitude":"0.086030"},"context":"","outcome_status":null,"persistent_id":"","id":66150491,"location_subtype":"","month":"2018-06"},{"category":"anti-social-behaviour","location_type":"Force","location":{"latitude":"51.602606","street":{"id":982390,"name":"On or near Elderberry Close"},"longitude":"0.074660"},"context":"","outcome_status":null,"persistent_id":"","id":66151197,"location_subtype":"","month":"2018-06"},{"category":"anti-social-behaviour","location_type":"Force","location":{"latitude":"51.602606","street":{"id":982390,"name":"On or near Elderberry Close"},"longitude":"0.074660"},"context":"","outcome_status":null,"persistent_id":"","id":66151189,"location_subtype":"","month":"2018-06"},{"category":"anti-social-behaviour","location_type":"Force","location":{"latitude":"51.602606","street":{"id":982390,"name":"On or near Elderberry Close"},"longitude":"0.074660"},"context":"","outcome_status":null,"persistent_id":"","id":66151188,"location_subtype":"","month":"2018-06"},{"category":"anti-social-behaviour","location_type":"Force","location":{"latitude":"51.596246","street":{"id":982318,"name":"On or near Timberdene Avenue"},"longitude":"0.078875"},"context":"","outcome_status":null,"persistent_id":"","id":66151115,"location_subtype":"","month":"2018-06"},{"category":"anti-social-behaviour","location_type":"Force","location":{"latitude":"51.596774","street":{"id":982321,"name":"On or near Meriden Close"},"longitude":"0.080545"},"context":"","outcome_status":null,"persistent_id":"","id":66151110,"location_subtype":"","month":"2018-06"},{"category":"anti-social-behaviour","location_type":"Force","location":{"latitude":"51.600036","street":{"id":982351,"name":"On or near Greenwood Gardens"},"longitude":"0.082673"},"context":"","outcome_status":null,"persistent_id":"","id":66151056,"location_subtype":"","month":"2018-06"},{"category":"anti-social-behaviour","location_type":"Force","location":{"latitude":"51.600036","street":{"id":982351,"name":"On or near Greenwood Gardens"},"longitude":"0.082673"},"context":"","outcome_status":null,"persistent_id":"","id":66151055,"location_subtype":"","month":"2018-06"},{"category":"anti-social-behaviour","location_type":"Force","location":{"latitude":"51.602433","street":{"id":982348,"name":"On or near Katherine Gardens"},"longitude":"0.082941"},"context":"","outcome_status":null,"persistent_id":"","id":66151043,"location_subtype":"","month":"2018-06"},{"category":"anti-social-behaviour","location_type":"Force","location":{"latitude":"51.602433","street":{"id":982348,"name":"On or near Katherine Gardens"},"longitude":"0.082941"},"context":"","outcome_status":null,"persistent_id":"","id":66151042,"location_subtype":"","month":"2018-06"},{"category":"anti-social-behaviour","location_type":"Force","location":{"latitude":"51.601572","street":{"id":982357,"name":"On or near Cleves Walk"},"longitude":"0.082815"},"context":"","outcome_status":null,"persistent_id":"","id":66151041,"location_subtype":"","month":"2018-06"},{"category":"anti-social-behaviour","location_type":"Force","location":{"latitude":"51.601572","street":{"id":982357,"name":"On or near Cleves Walk"},"longitude":"0.082815"},"context":"","outcome_status":null,"persistent_id":"","id":66151040,"location_subtype":"","month":"2018-06"},{"category":"anti-social-behaviour","location_type":"Force","location":{"latitude":"51.602734","street":{"id":982446,"name":"On or near Walden Way"},"longitude":"0.095807"},"context":"","outcome_status":null,"persistent_id":"","id":66150465,"location_subtype":"","month":"2018-06"},{"category":"anti-social-behaviour","location_type":"Force","location":{"latitude":"51.601752","street":{"id":982459,"name":"On or near Sports\/recreation Area"},"longitude":"0.105943"},"context":"","outcome_status":null,"persistent_id":"","id":66150413,"location_subtype":"","month":"2018-06"},{"category":"anti-social-behaviour","location_type":"Force","location":{"latitude":"51.602633","street":{"id":982404,"name":"On or near Marion Close"},"longitude":"0.085824"},"context":"","outcome_status":null,"persistent_id":"","id":66151021,"location_subtype":"","month":"2018-06"},{"category":"anti-social-behaviour","location_type":"Force","location":{"latitude":"51.602633","street":{"id":982404,"name":"On or near Marion Close"},"longitude":"0.085824"},"context":"","outcome_status":null,"persistent_id":"","id":66151020,"location_subtype":"","month":"2018-06"},{"category":"anti-social-behaviour","location_type":"Force","location":{"latitude":"51.593866","street":{"id":977286,"name":"On or near Fullwell Avenue"},"longitude":"0.084758"},"context":"","outcome_status":null,"persistent_id":"","id":66150501,"location_subtype":"","month":"2018-06"},{"category":"anti-social-behaviour","location_type":"Force","location":{"latitude":"51.586955","street":{"id":977296,"name":"On or near Carlton Drive"},"longitude":"0.086030"},"context":"","outcome_status":null,"persistent_id":"","id":66150492,"location_subtype":"","month":"2018-06"},{"category":"anti-social-behaviour","location_type":"Force","location":{"latitude":"51.591878","street":{"id":977264,"name":"On or near Virginia Gardens"},"longitude":"0.085331"},"context":"","outcome_status":null,"persistent_id":"","id":66150490,"location_subtype":"","month":"2018-06"},{"category":"bicycle-theft","location_type":"Force","location":{"latitude":"51.586955","street":{"id":977296,"name":"On or near Carlton Drive"},"longitude":"0.086030"},"context":"","outcome_status":{"category":"Under investigation","date":"2018-06"},"persistent_id":"e27699d39bcdc2e4d84114f8dacc341ec4e469036dd3d48edc46fa6df8c22294","id":66221708,"location_subtype":"","month":"2018-06"},{"category":"bicycle-theft","location_type":"BTP","location":{"latitude":"51.603500","street":{"id":1488520,"name":"Hainault (lu Station)"},"longitude":"0.093402"},"context":"","outcome_status":{"category":"Under investigation","date":"2018-06"},"persistent_id":"","id":66355364,"location_subtype":"LU STATION","month":"2018-06"},{"category":"burglary","location_type":"Force","location":{"latitude":"51.596769","street":{"id":982326,"name":"On or near Addison Road"},"longitude":"0.083346"},"context":"","outcome_status":{"category":"Under investigation","date":"2018-06"},"persistent_id":"f975729a1d10fc9a521fb6674b77cca931052bfdd91242382d7e3a63921dbe0d","id":66187953,"location_subtype":"","month":"2018-06"},{"category":"burglary","location_type":"Force","location":{"latitude":"51.600179","street":{"id":982367,"name":"On or near Sports\/recreation Area"},"longitude":"0.089856"},"context":"","outcome_status":{"category":"Under investigation","date":"2018-06"},"persistent_id":"0c22c5b5557d7b98d16d9a5edceec4ca1e6dfcb3b2b5676af6db87053145b490","id":66162272,"location_subtype":"","month":"2018-06"},{"category":"burglary","location_type":"Force","location":{"latitude":"51.605064","street":{"id":982366,"name":"On or near Amanda Close"},"longitude":"0.089734"},"context":"","outcome_status":{"category":"Under investigation","date":"2018-06"},"persistent_id":"836d6d37510cc21ef5da5bb67abaa82b50a69cd31ac988844ca3ba83271ddd0f","id":66181268,"location_subtype":"","month":"2018-06"},{"category":"burglary","location_type":"Force","location":{"latitude":"51.602086","street":{"id":982369,"name":"On or near Supermarket"},"longitude":"0.083749"},"context":"","outcome_status":{"category":"Under investigation","date":"2018-06"},"persistent_id":"ea9f443ead54d72cd8ea09062ff6a24a43cc3520b3b30c59df454b170584f5b8","id":66191994,"location_subtype":"","month":"2018-06"},{"category":"burglary","location_type":"Force","location":{"latitude":"51.603026","street":{"id":982342,"name":"On or near Maypole Crescent"},"longitude":"0.087517"},"context":"","outcome_status":{"category":"Under investigation","date":"2018-06"},"persistent_id":"789f30c1988a2a3aad7a671a6eb348bdffe535066ec1653ac1578ccb5a4db909","id":66168895,"location_subtype":"","month":"2018-06"},{"category":"criminal-damage-arson","location_type":"Force","location":{"latitude":"51.596769","street":{"id":982326,"name":"On or near Addison Road"},"longitude":"0.083346"},"context":"","outcome_status":{"category":"Under investigation","date":"2018-06"},"persistent_id":"91d71c6dd4114cc1766fa1ffc30f5d450be32451d577af896025887d1344004b","id":66168031,"location_subtype":"","month":"2018-06"},{"category":"criminal-damage-arson","location_type":"Force","location":{"latitude":"51.586955","street":{"id":977296,"name":"On or near Carlton Drive"},"longitude":"0.086030"},"context":"","outcome_status":{"category":"Under investigation","date":"2018-06"},"persistent_id":"6072f581ec75db9de6c85da8c6eea52276580d85ddf04950df97a6e9ea5784b1","id":66184467,"location_subtype":"","month":"2018-06"},{"category":"criminal-damage-arson","location_type":"Force","location":{"latitude":"51.598974","street":{"id":982441,"name":"On or near Sports\/recreation Area"},"longitude":"0.097367"},"context":"","outcome_status":{"category":"Under investigation","date":"2018-06"},"persistent_id":"403f75787e64d9e07b97f94da348eb21599c540275664bd2eac118de96e20821","id":66207674,"location_subtype":"","month":"2018-06"},{"category":"criminal-damage-arson","location_type":"Force","location":{"latitude":"51.593866","street":{"id":977286,"name":"On or near Fullwell Avenue"},"longitude":"0.084758"},"context":"","outcome_status":{"category":"Under investigation","date":"2018-06"},"persistent_id":"0b30bda51e977ff3063833ee4023877bc46ba058c8ec2e3722d919c1ec5ec0f8","id":66210324,"location_subtype":"","month":"2018-06"},{"category":"criminal-damage-arson","location_type":"Force","location":{"latitude":"51.602433","street":{"id":982348,"name":"On or near Katherine Gardens"},"longitude":"0.082941"},"context":"","outcome_status":{"category":"Under investigation","date":"2018-06"},"persistent_id":"670716a7399ed0e7c8d5b1168e836c464177e0e625e401c9c69df95942ae2ed2","id":66164869,"location_subtype":"","month":"2018-06"},{"category":"drugs","location_type":"Force","location":{"latitude":"51.603849","street":{"id":982433,"name":"On or near Kelsie Way"},"longitude":"0.096335"},"context":"","outcome_status":{"category":"Under investigation","date":"2018-06"},"persistent_id":"b390d669477a0a2f62a507d0da24361e3b8144c91bcbe2b1cd51c707a4deaae9","id":66196246,"location_subtype":"","month":"2018-06"},{"category":"drugs","location_type":"Force","location":{"latitude":"51.594578","street":{"id":982400,"name":"On or near Greystone Gardens"},"longitude":"0.082669"},"context":"","outcome_status":{"category":"Under investigation","date":"2018-06"},"persistent_id":"bb00f4a9a1c4c6a81ea53839e9852630f8b394f69d1658fc1c072eb0ff8b1e42","id":66198222,"location_subtype":"","month":"2018-06"},{"category":"drugs","location_type":"Force","location":{"latitude":"51.588027","street":{"id":977267,"name":"On or near Tanners Lane"},"longitude":"0.082412"},"context":"","outcome_status":{"category":"Under investigation","date":"2018-06"},"persistent_id":"b379580faaff1fdad0e32cce796ad7641eb98dfe8b30a2b5b1e0833daacc56c8","id":66187128,"location_subtype":"","month":"2018-06"},{"category":"drugs","location_type":"Force","location":{"latitude":"51.605831","street":{"id":982346,"name":"On or near Knights Way"},"longitude":"0.079977"},"context":"","outcome_status":{"category":"Under investigation","date":"2018-06"},"persistent_id":"0d6bfd27ae2053de548ca9f85823330c9248394748e7836b7bea22dd9b838429","id":66197980,"location_subtype":"","month":"2018-06"},{"category":"other-theft","location_type":"Force","location":{"latitude":"51.593866","street":{"id":977286,"name":"On or near Fullwell Avenue"},"longitude":"0.084758"},"context":"","outcome_status":{"category":"Under investigation","date":"2018-06"},"persistent_id":"998e7972a3d3e7619b0ad986960468f1e59033b33124470cc5519cbfa6210581","id":66211282,"location_subtype":"","month":"2018-06"},{"category":"other-theft","location_type":"Force","location":{"latitude":"51.602633","street":{"id":982404,"name":"On or near Marion Close"},"longitude":"0.085824"},"context":"","outcome_status":{"category":"Under investigation","date":"2018-06"},"persistent_id":"bee80ed6d0ef9aa84b5f9fdf47ae111ff9bb0bcc98d6447d7268e2ecd52d315a","id":66193662,"location_subtype":"","month":"2018-06"},{"category":"other-theft","location_type":"Force","location":{"latitude":"51.599564","street":{"id":982376,"name":"On or near Hoveton Way"},"longitude":"0.076846"},"context":"","outcome_status":{"category":"Under investigation","date":"2018-06"},"persistent_id":"ec7abfe8275fde2567c2c981b7586d14c314e8fb457e722f71a41b94776e54e4","id":66209183,"location_subtype":"","month":"2018-06"},{"category":"other-theft","location_type":"Force","location":{"latitude":"51.593632","street":{"id":977304,"name":"On or near A123"},"longitude":"0.084820"},"context":"","outcome_status":{"category":"Under investigation","date":"2018-06"},"persistent_id":"19fd77002d1c45b1d8daf69e98329f898227a3cb4a8205b9e1ec38c6500313fd","id":66214052,"location_subtype":"","month":"2018-06"},{"category":"other-theft","location_type":"Force","location":{"latitude":"51.594640","street":{"id":982401,"name":"On or near Forest Road"},"longitude":"0.088259"},"context":"","outcome_status":{"category":"Under investigation","date":"2018-06"},"persistent_id":"58ffa398962b89122fa3a04f33c181990c3844d360065103e361846b4f919506","id":66161691,"location_subtype":"","month":"2018-06"},{"category":"other-theft","location_type":"BTP","location":{"latitude":"51.596000","street":{"id":1488516,"name":"Fairlop (lu Station)"},"longitude":"0.091139"},"context":"","outcome_status":{"category":"Under investigation","date":"2018-06"},"persistent_id":"","id":66355302,"location_subtype":"LU STATION","month":"2018-06"},{"category":"other-theft","location_type":"Force","location":{"latitude":"51.604033","street":{"id":982448,"name":"On or near New North Road"},"longitude":"0.093600"},"context":"","outcome_status":{"category":"Under investigation","date":"2018-06"},"persistent_id":"e98618edf71b78cb2b7805aa6b0810ff0bcb3c10053985cb3173827582c50e61","id":66205797,"location_subtype":"","month":"2018-06"},{"category":"other-theft","location_type":"Force","location":{"latitude":"51.596769","street":{"id":982326,"name":"On or near Addison Road"},"longitude":"0.083346"},"context":"","outcome_status":{"category":"Under investigation","date":"2018-06"},"persistent_id":"528eb728fc819884dfa6f3da20f261a18a7a9f4715563b100bd6833c8878f2e3","id":66211396,"location_subtype":"","month":"2018-06"},{"category":"public-order","location_type":"Force","location":{"latitude":"51.593866","street":{"id":977286,"name":"On or near Fullwell Avenue"},"longitude":"0.084758"},"context":"","outcome_status":{"category":"Under investigation","date":"2018-06"},"persistent_id":"32792236f75881119dd34996d5556255aeb23ce864c14dc3dd23a0eaa3932320","id":66163710,"location_subtype":"","month":"2018-06"},{"category":"public-order","location_type":"Force","location":{"latitude":"51.604033","street":{"id":982448,"name":"On or near New North Road"},"longitude":"0.093600"},"context":"","outcome_status":{"category":"Under investigation","date":"2018-06"},"persistent_id":"b23eb59a251c038e2858a1818dbfe2e494594eb372f3451e1a308749bd2f2579","id":66198240,"location_subtype":"","month":"2018-06"},{"category":"public-order","location_type":"Force","location":{"latitude":"51.594640","street":{"id":982401,"name":"On or near Forest Road"},"longitude":"0.088259"},"context":"","outcome_status":{"category":"Under investigation","date":"2018-06"},"persistent_id":"926c700feb274c712bf28f462f39c1cff8efcc1b93a2235f6d471edea89bfdcd","id":66170906,"location_subtype":"","month":"2018-06"},{"category":"robbery","location_type":"Force","location":{"latitude":"51.593632","street":{"id":977304,"name":"On or near A123"},"longitude":"0.084820"},"context":"","outcome_status":{"category":"Under investigation","date":"2018-06"},"persistent_id":"19fd77002d1c45b1d8daf69e98329f898227a3cb4a8205b9e1ec38c6500313fd","id":66214156,"location_subtype":"","month":"2018-06"},{"category":"robbery","location_type":"Force","location":{"latitude":"51.588027","street":{"id":977267,"name":"On or near Tanners Lane"},"longitude":"0.082412"},"context":"","outcome_status":{"category":"Under investigation","date":"2018-06"},"persistent_id":"8bd133dc98c583e2347199661332ab7fbc36b111d458b681d251e6f1a4814d73","id":66167539,"location_subtype":"","month":"2018-06"},{"category":"robbery","location_type":"Force","location":{"latitude":"51.596769","street":{"id":982326,"name":"On or near Addison Road"},"longitude":"0.083346"},"context":"","outcome_status":{"category":"Under investigation","date":"2018-06"},"persistent_id":"2f6c5f5a96ac208478daf85b20d6268330fa3f2980f676821e8e6a14cd290930","id":66196375,"location_subtype":"","month":"2018-06"},{"category":"shoplifting","location_type":"Force","location":{"latitude":"51.588462","street":{"id":977309,"name":"On or near Supermarket"},"longitude":"0.081681"},"context":"","outcome_status":{"category":"Under investigation","date":"2018-06"},"persistent_id":"924cdbe0309d845d9b8ebc1bd2edc4f668f5a57b55e967ce7c2f0888d33e36a8","id":66166104,"location_subtype":"","month":"2018-06"},{"category":"shoplifting","location_type":"Force","location":{"latitude":"51.588462","street":{"id":977309,"name":"On or near Supermarket"},"longitude":"0.081681"},"context":"","outcome_status":{"category":"Under investigation","date":"2018-06"},"persistent_id":"6f14fe17c0c6388a9be1fdb66750a56890b9414136755e956eeb41ae67beb773","id":66214321,"location_subtype":"","month":"2018-06"},{"category":"theft-from-the-person","location_type":"Force","location":{"latitude":"51.596041","street":{"id":982444,"name":"On or near Parking Area"},"longitude":"0.090937"},"context":"","outcome_status":{"category":"Under investigation","date":"2018-06"},"persistent_id":"13e745786528335353ecf1a2b77705b2c2ed1d916c0ef6f1467c3ae6e7283ed6","id":66178951,"location_subtype":"","month":"2018-06"},{"category":"theft-from-the-person","location_type":"BTP","location":{"latitude":"51.603500","street":{"id":1488520,"name":"Hainault (lu Station)"},"longitude":"0.093402"},"context":"","outcome_status":{"category":"Under investigation","date":"2018-06"},"persistent_id":"","id":66355366,"location_subtype":"LU STATION","month":"2018-06"},{"category":"theft-from-the-person","location_type":"BTP","location":{"latitude":"51.603500","street":{"id":1488520,"name":"Hainault (lu Station)"},"longitude":"0.093402"},"context":"","outcome_status":{"category":"Under investigation","date":"2018-06"},"persistent_id":"","id":66355365,"location_subtype":"LU STATION","month":"2018-06"},{"category":"theft-from-the-person","location_type":"Force","location":{"latitude":"51.604033","street":{"id":982448,"name":"On or near New North Road"},"longitude":"0.093600"},"context":"","outcome_status":{"category":"Under investigation","date":"2018-06"},"persistent_id":"783e5786a7050571ea8e45fe77522fbe108002b6ba535922c66907c669d669ba","id":66212463,"location_subtype":"","month":"2018-06"},{"category":"theft-from-the-person","location_type":"Force","location":{"latitude":"51.604033","street":{"id":982448,"name":"On or near New North Road"},"longitude":"0.093600"},"context":"","outcome_status":{"category":"Under investigation","date":"2018-06"},"persistent_id":"040431ac3d5078b1867973f8f80da33e82a0484eb3184db2c6f059923cf3b74c","id":66220516,"location_subtype":"","month":"2018-06"},{"category":"vehicle-crime","location_type":"Force","location":{"latitude":"51.604326","street":{"id":982450,"name":"On or near Laing Close"},"longitude":"0.090234"},"context":"","outcome_status":{"category":"Under investigation","date":"2018-06"},"persistent_id":"29466a76bdd7438d5806656c1d21075eeff45e011a3e7a824679d3def61f6398","id":66188470,"location_subtype":"","month":"2018-06"},{"category":"vehicle-crime","location_type":"Force","location":{"latitude":"51.594578","street":{"id":982400,"name":"On or near Greystone Gardens"},"longitude":"0.082669"},"context":"","outcome_status":{"category":"Under investigation","date":"2018-06"},"persistent_id":"c05f92645780fd1e1fa7033a7fbb30fda7fefa9240a85d93362c84a11da05cca","id":66211261,"location_subtype":"","month":"2018-06"},{"category":"vehicle-crime","location_type":"Force","location":{"latitude":"51.596369","street":{"id":982317,"name":"On or near Genas Close"},"longitude":"0.077004"},"context":"","outcome_status":{"category":"Under investigation","date":"2018-06"},"persistent_id":"76252195cc6405c1013d2020242c3dd5c5beb7762957753dcac3460f376a6001","id":66220503,"location_subtype":"","month":"2018-06"},{"category":"vehicle-crime","location_type":"Force","location":{"latitude":"51.596504","street":{"id":982322,"name":"On or near Marlowe Close"},"longitude":"0.083580"},"context":"","outcome_status":{"category":"Under investigation","date":"2018-06"},"persistent_id":"9bebbde4fe4977835441ccb8a300168e036e5157fcf75666bbdbe25d71dc8925","id":66165207,"location_subtype":"","month":"2018-06"},{"category":"vehicle-crime","location_type":"Force","location":{"latitude":"51.602698","street":{"id":982341,"name":"On or near Merlin Grove"},"longitude":"0.078145"},"context":"","outcome_status":{"category":"Under investigation","date":"2018-06"},"persistent_id":"01e53b4f7831dabd73ce5357955cc9ab7a3e6925541f75fb58b4a55159e44b4e","id":66208820,"location_subtype":"","month":"2018-06"},{"category":"vehicle-crime","location_type":"Force","location":{"latitude":"51.599283","street":{"id":982363,"name":"On or near Benrek Close"},"longitude":"0.079519"},"context":"","outcome_status":{"category":"Under investigation","date":"2018-06"},"persistent_id":"61b05cb17f883c68172cee7f9e2439350cb11ffcd711035f5197330c65f61a09","id":66161614,"location_subtype":"","month":"2018-06"},{"category":"vehicle-crime","location_type":"Force","location":{"latitude":"51.602258","street":{"id":982452,"name":"On or near Hazelbrouck Gardens"},"longitude":"0.091251"},"context":"","outcome_status":{"category":"Under investigation","date":"2018-06"},"persistent_id":"21814dc3cc4273c2a9f3356504e2ef5518105e4c531d5c5526d443ddee448bdf","id":66207279,"location_subtype":"","month":"2018-06"},{"category":"vehicle-crime","location_type":"Force","location":{"latitude":"51.596369","street":{"id":982317,"name":"On or near Genas Close"},"longitude":"0.077004"},"context":"","outcome_status":{"category":"Under investigation","date":"2018-06"},"persistent_id":"b8d86e7ccb915a0db465d15838106414d323fcf6d7b4a619520e039e4d937eab","id":66207057,"location_subtype":"","month":"2018-06"},{"category":"vehicle-crime","location_type":"Force","location":{"latitude":"51.602433","street":{"id":982348,"name":"On or near Katherine Gardens"},"longitude":"0.082941"},"context":"","outcome_status":{"category":"Under investigation","date":"2018-06"},"persistent_id":"254198ecd717aeda31f544bff35eab2336b787e548d29d88bc2a65ac2c1543e8","id":66193544,"location_subtype":"","month":"2018-06"},{"category":"vehicle-crime","location_type":"Force","location":{"latitude":"51.600179","street":{"id":982367,"name":"On or near Sports\/recreation Area"},"longitude":"0.089856"},"context":"","outcome_status":{"category":"Under investigation","date":"2018-06"},"persistent_id":"f60e9e4a517d1994f79f406cd2d73b02eb7a83f33d0479ef8d4eae715c0eee5d","id":66199781,"location_subtype":"","month":"2018-06"},{"category":"violent-crime","location_type":"Force","location":{"latitude":"51.601127","street":{"id":923627,"name":"On or near Hanover Gardens"},"longitude":"0.080008"},"context":"","outcome_status":{"category":"Under investigation","date":"2018-06"},"persistent_id":"72781782a644f6d99b3d74bcedd4c0062e64b2f943bda8c96808afd7ab9c0c74","id":66209244,"location_subtype":"","month":"2018-06"},{"category":"violent-crime","location_type":"Force","location":{"latitude":"51.598102","street":{"id":982347,"name":"On or near Kingsley Road"},"longitude":"0.082758"},"context":"","outcome_status":{"category":"Under investigation","date":"2018-06"},"persistent_id":"db5444b423243641bdfd15e52a0397c7f4b8109896e61144857e4b789d480180","id":66207640,"location_subtype":"","month":"2018-06"},{"category":"violent-crime","location_type":"Force","location":{"latitude":"51.601572","street":{"id":982357,"name":"On or near Cleves Walk"},"longitude":"0.082815"},"context":"","outcome_status":{"category":"Under investigation","date":"2018-06"},"persistent_id":"c796c81bae05beb60536ff0ce69f5bd96655d5c14bed7d3793ae8887fb4933bf","id":66153863,"location_subtype":"","month":"2018-06"},{"category":"violent-crime","location_type":"Force","location":{"latitude":"51.586961","street":{"id":977270,"name":"On or near Station Road"},"longitude":"0.087243"},"context":"","outcome_status":{"category":"Under investigation","date":"2018-06"},"persistent_id":"0ded4f01881fb3ef862416a938f229b5a0c6e89ceb2e2b396f8d7c696884d1d2","id":66185130,"location_subtype":"","month":"2018-06"},{"category":"violent-crime","location_type":"BTP","location":{"latitude":"51.603500","street":{"id":1488520,"name":"Hainault (lu Station)"},"longitude":"0.093402"},"context":"","outcome_status":{"category":"Under investigation","date":"2018-06"},"persistent_id":"","id":66355363,"location_subtype":"LU STATION","month":"2018-06"},{"category":"violent-crime","location_type":"Force","location":{"latitude":"51.593866","street":{"id":977286,"name":"On or near Fullwell Avenue"},"longitude":"0.084758"},"context":"","outcome_status":{"category":"Under investigation","date":"2018-06"},"persistent_id":"86970462a67551a587862add59f0a8eeab9192ba10f7bcfb419d80f0b753006a","id":66189960,"location_subtype":"","month":"2018-06"},{"category":"violent-crime","location_type":"Force","location":{"latitude":"51.588471","street":{"id":977293,"name":"On or near Cranbourne Gardens"},"longitude":"0.084223"},"context":"","outcome_status":{"category":"Under investigation","date":"2018-06"},"persistent_id":"e0f4ed54a461f51c870991e0bab475b0e772533260f1e10d8d6ec06277ceb6b3","id":66190385,"location_subtype":"","month":"2018-06"},{"category":"violent-crime","location_type":"Force","location":{"latitude":"51.586955","street":{"id":977296,"name":"On or near Carlton Drive"},"longitude":"0.086030"},"context":"","outcome_status":{"category":"Under investigation","date":"2018-06"},"persistent_id":"ae49170a1521a4b94e8d68962a79bbcdc83e3aa17decaa27539ccc72656e83b3","id":66187316,"location_subtype":"","month":"2018-06"},{"category":"violent-crime","location_type":"Force","location":{"latitude":"51.592585","street":{"id":977257,"name":"On or near Parking Area"},"longitude":"0.085032"},"context":"","outcome_status":{"category":"Under investigation","date":"2018-06"},"persistent_id":"1831cf579923197151c280520677441ced94794fac90bc4d4556c1cff198be9e","id":66188319,"location_subtype":"","month":"2018-06"},{"category":"violent-crime","location_type":"Force","location":{"latitude":"51.592585","street":{"id":977257,"name":"On or near Parking Area"},"longitude":"0.085032"},"context":"","outcome_status":{"category":"Under investigation","date":"2018-06"},"persistent_id":"1831cf579923197151c280520677441ced94794fac90bc4d4556c1cff198be9e","id":66188318,"location_subtype":"","month":"2018-06"},{"category":"violent-crime","location_type":"Force","location":{"latitude":"51.592585","street":{"id":977257,"name":"On or near Parking Area"},"longitude":"0.085032"},"context":"","outcome_status":{"category":"Under investigation","date":"2018-06"},"persistent_id":"1831cf579923197151c280520677441ced94794fac90bc4d4556c1cff198be9e","id":66188317,"location_subtype":"","month":"2018-06"},{"category":"violent-crime","location_type":"Force","location":{"latitude":"51.605700","street":{"id":982337,"name":"On or near Shakespeare Square"},"longitude":"0.078195"},"context":"","outcome_status":{"category":"Under investigation","date":"2018-06"},"persistent_id":"2be85c69c3f2636b0c1d9409709cbd8b14244b5a4901cfdd7dd713795f6fc548","id":66198901,"location_subtype":"","month":"2018-06"},{"category":"violent-crime","location_type":"Force","location":{"latitude":"51.596574","street":{"id":982320,"name":"On or near Mossford Lane"},"longitude":"0.081648"},"context":"","outcome_status":{"category":"Under investigation","date":"2018-06"},"persistent_id":"802b8826da0753fd6b1e8968b904f5a99b2e090343fbe26d5fc091e5b1f861a4","id":66181367,"location_subtype":"","month":"2018-06"},{"category":"violent-crime","location_type":"Force","location":{"latitude":"51.598974","street":{"id":982441,"name":"On or near Sports\/recreation Area"},"longitude":"0.097367"},"context":"","outcome_status":{"category":"Under investigation","date":"2018-06"},"persistent_id":"eb9048246c006ba43fa508411d7f24a60c1e9fa9c8601cbd1e42f10946f24c7a","id":66178881,"location_subtype":"","month":"2018-06"},{"category":"violent-crime","location_type":"Force","location":{"latitude":"51.588027","street":{"id":977267,"name":"On or near Tanners Lane"},"longitude":"0.082412"},"context":"","outcome_status":{"category":"Under investigation","date":"2018-06"},"persistent_id":"8bd133dc98c583e2347199661332ab7fbc36b111d458b681d251e6f1a4814d73","id":66172540,"location_subtype":"","month":"2018-06"},{"category":"violent-crime","location_type":"Force","location":{"latitude":"51.592585","street":{"id":977257,"name":"On or near Parking Area"},"longitude":"0.085032"},"context":"","outcome_status":{"category":"Under investigation","date":"2018-06"},"persistent_id":"e47dbb27c517ebcc011c3947ebb94c2e55701bb87ce89bc38050a1d8d0ca3d4a","id":66210668,"location_subtype":"","month":"2018-06"},{"category":"violent-crime","location_type":"Force","location":{"latitude":"51.598945","street":{"id":982328,"name":"On or near Wroxham Way"},"longitude":"0.077771"},"context":"","outcome_status":{"category":"Under investigation","date":"2018-06"},"persistent_id":"cbc946e893f074cce2f1704f02f976881acf9ce1d351351a6369db05fae423bc","id":66199924,"location_subtype":"","month":"2018-06"},{"category":"violent-crime","location_type":"Force","location":{"latitude":"51.594640","street":{"id":982401,"name":"On or near Forest Road"},"longitude":"0.088259"},"context":"","outcome_status":{"category":"Under investigation","date":"2018-06"},"persistent_id":"2384ba3ebeaaec7f86ca5cc0bf9eca28e4028e1ddb6e5cd1ce6b06acb0fff925","id":66168148,"location_subtype":"","month":"2018-06"},{"category":"violent-crime","location_type":"Force","location":{"latitude":"51.588920","street":{"id":977274,"name":"On or near Sandringham Close"},"longitude":"0.082756"},"context":"","outcome_status":{"category":"Under investigation","date":"2018-06"},"persistent_id":"325d814e4e86539c89d011fb4ed38ee165759dc6233792d9222069813469dd52","id":66202624,"location_subtype":"","month":"2018-06"},{"category":"violent-crime","location_type":"Force","location":{"latitude":"51.599283","street":{"id":982363,"name":"On or near Benrek Close"},"longitude":"0.079519"},"context":"","outcome_status":{"category":"Under investigation","date":"2018-06"},"persistent_id":"b00182f52024840f510ffa7f7392db6f102e67bc712f69803635007172797587","id":66205229,"location_subtype":"","month":"2018-06"},{"category":"violent-crime","location_type":"Force","location":{"latitude":"51.594640","street":{"id":982401,"name":"On or near Forest Road"},"longitude":"0.088259"},"context":"","outcome_status":{"category":"Under investigation","date":"2018-06"},"persistent_id":"3c89bd56b838b71e085cc4e8293167beff413efa74cff0b5ecda656237a2686f","id":66164366,"location_subtype":"","month":"2018-06"},{"category":"violent-crime","location_type":"Force","location":{"latitude":"51.600179","street":{"id":982367,"name":"On or near Sports\/recreation Area"},"longitude":"0.089856"},"context":"","outcome_status":{"category":"Under investigation","date":"2018-06"},"persistent_id":"0c22c5b5557d7b98d16d9a5edceec4ca1e6dfcb3b2b5676af6db87053145b490","id":66162618,"location_subtype":"","month":"2018-06"},{"category":"violent-crime","location_type":"Force","location":{"latitude":"51.593632","street":{"id":977304,"name":"On or near A123"},"longitude":"0.084820"},"context":"","outcome_status":{"category":"Under investigation","date":"2018-06"},"persistent_id":"85513705279f62fdf6ff3b4cc81136ca2be5fae968339d6dea6a252bcb636997","id":66212955,"location_subtype":"","month":"2018-06"},{"category":"violent-crime","location_type":"Force","location":{"latitude":"51.604901","street":{"id":982447,"name":"On or near Thurlow Gardens"},"longitude":"0.092282"},"context":"","outcome_status":{"category":"Under investigation","date":"2018-06"},"persistent_id":"971de4d275b54eb012f9f19df81b5069bad09f51bb20fb2568f284465879e0a7","id":66157425,"location_subtype":"","month":"2018-06"},{"category":"violent-crime","location_type":"Force","location":{"latitude":"51.594640","street":{"id":982401,"name":"On or near Forest Road"},"longitude":"0.088259"},"context":"","outcome_status":{"category":"Under investigation","date":"2018-06"},"persistent_id":"d1421533728be262d8c1af19d1880cb6e0df564a0b20db68119d418da814d938","id":66210062,"location_subtype":"","month":"2018-06"},{"category":"violent-crime","location_type":"Force","location":{"latitude":"51.603026","street":{"id":982342,"name":"On or near Maypole Crescent"},"longitude":"0.087517"},"context":"","outcome_status":{"category":"Under investigation","date":"2018-06"},"persistent_id":"4e13ba4cd709fbeb076b0bc40489c09a420fcc0ceb278742f12a347aa6156386","id":66209367,"location_subtype":"","month":"2018-06"}]