[{"category":"anti-social-behaviour","location_type":"Force","location":{"latitude":"51.567116","street":{"id":973086,"name":"On or near Eastleigh Avenue"},"longitude":"-0.361516"},"context":"","outcome_status":null,"persistent_id":"","id":57035879,"location_subtype":"","month":"2017-05"},{"category":"anti-social-behaviour","location_type":"Force","location":{"latitude":"51.565331","street":{"id":973037,"name":"On or near Malvern Avenue"},"longitude":"-0.375403"},"context":"","outcome_status":null,"persistent_id":"","id":57035945,"location_subtype":"","month":"2017-05"},{"category":"anti-social-behaviour","location_type":"Force","location":{"latitude":"51.560204","street":{"id":966788,"name":"On or near Kenilworth Avenue"},"longitude":"-0.377244"},"context":"","outcome_status":null,"persistent_id":"","id":57035947,"location_subtype":"","month":"2017-05"},{"category":"anti-social-behaviour","location_type":"Force","location":{"latitude":"51.561909","street":{"id":966783,"name":"On or near Primrose Close"},"longitude":"-0.377011"},"context":"","outcome_status":null,"persistent_id":"","id":57035949,"location_subtype":"","month":"2017-05"},{"category":"anti-social-behaviour","location_type":"Force","location":{"latitude":"51.569966","street":{"id":973074,"name":"On or near Welbeck Road"},"longitude":"-0.359509"},"context":"","outcome_status":null,"persistent_id":"","id":57035874,"location_subtype":"","month":"2017-05"},{"category":"anti-social-behaviour","location_type":"Force","location":{"latitude":"51.569966","street":{"id":973074,"name":"On or near Welbeck Road"},"longitude":"-0.359509"},"context":"","outcome_status":null,"persistent_id":"","id":57035875,"location_subtype":"","month":"2017-05"},{"category":"anti-social-behaviour","location_type":"Force","location":{"latitude":"51.569079","street":{"id":973088,"name":"On or near Drinkwater Road"},"longitude":"-0.360407"},"context":"","outcome_status":null,"persistent_id":"","id":57035877,"location_subtype":"","month":"2017-05"},{"category":"anti-social-behaviour","location_type":"Force","location":{"latitude":"51.569079","street":{"id":973088,"name":"On or near Drinkwater Road"},"longitude":"-0.360407"},"context":"","outcome_status":null,"persistent_id":"","id":57035878,"location_subtype":"","month":"2017-05"},{"category":"anti-social-behaviour","location_type":"Force","location":{"latitude":"51.571735","street":{"id":973107,"name":"On or near Goodwill Drive"},"longitude":"-0.364496"},"context":"","outcome_status":null,"persistent_id":"","id":57035893,"location_subtype":"","month":"2017-05"},{"category":"anti-social-behaviour","location_type":"Force","location":{"latitude":"51.571735","street":{"id":973107,"name":"On or near Goodwill Drive"},"longitude":"-0.364496"},"context":"","outcome_status":null,"persistent_id":"","id":57035894,"location_subtype":"","month":"2017-05"},{"category":"anti-social-behaviour","location_type":"Force","location":{"latitude":"51.571735","street":{"id":973107,"name":"On or near Goodwill Drive"},"longitude":"-0.364496"},"context":"","outcome_status":null,"persistent_id":"","id":57035895,"location_subtype":"","month":"2017-05"},{"category":"anti-social-behaviour","location_type":"Force","location":{"latitude":"51.571735","street":{"id":973107,"name":"On or near Goodwill Drive"},"longitude":"-0.364496"},"context":"","outcome_status":null,"persistent_id":"","id":57035896,"location_subtype":"","month":"2017-05"},{"category":"anti-social-behaviour","location_type":"Force","location":{"latitude":"51.565070","street":{"id":973078,"name":"On or near Sandringham Crescent"},"longitude":"-0.364995"},"context":"","outcome_status":null,"persistent_id":"","id":57035899,"location_subtype":"","month":"2017-05"},{"category":"anti-social-behaviour","location_type":"Force","location":{"latitude":"51.565070","street":{"id":973078,"name":"On or near Sandringham Crescent"},"longitude":"-0.364995"},"context":"","outcome_status":null,"persistent_id":"","id":57035900,"location_subtype":"","month":"2017-05"},{"category":"anti-social-behaviour","location_type":"Force","location":{"latitude":"51.565070","street":{"id":973078,"name":"On or near Sandringham Crescent"},"longitude":"-0.364995"},"context":"","outcome_status":null,"persistent_id":"","id":57035901,"location_subtype":"","month":"2017-05"},{"category":"anti-social-behaviour","location_type":"Force","location":{"latitude":"51.565070","street":{"id":973078,"name":"On or near Sandringham Crescent"},"longitude":"-0.364995"},"context":"","outcome_status":null,"persistent_id":"","id":57035902,"location_subtype":"","month":"2017-05"},{"category":"anti-social-behaviour","location_type":"Force","location":{"latitude":"51.566633","street":{"id":973043,"name":"On or near Jasmine Gardens"},"longitude":"-0.366872"},"context":"","outcome_status":null,"persistent_id":"","id":57035909,"location_subtype":"","month":"2017-05"},{"category":"anti-social-behaviour","location_type":"Force","location":{"latitude":"51.566633","street":{"id":973043,"name":"On or near Jasmine Gardens"},"longitude":"-0.366872"},"context":"","outcome_status":null,"persistent_id":"","id":57035910,"location_subtype":"","month":"2017-05"},{"category":"anti-social-behaviour","location_type":"Force","location":{"latitude":"51.566633","street":{"id":973043,"name":"On or near Jasmine Gardens"},"longitude":"-0.366872"},"context":"","outcome_status":null,"persistent_id":"","id":57035911,"location_subtype":"","month":"2017-05"},{"category":"anti-social-behaviour","location_type":"Force","location":{"latitude":"51.563058","street":{"id":973132,"name":"On or near Eastcote Lane"},"longitude":"-0.368443"},"context":"","outcome_status":null,"persistent_id":"","id":57035920,"location_subtype":"","month":"2017-05"},{"category":"anti-social-behaviour","location_type":"Force","location":{"latitude":"51.565291","street":{"id":973035,"name":"On or near Minehead Road"},"longitude":"-0.369287"},"context":"","outcome_status":null,"persistent_id":"","id":57035923,"location_subtype":"","month":"2017-05"},{"category":"anti-social-behaviour","location_type":"Force","location":{"latitude":"51.565291","street":{"id":973035,"name":"On or near Minehead Road"},"longitude":"-0.369287"},"context":"","outcome_status":null,"persistent_id":"","id":57035924,"location_subtype":"","month":"2017-05"},{"category":"anti-social-behaviour","location_type":"Force","location":{"latitude":"51.567284","street":{"id":973187,"name":"On or near Lulworth Gardens"},"longitude":"-0.378103"},"context":"","outcome_status":null,"persistent_id":"","id":57035951,"location_subtype":"","month":"2017-05"},{"category":"anti-social-behaviour","location_type":"Force","location":{"latitude":"51.567284","street":{"id":973187,"name":"On or near Lulworth Gardens"},"longitude":"-0.378103"},"context":"","outcome_status":null,"persistent_id":"","id":57035952,"location_subtype":"","month":"2017-05"},{"category":"anti-social-behaviour","location_type":"Force","location":{"latitude":"51.567284","street":{"id":973187,"name":"On or near Lulworth Gardens"},"longitude":"-0.378103"},"context":"","outcome_status":null,"persistent_id":"","id":57035953,"location_subtype":"","month":"2017-05"},{"category":"anti-social-behaviour","location_type":"Force","location":{"latitude":"51.560381","street":{"id":966657,"name":"On or near Brookside Close"},"longitude":"-0.379619"},"context":"","outcome_status":null,"persistent_id":"","id":57035955,"location_subtype":"","month":"2017-05"},{"category":"anti-social-behaviour","location_type":"Force","location":{"latitude":"51.560381","street":{"id":966657,"name":"On or near Brookside Close"},"longitude":"-0.379619"},"context":"","outcome_status":null,"persistent_id":"","id":57035956,"location_subtype":"","month":"2017-05"},{"category":"anti-social-behaviour","location_type":"Force","location":{"latitude":"51.567654","street":{"id":972955,"name":"On or near Brember Road"},"longitude":"-0.353705"},"context":"","outcome_status":null,"persistent_id":"","id":57035522,"location_subtype":"","month":"2017-05"},{"category":"anti-social-behaviour","location_type":"Force","location":{"latitude":"51.566302","street":{"id":972934,"name":"On or near Sherwood Road"},"longitude":"-0.354115"},"context":"","outcome_status":null,"persistent_id":"","id":57035542,"location_subtype":"","month":"2017-05"},{"category":"anti-social-behaviour","location_type":"Force","location":{"latitude":"51.568234","street":{"id":973098,"name":"On or near Fentiman Way"},"longitude":"-0.357840"},"context":"","outcome_status":null,"persistent_id":"","id":57035564,"location_subtype":"","month":"2017-05"},{"category":"anti-social-behaviour","location_type":"Force","location":{"latitude":"51.569966","street":{"id":973074,"name":"On or near Welbeck Road"},"longitude":"-0.359509"},"context":"","outcome_status":null,"persistent_id":"","id":57035566,"location_subtype":"","month":"2017-05"},{"category":"burglary","location_type":"Force","location":{"latitude":"51.568234","street":{"id":973098,"name":"On or near Fentiman Way"},"longitude":"-0.357840"},"context":"","outcome_status":{"category":"Investigation complete; no suspect identified","date":"2017-05"},"persistent_id":"893fc82fcd397d712559805b72fadbb4ecfa6dcec4930dc30ecfef861c45937e","id":57106228,"location_subtype":"","month":"2017-05"},{"category":"burglary","location_type":"Force","location":{"latitude":"51.567284","street":{"id":973187,"name":"On or near Lulworth Gardens"},"longitude":"-0.378103"},"context":"","outcome_status":{"category":"Investigation complete; no suspect identified","date":"2017-05"},"persistent_id":"4e395954aa024ddfd6a9c97a5b340d79a4c4c31ea508489753853d02c73bf273","id":57107759,"location_subtype":"","month":"2017-05"},{"category":"burglary","location_type":"Force","location":{"latitude":"51.568837","street":{"id":973034,"name":"On or near Newquay Crescent"},"longitude":"-0.377904"},"context":"","outcome_status":{"category":"Status update unavailable","date":"2017-09"},"persistent_id":"122de1aa83f08f80109388057002eac6f650b68b727affcd909b5ab16994077c","id":57069876,"location_subtype":"","month":"2017-05"},{"category":"burglary","location_type":"Force","location":{"latitude":"51.572802","street":{"id":973067,"name":"On or near Karma Way"},"longitude":"-0.364891"},"context":"","outcome_status":{"category":"Investigation complete; no suspect identified","date":"2017-08"},"persistent_id":"9058c177e30286aaf72cafa15177faac9c06e90ba005aea0724ffa74f167d936","id":57085035,"location_subtype":"","month":"2017-05"},{"category":"criminal-damage-arson","location_type":"Force","location":{"latitude":"51.567654","street":{"id":972955,"name":"On or near Brember Road"},"longitude":"-0.353705"},"context":"","outcome_status":{"category":"Status update unavailable","date":"2017-09"},"persistent_id":"33aa48c31029fb1e347fa4ada7d29224039fe3f57aceada6f86c4ced480b2847","id":57085237,"location_subtype":"","month":"2017-05"},{"category":"criminal-damage-arson","location_type":"Force","location":{"latitude":"51.561490","street":{"id":966782,"name":"On or near Salter Close"},"longitude":"-0.374631"},"context":"","outcome_status":{"category":"Status update unavailable","date":"2017-09"},"persistent_id":"844c8aaffa06692315e4646e78064c434aa14b5dbd3dd4507088f9db47295918","id":57095894,"location_subtype":"","month":"2017-05"},{"category":"criminal-damage-arson","location_type":"Force","location":{"latitude":"51.568706","street":{"id":973095,"name":"On or near The Arches"},"longitude":"-0.357549"},"context":"","outcome_status":{"category":"Status update unavailable","date":"2017-09"},"persistent_id":"3f9384ff246c4ce60c14a11dd21b45e2d9c7f570e3fb6c2de4c3a52bff1270f4","id":57118193,"location_subtype":"","month":"2017-05"},{"category":"criminal-damage-arson","location_type":"Force","location":{"latitude":"51.566443","street":{"id":972949,"name":"On or near Eastcote Avenue"},"longitude":"-0.356447"},"context":"","outcome_status":{"category":"Investigation complete; no suspect identified","date":"2017-06"},"persistent_id":"2c917c8e81e3c88bae6bc8e21dd25470509c875d9eed40c3c2fc9402471b02fd","id":57086004,"location_subtype":"","month":"2017-05"},{"category":"criminal-damage-arson","location_type":"Force","location":{"latitude":"51.569079","street":{"id":973088,"name":"On or near Drinkwater Road"},"longitude":"-0.360407"},"context":"","outcome_status":{"category":"Status update unavailable","date":"2017-09"},"persistent_id":"cabb84aa1af7fbb9ec2cdf3248fe69f611f0c2106b6bbc2989746bcd09ea5948","id":57113097,"location_subtype":"","month":"2017-05"},{"category":"criminal-damage-arson","location_type":"Force","location":{"latitude":"51.567116","street":{"id":973086,"name":"On or near Eastleigh Avenue"},"longitude":"-0.361516"},"context":"","outcome_status":{"category":"Investigation complete; no suspect identified","date":"2017-06"},"persistent_id":"5d7c80a06de9dc55c09d334316149327398509a92b4d61ecaa51e7dce96f979a","id":57093053,"location_subtype":"","month":"2017-05"},{"category":"criminal-damage-arson","location_type":"Force","location":{"latitude":"51.563245","street":{"id":973131,"name":"On or near Jordan Close"},"longitude":"-0.372837"},"context":"","outcome_status":{"category":"Investigation complete; no suspect identified","date":"2017-05"},"persistent_id":"2714826191fdc9bdfac5606b10fb9e87ae8801814cd3077f3df16c5f55d08d69","id":57087322,"location_subtype":"","month":"2017-05"},{"category":"criminal-damage-arson","location_type":"Force","location":{"latitude":"51.569870","street":{"id":973096,"name":"On or near The Arches"},"longitude":"-0.358416"},"context":"","outcome_status":{"category":"Status update unavailable","date":"2017-09"},"persistent_id":"92e7fcc2e40dde4da82ff79560cdea16fa27bc33987a3a60d9eb666dd395d3dc","id":57086801,"location_subtype":"","month":"2017-05"},{"category":"criminal-damage-arson","location_type":"Force","location":{"latitude":"51.561490","street":{"id":966782,"name":"On or near Salter Close"},"longitude":"-0.374631"},"context":"","outcome_status":{"category":"Investigation complete; no suspect identified","date":"2017-05"},"persistent_id":"497e788658e930161845fd71c7441117b70bf5685cb9a56bed19e24a9a299fe0","id":57114725,"location_subtype":"","month":"2017-05"},{"category":"criminal-damage-arson","location_type":"Force","location":{"latitude":"51.564962","street":{"id":973089,"name":"On or near Cross Road"},"longitude":"-0.363715"},"context":"","outcome_status":{"category":"Investigation complete; no suspect identified","date":"2017-05"},"persistent_id":"bc3ae1bd98b22c5ea1ba9fdaef4beae81d87befb4db1954dff28d2d51d0da427","id":57093058,"location_subtype":"","month":"2017-05"},{"category":"criminal-damage-arson","location_type":"Force","location":{"latitude":"51.569870","street":{"id":973096,"name":"On or near The Arches"},"longitude":"-0.358416"},"context":"","outcome_status":{"category":"Investigation complete; no suspect identified","date":"2017-05"},"persistent_id":"92e7fcc2e40dde4da82ff79560cdea16fa27bc33987a3a60d9eb666dd395d3dc","id":57086802,"location_subtype":"","month":"2017-05"},{"category":"drugs","location_type":"Force","location":{"latitude":"51.566633","street":{"id":973043,"name":"On or near Jasmine Gardens"},"longitude":"-0.366872"},"context":"","outcome_status":{"category":"Court result unavailable","date":"2017-11"},"persistent_id":"bc129e7ded0e1a4bc853174d7594545b23b832f6c5c2ef796db73ea82dc8ce9d","id":57104820,"location_subtype":"","month":"2017-05"},{"category":"drugs","location_type":"Force","location":{"latitude":"51.567654","street":{"id":972955,"name":"On or near Brember Road"},"longitude":"-0.353705"},"context":"","outcome_status":{"category":"Offender given penalty notice","date":"2017-05"},"persistent_id":"559885aa65137d082125073a5fea7e25b51a0f0d906fc2617474c2e6c47c5918","id":57114192,"location_subtype":"","month":"2017-05"},{"category":"other-theft","location_type":"Force","location":{"latitude":"51.565519","street":{"id":972933,"name":"On or near St Margaret's Avenue"},"longitude":"-0.355326"},"context":"","outcome_status":{"category":"Investigation complete; no suspect identified","date":"2017-06"},"persistent_id":"3c220557ecef5fd7dfdeb03986a542cb27c444de227bade1f39572c27907ff26","id":57106063,"location_subtype":"","month":"2017-05"},{"category":"other-theft","location_type":"Force","location":{"latitude":"51.568005","street":{"id":973090,"name":"On or near Coles Crescent"},"longitude":"-0.360777"},"context":"","outcome_status":{"category":"Investigation complete; no suspect identified","date":"2017-05"},"persistent_id":"f64bd26a384358fa12291b84ab934c2ee9aafddcedd4b3e5fbf2f0fcf94bdb77","id":57106083,"location_subtype":"","month":"2017-05"},{"category":"other-theft","location_type":"Force","location":{"latitude":"51.566633","street":{"id":973043,"name":"On or near Jasmine Gardens"},"longitude":"-0.366872"},"context":"","outcome_status":{"category":"Status update unavailable","date":"2017-09"},"persistent_id":"9558c7d16158e6c19a89d51138f680e2ec4dca02dfe2c19604fecb8dad73dd28","id":57119179,"location_subtype":"","month":"2017-05"},{"category":"public-order","location_type":"Force","location":{"latitude":"51.566999","street":{"id":973093,"name":"On or near Hospital"},"longitude":"-0.363396"},"context":"","outcome_status":{"category":"Investigation complete; no suspect identified","date":"2017-05"},"persistent_id":"d6f5327f6355295073ee67dd313d3b75e250cf73b880190d3eb455cd0009119f","id":57078346,"location_subtype":"","month":"2017-05"},{"category":"public-order","location_type":"Force","location":{"latitude":"51.570388","street":{"id":973077,"name":"On or near Scott Crescent"},"longitude":"-0.360778"},"context":"","outcome_status":{"category":"Status update unavailable","date":"2017-09"},"persistent_id":"ee334160c98d1a1dd8a420a9059c988914fbd47f8976d535183aeeade8f13959","id":57088957,"location_subtype":"","month":"2017-05"},{"category":"public-order","location_type":"Force","location":{"latitude":"51.568706","street":{"id":973095,"name":"On or near The Arches"},"longitude":"-0.357549"},"context":"","outcome_status":{"category":"Investigation complete; no suspect identified","date":"2017-06"},"persistent_id":"54da9d4ba878bb27cd52811784993ec6c226aa7d93ab18e94e3f2d11366efcd3","id":57116174,"location_subtype":"","month":"2017-05"},{"category":"public-order","location_type":"Force","location":{"latitude":"51.570388","street":{"id":973077,"name":"On or near Scott Crescent"},"longitude":"-0.360778"},"context":"","outcome_status":{"category":"Status update unavailable","date":"2017-09"},"persistent_id":"af467b8b2512c27ec4e77b88797ab1ed519d566c5fc3bb2613feee5f2696c082","id":57095530,"location_subtype":"","month":"2017-05"},{"category":"public-order","location_type":"Force","location":{"latitude":"51.567654","street":{"id":972955,"name":"On or near Brember Road"},"longitude":"-0.353705"},"context":"","outcome_status":{"category":"Status update unavailable","date":"2017-09"},"persistent_id":"d4e77a409adb83fd59fbf8f0627e564723bdff0918edccfb787c5fa28edd6a9e","id":57064416,"location_subtype":"","month":"2017-05"},{"category":"public-order","location_type":"Force","location":{"latitude":"51.565291","street":{"id":973035,"name":"On or near Minehead Road"},"longitude":"-0.369287"},"context":"","outcome_status":{"category":"Investigation complete; no suspect identified","date":"2017-08"},"persistent_id":"8d061683a5312e36954e279ea0bd1c22b5836a20ae92bcb5433ae7b623e1e5e1","id":57111441,"location_subtype":"","month":"2017-05"},{"category":"robbery","location_type":"Force","location":{"latitude":"51.564787","street":{"id":973054,"name":"On or near Supermarket"},"longitude":"-0.366650"},"context":"","outcome_status":{"category":"Offender sent to prison","date":"2018-02"},"persistent_id":"82f6f8bdda330b9ddab9d8240eaf4fb64a8eb1df11b19c994e50d9a0f5be5743","id":57094089,"location_subtype":"","month":"2017-05"},{"category":"shoplifting","location_type":"Force","location":{"latitude":"51.564787","street":{"id":973054,"name":"On or near Supermarket"},"longitude":"-0.366650"},"context":"","outcome_status":{"category":"Investigation complete; no suspect identified","date":"2017-06"},"persistent_id":"7a6938eb654dcd2a35e9ec6fc8f72612f6c971dbeb83056bed1a26b1dc12cef0","id":57085725,"location_subtype":"","month":"2017-05"},{"category":"shoplifting","location_type":"Force","location":{"latitude":"51.567654","street":{"id":972955,"name":"On or near Brember Road"},"longitude":"-0.353705"},"context":"","outcome_status":{"category":"Status update unavailable","date":"2017-09"},"persistent_id":"03be8054f666e769b27830d4331b72ec3932ed42fbe19e1b9c3682a959c39d18","id":57109140,"location_subtype":"","month":"2017-05"},{"category":"shoplifting","location_type":"Force","location":{"latitude":"51.567654","street":{"id":972955,"name":"On or near Brember Road"},"longitude":"-0.353705"},"context":"","outcome_status":{"category":"Investigation complete; no suspect identified","date":"2017-06"},"persistent_id":"ae3004cad712e3455447b677a7219f4a54ee02cb23b99f22af03d05384d96093","id":57120606,"location_subtype":"","month":"2017-05"},{"category":"vehicle-crime","location_type":"Force","location":{"latitude":"51.568763","street":{"id":973082,"name":"On or near Priest Park Avenue"},"longitude":"-0.364141"},"context":"","outcome_status":{"category":"Investigation complete; no suspect identified","date":"2017-07"},"persistent_id":"77977fcce94afc9382a01a01b9d36ed3b5e97833734c6e4a86e2231e2bde5da7","id":57099849,"location_subtype":"","month":"2017-05"},{"category":"vehicle-crime","location_type":"Force","location":{"latitude":"51.567779","street":{"id":973033,"name":"On or near Ravenswood Crescent"},"longitude":"-0.375517"},"context":"","outcome_status":{"category":"Status update unavailable","date":"2017-09"},"persistent_id":"9c9ddb82809ee42660ba83dcb509ef35c1b0a7e27d6774c6edd2eb92e8731533","id":57093502,"location_subtype":"","month":"2017-05"},{"category":"vehicle-crime","location_type":"Force","location":{"latitude":"51.571735","street":{"id":973107,"name":"On or near Goodwill Drive"},"longitude":"-0.364496"},"context":"","outcome_status":{"category":"Awaiting court outcome","date":"2018-02"},"persistent_id":"ddc137c19548c8ac72ab19ba84c3138b280d151b1811d5e15cd309cc0790c20e","id":57095411,"location_subtype":"","month":"2017-05"},{"category":"vehicle-crime","location_type":"Force","location":{"latitude":"51.567779","street":{"id":973033,"name":"On or near Ravenswood Crescent"},"longitude":"-0.375517"},"context":"","outcome_status":{"category":"Status update unavailable","date":"2017-09"},"persistent_id":"a8bd056d864ade08709b15b7049b318874873fe9cb7e1a82fee9e010d4ded9fe","id":57093147,"location_subtype":"","month":"2017-05"},{"category":"vehicle-crime","location_type":"Force","location":{"latitude":"51.561909","street":{"id":966783,"name":"On or near Primrose Close"},"longitude":"-0.377011"},"context":"","outcome_status":{"category":"Status update unavailable","date":"2017-09"},"persistent_id":"9ab6426274f16d22e7285f7ca08b38caa7cb72aeed96709501d6f0e3929b8016","id":57100959,"location_subtype":"","month":"2017-05"},{"category":"vehicle-crime","location_type":"Force","location":{"latitude":"51.562482","street":{"id":973201,"name":"On or near Malvern Avenue"},"longitude":"-0.382011"},"context":"","outcome_status":{"category":"Status update unavailable","date":"2017-09"},"persistent_id":"8ca1ab9ce4ba9292389d6ad07a3b0fae5287719ec2a5d993b5464d4ecf47c7aa","id":57102634,"location_subtype":"","month":"2017-05"},{"category":"vehicle-crime","location_type":"Force","location":{"latitude":"51.568234","street":{"id":973098,"name":"On or near Fentiman Way"},"longitude":"-0.357840"},"context":"","outcome_status":{"category":"Status update unavailable","date":"2017-09"},"persistent_id":"5a97afee00441753f96acdcea4658e0f9a5c025dff936ece137f4ef074e76e16","id":57110813,"location_subtype":"","month":"2017-05"},{"category":"vehicle-crime","location_type":"Force","location":{"latitude":"51.567654","street":{"id":972955,"name":"On or near Brember Road"},"longitude":"-0.353705"},"context":"","outcome_status":{"category":"Status update unavailable","date":"2017-09"},"persistent_id":"149febc3aff12d10384898429d80845f9849528439efa939d20f282be1b7eb3b","id":57110777,"location_subtype":"","month":"2017-05"},{"category":"vehicle-crime","location_type":"Force","location":{"latitude":"51.566458","street":{"id":973051,"name":"On or near Alexandra Avenue"},"longitude":"-0.367845"},"context":"","outcome_status":{"category":"Status update unavailable","date":"2017-09"},"persistent_id":"b065c5abfdc55e3e730c428c5346cc33e933ab89ea26b90c8229980bd6dacc31","id":57119455,"location_subtype":"","month":"2017-05"},{"category":"vehicle-crime","location_type":"Force","location":{"latitude":"51.564787","street":{"id":973054,"name":"On or near Supermarket"},"longitude":"-0.366650"},"context":"","outcome_status":{"category":"Investigation complete; no suspect identified","date":"2017-05"},"persistent_id":"e2b47d9aa251b54b39da1cb11e861c3ba849716781d19717d81e89d865debe45","id":57082710,"location_subtype":"","month":"2017-05"},{"category":"vehicle-crime","location_type":"Force","location":{"latitude":"51.567779","street":{"id":973033,"name":"On or near Ravenswood Crescent"},"longitude":"-0.375517"},"context":"","outcome_status":{"category":"Status update unavailable","date":"2017-09"},"persistent_id":"f83b1f52ad5c6f9ee23083bdd5cfae78a5ade8fa4045b4d5a2d602c47446ae0a","id":57071266,"location_subtype":"","month":"2017-05"},{"category":"vehicle-crime","location_type":"Force","location":{"latitude":"51.567654","street":{"id":972955,"name":"On or near Brember Road"},"longitude":"-0.353705"},"context":"","outcome_status":{"category":"Status update unavailable","date":"2017-09"},"persistent_id":"4e7760ce0cec3c220abd10a8f731f49c87fc7f8fedd60b2a2d92daa2a47bd0be","id":57084501,"location_subtype":"","month":"2017-05"},{"category":"vehicle-crime","location_type":"Force","location":{"latitude":"51.568234","street":{"id":973098,"name":"On or near Fentiman Way"},"longitude":"-0.357840"},"context":"","outcome_status":{"category":"Status update unavailable","date":"2017-09"},"persistent_id":"90540459db916df16cbcdc33ff82f485c827511f9c4b9acc9f2a52a8573d9d78","id":57116101,"location_subtype":"","month":"2017-05"},{"category":"vehicle-crime","location_type":"Force","location":{"latitude":"51.567779","street":{"id":973033,"name":"On or near Ravenswood Crescent"},"longitude":"-0.375517"},"context":"","outcome_status":{"category":"Investigation complete; no suspect identified","date":"2017-05"},"persistent_id":"e86010a532a67a2d6b8048f04d4f38ee058b71593eeeffce37331152b06da80c","id":57051387,"location_subtype":"","month":"2017-05"},{"category":"vehicle-crime","location_type":"Force","location":{"latitude":"51.567519","street":{"id":973075,"name":"On or near Thornley Drive"},"longitude":"-0.358789"},"context":"","outcome_status":{"category":"Status update unavailable","date":"2017-09"},"persistent_id":"7deb31054d713b9e913900ee61449af346df08524111b67a3e17a0f6c3b39589","id":57062385,"location_subtype":"","month":"2017-05"},{"category":"vehicle-crime","location_type":"Force","location":{"latitude":"51.566812","street":{"id":973079,"name":"On or near Roxeth Green Avenue"},"longitude":"-0.359060"},"context":"","outcome_status":{"category":"Status update unavailable","date":"2017-09"},"persistent_id":"b34f0929fbfe9f6efb7d7608ae2fc0746379cd393fd1bc8a6220bb651fd6f279","id":57061228,"location_subtype":"","month":"2017-05"},{"category":"vehicle-crime","location_type":"Force","location":{"latitude":"51.567284","street":{"id":973187,"name":"On or near Lulworth Gardens"},"longitude":"-0.378103"},"context":"","outcome_status":{"category":"Investigation complete; no suspect identified","date":"2017-05"},"persistent_id":"0d853eb9d543be8f216ecbad0d6ff56f9ac4f01155f3c399b1403d7a7fdc05b2","id":57114865,"location_subtype":"","month":"2017-05"},{"category":"vehicle-crime","location_type":"Force","location":{"latitude":"51.562482","street":{"id":973201,"name":"On or near Malvern Avenue"},"longitude":"-0.382011"},"context":"","outcome_status":{"category":"Investigation complete; no suspect identified","date":"2017-06"},"persistent_id":"8cc22c30d1d31407a74bc1244d61eb50ddecdb5a577bd1c81cbed3d8a70a4b5f","id":57106145,"location_subtype":"","month":"2017-05"},{"category":"vehicle-crime","location_type":"Force","location":{"latitude":"51.565519","street":{"id":972933,"name":"On or near St Margaret's Avenue"},"longitude":"-0.355326"},"context":"","outcome_status":{"category":"Status update unavailable","date":"2017-09"},"persistent_id":"5177b5da3c570411f4b2ba199ecb255c68b7b9c0409c489441ada8861a86af17","id":57052010,"location_subtype":"","month":"2017-05"},{"category":"violent-crime","location_type":"Force","location":{"latitude":"51.562882","street":{"id":973124,"name":"On or near Veldene Way"},"longitude":"-0.374523"},"context":"","outcome_status":{"category":"Investigation complete; no suspect identified","date":"2017-06"},"persistent_id":"6e184d79574bef5a08c0893e0d750a641edbe980043ccc5f8ade71ef76ef1894","id":57116236,"location_subtype":"","month":"2017-05"},{"category":"violent-crime","location_type":"Force","location":{"latitude":"51.569966","street":{"id":973074,"name":"On or near Welbeck Road"},"longitude":"-0.359509"},"context":"","outcome_status":{"category":"Status update unavailable","date":"2017-09"},"persistent_id":"df1401eb3f864b8591507971cd9b06bbd15542bc62d68eab33e4df458bd078ca","id":57073617,"location_subtype":"","month":"2017-05"},{"category":"violent-crime","location_type":"Force","location":{"latitude":"51.567654","street":{"id":972955,"name":"On or near Brember Road"},"longitude":"-0.353705"},"context":"","outcome_status":{"category":"Investigation complete; no suspect identified","date":"2017-06"},"persistent_id":"cf15182175f2724362c19a2e97e7b9b99a1414f9c87845b77b0461c9342bd6d5","id":57111877,"location_subtype":"","month":"2017-05"},{"category":"violent-crime","location_type":"Force","location":{"latitude":"51.564962","street":{"id":973089,"name":"On or near Cross Road"},"longitude":"-0.363715"},"context":"","outcome_status":{"category":"Investigation complete; no suspect identified","date":"2017-06"},"persistent_id":"bcee9152a5bf4ef38ef0473ffcb027e941f709d8d3debce35394d444b317b958","id":57094966,"location_subtype":"","month":"2017-05"},{"category":"violent-crime","location_type":"Force","location":{"latitude":"51.566458","street":{"id":973051,"name":"On or near Alexandra Avenue"},"longitude":"-0.367845"},"context":"","outcome_status":{"category":"Investigation complete; no suspect identified","date":"2017-06"},"persistent_id":"230f5e387f2a624450b50ed4cd2e5a48532044417115977014a219eceda2298d","id":57075702,"location_subtype":"","month":"2017-05"},{"category":"violent-crime","location_type":"Force","location":{"latitude":"51.567779","street":{"id":973033,"name":"On or near Ravenswood Crescent"},"longitude":"-0.375517"},"context":"","outcome_status":{"category":"Investigation complete; no suspect identified","date":"2017-07"},"persistent_id":"97ff842ff1a912d9b8b4b5dd3d278cace37515a5ea57d1b93b0b8bdb9dbeec80","id":57114719,"location_subtype":"","month":"2017-05"},{"category":"violent-crime","location_type":"Force","location":{"latitude":"51.570388","street":{"id":973077,"name":"On or near Scott Crescent"},"longitude":"-0.360778"},"context":"","outcome_status":{"category":"Investigation complete; no suspect identified","date":"2017-05"},"persistent_id":"1b7c4f518ad1add213e35323cd7af90626d9dfcce2715952d3d625f213e52f20","id":57094987,"location_subtype":"","month":"2017-05"},{"category":"violent-crime","location_type":"Force","location":{"latitude":"51.565519","street":{"id":972933,"name":"On or near St Margaret's Avenue"},"longitude":"-0.355326"},"context":"","outcome_status":{"category":"Investigation complete; no suspect identified","date":"2017-06"},"persistent_id":"4bdb1a335cf3784d504b569351df54775003200b93c2f0cc1ceff02ea26155f0","id":57098939,"location_subtype":"","month":"2017-05"},{"category":"violent-crime","location_type":"Force","location":{"latitude":"51.568763","street":{"id":973082,"name":"On or near Priest Park Avenue"},"longitude":"-0.364141"},"context":"","outcome_status":{"category":"Investigation complete; no suspect identified","date":"2017-05"},"persistent_id":"32ce5abb45d3ef6c0e81aee9d26b0fa183bdbd0c996f27434f79011d20b5449e","id":57087278,"location_subtype":"","month":"2017-05"},{"category":"violent-crime","location_type":"Force","location":{"latitude":"51.569079","street":{"id":973088,"name":"On or near Drinkwater Road"},"longitude":"-0.360407"},"context":"","outcome_status":{"category":"Investigation complete; no suspect identified","date":"2017-08"},"persistent_id":"8db65ef34a3de876aa36ea26e0643be4ad72b6d929a246b33864efd3b1941a6e","id":57102186,"location_subtype":"","month":"2017-05"},{"category":"violent-crime","location_type":"Force","location":{"latitude":"51.562410","street":{"id":973120,"name":"On or near Bodmin Close"},"longitude":"-0.372881"},"context":"","outcome_status":{"category":"Investigation complete; no suspect identified","date":"2018-04"},"persistent_id":"891c0b5422e3216fa4e9032137788faf7f090f329c506a6bcf66231a9cba3997","id":57101265,"location_subtype":"","month":"2017-05"},{"category":"violent-crime","location_type":"Force","location":{"latitude":"51.572802","street":{"id":973067,"name":"On or near Karma Way"},"longitude":"-0.364891"},"context":"","outcome_status":{"category":"Investigation complete; no suspect identified","date":"2017-10"},"persistent_id":"961af35bbe547803714476d78b2eefef167189d34fc34125c6b97d91642a77b1","id":57114659,"location_subtype":"","month":"2017-05"},{"category":"violent-crime","location_type":"Force","location":{"latitude":"51.567519","street":{"id":973075,"name":"On or near Thornley Drive"},"longitude":"-0.358789"},"context":"","outcome_status":{"category":"Investigation complete; no suspect identified","date":"2017-06"},"persistent_id":"9087cc9e515b126d613de00ff688cbb0810aa2a2d72a81a5b034e08e58204ec9","id":57061764,"location_subtype":"","month":"2017-05"},{"category":"violent-crime","location_type":"Force","location":{"latitude":"51.568706","street":{"id":973095,"name":"On or near The Arches"},"longitude":"-0.357549"},"context":"","outcome_status":{"category":"Offender given community sentence","date":"2017-09"},"persistent_id":"f5d5590a1bc9eff4e9b83847d14dc09065686d05504a93d02035c84e10824cef","id":57071516,"location_subtype":"","month":"2017-05"},{"category":"violent-crime","location_type":"Force","location":{"latitude":"51.564962","street":{"id":973089,"name":"On or near Cross Road"},"longitude":"-0.363715"},"context":"","outcome_status":{"category":"Status update unavailable","date":"2017-09"},"persistent_id":"35830e33248884a05b911514f8b092f85d9f8f6ab99e2ff5be4c554ba231e13f","id":57100607,"location_subtype":"","month":"2017-05"},{"category":"violent-crime","location_type":"Force","location":{"latitude":"51.567654","street":{"id":972955,"name":"On or near Brember Road"},"longitude":"-0.353705"},"context":"","outcome_status":{"category":"Offender given a caution","date":"2017-05"},"persistent_id":"266c9efd054b2fc9db0526ab13021fb10495846910bfeb2a112c9e30c6b51917","id":57115259,"location_subtype":"","month":"2017-05"},{"category":"violent-crime","location_type":"Force","location":{"latitude":"51.569870","street":{"id":973096,"name":"On or near The Arches"},"longitude":"-0.358416"},"context":"","outcome_status":{"category":"Status update unavailable","date":"2017-09"},"persistent_id":"561d710b0997698e4d64d78d287ae63e9c0b86c541615d469d892f4a99ae4076","id":57061763,"location_subtype":"","month":"2017-05"},{"category":"violent-crime","location_type":"Force","location":{"latitude":"51.568706","street":{"id":973095,"name":"On or near The Arches"},"longitude":"-0.357549"},"context":"","outcome_status":{"category":"Investigation complete; no suspect identified","date":"2017-05"},"persistent_id":"920ec77366738bb1b0f4ced3c5253c2c0a029af4a144491968ba3889299250c5","id":57103786,"location_subtype":"","month":"2017-05"},{"category":"violent-crime","location_type":"Force","location":{"latitude":"51.562882","street":{"id":973124,"name":"On or near Veldene Way"},"longitude":"-0.374523"},"context":"","outcome_status":{"category":"Investigation complete; no suspect identified","date":"2017-05"},"persistent_id":"ae6ae0541a339d81632f4195626e820baee65f5a5a559de6940d68a647d00f30","id":57105624,"location_subtype":"","month":"2017-05"},{"category":"violent-crime","location_type":"Force","location":{"latitude":"51.564218","street":{"id":973189,"name":"On or near Exeter Road"},"longitude":"-0.378818"},"context":"","outcome_status":{"category":"Investigation complete; no suspect identified","date":"2017-05"},"persistent_id":"9005407827907dc6143926e9d753473ab85b2291d6f67bde36b6a6ab5016214e","id":57092860,"location_subtype":"","month":"2017-05"},{"category":"violent-crime","location_type":"Force","location":{"latitude":"51.564962","street":{"id":973089,"name":"On or near Cross Road"},"longitude":"-0.363715"},"context":"","outcome_status":{"category":"Status update unavailable","date":"2017-09"},"persistent_id":"80a066b8aae66e81cdc143a14fab34058fa3b88a3f20edcfb136e2b2a7c6d53b","id":57099539,"location_subtype":"","month":"2017-05"},{"category":"violent-crime","location_type":"Force","location":{"latitude":"51.569966","street":{"id":973074,"name":"On or near Welbeck Road"},"longitude":"-0.359509"},"context":"","outcome_status":{"category":"Status update unavailable","date":"2017-09"},"persistent_id":"df1401eb3f864b8591507971cd9b06bbd15542bc62d68eab33e4df458bd078ca","id":57073618,"location_subtype":"","month":"2017-05"},{"category":"violent-crime","location_type":"Force","location":{"latitude":"51.564787","street":{"id":973054,"name":"On or near Supermarket"},"longitude":"-0.366650"},"context":"","outcome_status":{"category":"Status update unavailable","date":"2017-09"},"persistent_id":"95b848f3f12d56faed92057bdf1c641f115f4214e2ba40b26a9010b31b7642ce","id":57054578,"location_subtype":"","month":"2017-05"},{"category":"violent-crime","location_type":"Force","location":{"latitude":"51.568717","street":{"id":973076,"name":"On or near Swift Close"},"longitude":"-0.360867"},"context":"","outcome_status":{"category":"Investigation complete; no suspect identified","date":"2017-06"},"persistent_id":"2b6f4836ca59c67bfa442cc7fdce455b50e5b4834b502cd4658cf2ae77de290f","id":57090398,"location_subtype":"","month":"2017-05"},{"category":"violent-crime","location_type":"Force","location":{"latitude":"51.563965","street":{"id":973128,"name":"On or near Rowe Walk"},"longitude":"-0.367054"},"context":"","outcome_status":{"category":"Investigation complete; no suspect identified","date":"2017-05"},"persistent_id":"608050f6529ffe0a306a6a33fe46fbfe0bce40d518a17481a255f74e2404bade","id":57079881,"location_subtype":"","month":"2017-05"},{"category":"violent-crime","location_type":"Force","location":{"latitude":"51.566458","street":{"id":973051,"name":"On or near Alexandra Avenue"},"longitude":"-0.367845"},"context":"","outcome_status":{"category":"Status update unavailable","date":"2017-09"},"persistent_id":"230f5e387f2a624450b50ed4cd2e5a48532044417115977014a219eceda2298d","id":57075701,"location_subtype":"","month":"2017-05"},{"category":"violent-crime","location_type":"Force","location":{"latitude":"51.569966","street":{"id":973074,"name":"On or near Welbeck Road"},"longitude":"-0.359509"},"context":"","outcome_status":{"category":"Court case unable to proceed","date":"2017-07"},"persistent_id":"df1401eb3f864b8591507971cd9b06bbd15542bc62d68eab33e4df458bd078ca","id":57074241,"location_subtype":"","month":"2017-05"},{"category":"violent-crime","location_type":"Force","location":{"latitude":"51.570388","street":{"id":973077,"name":"On or near Scott Crescent"},"longitude":"-0.360778"},"context":"","outcome_status":{"category":"Investigation complete; no suspect identified","date":"2017-10"},"persistent_id":"7a90effdb40648fc25bb2c73864a0eab07f10442b84a86dde80b65bb6afb3002","id":57093583,"location_subtype":"","month":"2017-05"},{"category":"other-crime","location_type":"Force","location":{"latitude":"51.563296","street":{"id":973130,"name":"On or near Leamington Crescent"},"longitude":"-0.377827"},"context":"","outcome_status":{"category":"Court result unavailable","date":"2017-11"},"persistent_id":"06e4dd746e930dc6cd6f6c8b761d049c373bcd7f31928c9cd851ac3c3a5e16a5","id":57058072,"location_subtype":"","month":"2017-05"}]