[{"category":"anti-social-behaviour","location_type":"Force","location":{"latitude":"51.528760","street":{"id":959046,"name":"On or near Hewens Road"},"longitude":"-0.440339"},"context":"","outcome_status":null,"persistent_id":"","id":57035394,"location_subtype":"","month":"2017-05"},{"category":"anti-social-behaviour","location_type":"Force","location":{"latitude":"51.534079","street":{"id":959008,"name":"On or near Exmouth Road"},"longitude":"-0.427916"},"context":"","outcome_status":null,"persistent_id":"","id":57035318,"location_subtype":"","month":"2017-05"},{"category":"anti-social-behaviour","location_type":"Force","location":{"latitude":"51.528228","street":{"id":959125,"name":"On or near Fredora Avenue"},"longitude":"-0.418055"},"context":"","outcome_status":null,"persistent_id":"","id":57034808,"location_subtype":"","month":"2017-05"},{"category":"anti-social-behaviour","location_type":"Force","location":{"latitude":"51.528228","street":{"id":959125,"name":"On or near Fredora Avenue"},"longitude":"-0.418055"},"context":"","outcome_status":null,"persistent_id":"","id":57034811,"location_subtype":"","month":"2017-05"},{"category":"anti-social-behaviour","location_type":"Force","location":{"latitude":"51.528248","street":{"id":959116,"name":"On or near Warwick Crescent"},"longitude":"-0.418876"},"context":"","outcome_status":null,"persistent_id":"","id":57035260,"location_subtype":"","month":"2017-05"},{"category":"anti-social-behaviour","location_type":"Force","location":{"latitude":"51.532571","street":{"id":959128,"name":"On or near Chesil Way"},"longitude":"-0.420082"},"context":"","outcome_status":null,"persistent_id":"","id":57035266,"location_subtype":"","month":"2017-05"},{"category":"anti-social-behaviour","location_type":"Force","location":{"latitude":"51.530943","street":{"id":959127,"name":"On or near Dale Drive"},"longitude":"-0.420729"},"context":"","outcome_status":null,"persistent_id":"","id":57035273,"location_subtype":"","month":"2017-05"},{"category":"anti-social-behaviour","location_type":"Force","location":{"latitude":"51.530943","street":{"id":959127,"name":"On or near Dale Drive"},"longitude":"-0.420729"},"context":"","outcome_status":null,"persistent_id":"","id":57035274,"location_subtype":"","month":"2017-05"},{"category":"anti-social-behaviour","location_type":"Force","location":{"latitude":"51.530758","street":{"id":959012,"name":"On or near Byron Way"},"longitude":"-0.422350"},"context":"","outcome_status":null,"persistent_id":"","id":57035294,"location_subtype":"","month":"2017-05"},{"category":"anti-social-behaviour","location_type":"Force","location":{"latitude":"51.528954","street":{"id":959000,"name":"On or near Mansfield Drive"},"longitude":"-0.424575"},"context":"","outcome_status":null,"persistent_id":"","id":57035302,"location_subtype":"","month":"2017-05"},{"category":"anti-social-behaviour","location_type":"Force","location":{"latitude":"51.528954","street":{"id":959000,"name":"On or near Mansfield Drive"},"longitude":"-0.424575"},"context":"","outcome_status":null,"persistent_id":"","id":57035303,"location_subtype":"","month":"2017-05"},{"category":"anti-social-behaviour","location_type":"Force","location":{"latitude":"51.528661","street":{"id":958990,"name":"On or near Frogmore Gardens"},"longitude":"-0.426878"},"context":"","outcome_status":null,"persistent_id":"","id":57035307,"location_subtype":"","month":"2017-05"},{"category":"anti-social-behaviour","location_type":"Force","location":{"latitude":"51.534951","street":{"id":958996,"name":"On or near Trent Way"},"longitude":"-0.428535"},"context":"","outcome_status":null,"persistent_id":"","id":57035315,"location_subtype":"","month":"2017-05"},{"category":"anti-social-behaviour","location_type":"Force","location":{"latitude":"51.534280","street":{"id":959038,"name":"On or near Salcombe Way"},"longitude":"-0.429452"},"context":"","outcome_status":null,"persistent_id":"","id":57035329,"location_subtype":"","month":"2017-05"},{"category":"anti-social-behaviour","location_type":"Force","location":{"latitude":"51.536618","street":{"id":966228,"name":"On or near Romney Road"},"longitude":"-0.435500"},"context":"","outcome_status":null,"persistent_id":"","id":57035369,"location_subtype":"","month":"2017-05"},{"category":"anti-social-behaviour","location_type":"Force","location":{"latitude":"51.525496","street":{"id":959061,"name":"On or near Uxbridge Road"},"longitude":"-0.436313"},"context":"","outcome_status":null,"persistent_id":"","id":57035378,"location_subtype":"","month":"2017-05"},{"category":"anti-social-behaviour","location_type":"Force","location":{"latitude":"51.525496","street":{"id":959061,"name":"On or near Uxbridge Road"},"longitude":"-0.436313"},"context":"","outcome_status":null,"persistent_id":"","id":57035379,"location_subtype":"","month":"2017-05"},{"category":"burglary","location_type":"Force","location":{"latitude":"51.532416","street":{"id":959014,"name":"On or near Bradenham Road"},"longitude":"-0.425277"},"context":"","outcome_status":{"category":"Status update unavailable","date":"2017-09"},"persistent_id":"8931bb26e07deda671e27794d0343426cc0554159ee5ec6c342e2bf769d045a0","id":57086045,"location_subtype":"","month":"2017-05"},{"category":"burglary","location_type":"Force","location":{"latitude":"51.532571","street":{"id":959128,"name":"On or near Chesil Way"},"longitude":"-0.420082"},"context":"","outcome_status":{"category":"Investigation complete; no suspect identified","date":"2017-05"},"persistent_id":"fc8ff8472e7a90e12621cd28cecbd3a36594f88e64800f88caa08cb06c53528e","id":57120046,"location_subtype":"","month":"2017-05"},{"category":"burglary","location_type":"Force","location":{"latitude":"51.536109","street":{"id":959004,"name":"On or near Haystall Close"},"longitude":"-0.423708"},"context":"","outcome_status":{"category":"Status update unavailable","date":"2017-09"},"persistent_id":"da128a3d1cd82e57720186741819e3f05c70070a22a0457984affb0eb18be5fe","id":57081259,"location_subtype":"","month":"2017-05"},{"category":"criminal-damage-arson","location_type":"Force","location":{"latitude":"51.537371","street":{"id":966234,"name":"On or near Blake Close"},"longitude":"-0.431999"},"context":"","outcome_status":{"category":"Status update unavailable","date":"2017-09"},"persistent_id":"b3ef48b41df14d6a134096cd10ac99a3cd7686e06c95f0b746d182bba5c02186","id":57115185,"location_subtype":"","month":"2017-05"},{"category":"criminal-damage-arson","location_type":"Force","location":{"latitude":"51.532416","street":{"id":959014,"name":"On or near Bradenham Road"},"longitude":"-0.425277"},"context":"","outcome_status":{"category":"Investigation complete; no suspect identified","date":"2017-05"},"persistent_id":"200b365e45d1bf985afa5f797bbc6e0913758be4cbd7b62ad458d1bb5f90a7e6","id":57075420,"location_subtype":"","month":"2017-05"},{"category":"criminal-damage-arson","location_type":"Force","location":{"latitude":"51.533135","street":{"id":959123,"name":"On or near Kenmore Crescent"},"longitude":"-0.420509"},"context":"","outcome_status":{"category":"Status update unavailable","date":"2017-09"},"persistent_id":"8d66263e8a4c8852d0c5a086eb1a2fe51c7be8abc4f36c5aa837fb6094f29df5","id":57104709,"location_subtype":"","month":"2017-05"},{"category":"criminal-damage-arson","location_type":"Force","location":{"latitude":"51.533135","street":{"id":959123,"name":"On or near Kenmore Crescent"},"longitude":"-0.420509"},"context":"","outcome_status":{"category":"Investigation complete; no suspect identified","date":"2017-06"},"persistent_id":"8d66263e8a4c8852d0c5a086eb1a2fe51c7be8abc4f36c5aa837fb6094f29df5","id":57104789,"location_subtype":"","month":"2017-05"},{"category":"criminal-damage-arson","location_type":"Force","location":{"latitude":"51.525722","street":{"id":959075,"name":"On or near Supermarket"},"longitude":"-0.435066"},"context":"","outcome_status":{"category":"Status update unavailable","date":"2017-09"},"persistent_id":"798979221d1799e3e3b3ae88c45b4967a8741df19353ef2bf939df982781c18b","id":57108310,"location_subtype":"","month":"2017-05"},{"category":"drugs","location_type":"Force","location":{"latitude":"51.534280","street":{"id":959038,"name":"On or near Salcombe Way"},"longitude":"-0.429452"},"context":"","outcome_status":{"category":"Offender given penalty notice","date":"2017-05"},"persistent_id":"08013f94f21b2e7441bf8029d64215c2f518e1a9f39c087e26d95271f43f2483","id":57093056,"location_subtype":"","month":"2017-05"},{"category":"drugs","location_type":"Force","location":{"latitude":"51.534280","street":{"id":959038,"name":"On or near Salcombe Way"},"longitude":"-0.429452"},"context":"","outcome_status":{"category":"Offender given penalty notice","date":"2017-05"},"persistent_id":"33b1918c5c80bffcd2c97adf5a4376e0ca0a61f4194c9e15598853ce306f2376","id":57093831,"location_subtype":"","month":"2017-05"},{"category":"drugs","location_type":"Force","location":{"latitude":"51.526078","street":{"id":959011,"name":"On or near Derwent Drive"},"longitude":"-0.428062"},"context":"","outcome_status":{"category":"Offender given a drugs possession warning","date":"2017-05"},"persistent_id":"9cb80654616497e81e7b714e5b7d17c74ab34ee97d0bec797c1602bcaab36cc0","id":57118112,"location_subtype":"","month":"2017-05"},{"category":"other-theft","location_type":"Force","location":{"latitude":"51.528187","street":{"id":959054,"name":"On or near Blacklands Drive"},"longitude":"-0.437850"},"context":"","outcome_status":{"category":"Status update unavailable","date":"2017-09"},"persistent_id":"2461e7c3f13c1860b158aeac670722efba6e1c8d1d8a6b4f9127e9df8d02a8af","id":57111938,"location_subtype":"","month":"2017-05"},{"category":"other-theft","location_type":"Force","location":{"latitude":"51.527209","street":{"id":959048,"name":"On or near Hayes End Road"},"longitude":"-0.432622"},"context":"","outcome_status":{"category":"Status update unavailable","date":"2017-09"},"persistent_id":"4f32f1f2b994d3c02cc98a148f8dec8b2e5a28a9e847684806318b9fb74a275b","id":57087064,"location_subtype":"","month":"2017-05"},{"category":"possession-of-weapons","location_type":"Force","location":{"latitude":"51.537421","street":{"id":966231,"name":"On or near Hayman Crescent"},"longitude":"-0.432401"},"context":"","outcome_status":{"category":"Investigation complete; no suspect identified","date":"2017-06"},"persistent_id":"9ba379d6902bd5d83d337b35feaed1aad09e153512ad9b7f93e92b4cae8f4a7d","id":57092640,"location_subtype":"","month":"2017-05"},{"category":"public-order","location_type":"Force","location":{"latitude":"51.534624","street":{"id":959040,"name":"On or near Poole Way"},"longitude":"-0.429008"},"context":"","outcome_status":{"category":"Investigation complete; no suspect identified","date":"2017-09"},"persistent_id":"4e91639d9f1779f7eef8864439472c7fa68851a969c215e2cfce1664bee1502d","id":57117816,"location_subtype":"","month":"2017-05"},{"category":"public-order","location_type":"Force","location":{"latitude":"51.534280","street":{"id":959038,"name":"On or near Salcombe Way"},"longitude":"-0.429452"},"context":"","outcome_status":{"category":"Offender given penalty notice","date":"2017-05"},"persistent_id":"7a44601e2b743af8c08d45bf831a2f241a07e0748ad8c2a7425b096beefd01a8","id":57094239,"location_subtype":"","month":"2017-05"},{"category":"public-order","location_type":"Force","location":{"latitude":"51.532078","street":{"id":959017,"name":"On or near Adelphi Way"},"longitude":"-0.422161"},"context":"","outcome_status":{"category":"Investigation complete; no suspect identified","date":"2017-06"},"persistent_id":"f5716c6b059913f12db17a6995b19ea63e42d5a3a2cddba48e5652d214fec500","id":57093103,"location_subtype":"","month":"2017-05"},{"category":"public-order","location_type":"Force","location":{"latitude":"51.534280","street":{"id":959038,"name":"On or near Salcombe Way"},"longitude":"-0.429452"},"context":"","outcome_status":{"category":"Offender given penalty notice","date":"2017-05"},"persistent_id":"1df782d31c59e47fc1e244d37093994592827be15277a1e378637690fb0122d0","id":57094240,"location_subtype":"","month":"2017-05"},{"category":"shoplifting","location_type":"Force","location":{"latitude":"51.532021","street":{"id":959133,"name":"On or near Supermarket"},"longitude":"-0.421283"},"context":"","outcome_status":{"category":"Investigation complete; no suspect identified","date":"2017-05"},"persistent_id":"e593460a74cfe4f629edcd0e057323fdcd9f5d062e619f313b7ff8310ec2ad66","id":57105882,"location_subtype":"","month":"2017-05"},{"category":"shoplifting","location_type":"Force","location":{"latitude":"51.532021","street":{"id":959133,"name":"On or near Supermarket"},"longitude":"-0.421283"},"context":"","outcome_status":{"category":"Investigation complete; no suspect identified","date":"2017-05"},"persistent_id":"b45be1814c0c355bf836377c4746767af460354998ba130cd15a508f2db69f22","id":57083898,"location_subtype":"","month":"2017-05"},{"category":"shoplifting","location_type":"Force","location":{"latitude":"51.525722","street":{"id":959075,"name":"On or near Supermarket"},"longitude":"-0.435066"},"context":"","outcome_status":{"category":"Offender given penalty notice","date":"2017-06"},"persistent_id":"fa9e2307ec59eddba48fccbce492d144871720d3cbae1d4ea076285d26f70238","id":57090483,"location_subtype":"","month":"2017-05"},{"category":"vehicle-crime","location_type":"Force","location":{"latitude":"51.532308","street":{"id":959168,"name":"On or near Kingshill Avenue"},"longitude":"-0.418563"},"context":"","outcome_status":{"category":"Status update unavailable","date":"2017-09"},"persistent_id":"1ec52fe986307f1d11e790c6c16a3d26c17094b8d0da94eb6b73ea0cd830b7de","id":57097012,"location_subtype":"","month":"2017-05"},{"category":"vehicle-crime","location_type":"Force","location":{"latitude":"51.535371","street":{"id":959036,"name":"On or near Turner Close"},"longitude":"-0.439796"},"context":"","outcome_status":{"category":"Status update unavailable","date":"2017-09"},"persistent_id":"96d2a07ba1ddce5eec935447e485b400f0b00ef1f2e6037df40b1e0801382972","id":57101822,"location_subtype":"","month":"2017-05"},{"category":"vehicle-crime","location_type":"Force","location":{"latitude":"51.528715","street":{"id":959047,"name":"On or near Hewens Road"},"longitude":"-0.440312"},"context":"","outcome_status":{"category":"Investigation complete; no suspect identified","date":"2017-05"},"persistent_id":"f8cc89f1c0fb80815328c95a3d609b5c94e2e403f685d2e9624d28ff92f071a1","id":57091373,"location_subtype":"","month":"2017-05"},{"category":"vehicle-crime","location_type":"Force","location":{"latitude":"51.536270","street":{"id":959044,"name":"On or near Lawrence Road"},"longitude":"-0.438424"},"context":"","outcome_status":{"category":"Status update unavailable","date":"2017-09"},"persistent_id":"c4f015fb14ac1afd713a5f9477afc3694df8e4168f18d8e6f82ab41865457b1b","id":57103715,"location_subtype":"","month":"2017-05"},{"category":"vehicle-crime","location_type":"Force","location":{"latitude":"51.528954","street":{"id":959000,"name":"On or near Mansfield Drive"},"longitude":"-0.424575"},"context":"","outcome_status":{"category":"Status update unavailable","date":"2017-09"},"persistent_id":"d9cdb474f24ccd12b774867e27c87f9695fdf78c8879b043db8f1ad1daa5a2a8","id":57103403,"location_subtype":"","month":"2017-05"},{"category":"violent-crime","location_type":"Force","location":{"latitude":"51.532021","street":{"id":959133,"name":"On or near Supermarket"},"longitude":"-0.421283"},"context":"","outcome_status":{"category":"Court result unavailable","date":"2017-12"},"persistent_id":"e8e5a4275744928010f9759e2cf52f231f4569c508cf99136c45788398cc17c8","id":57105176,"location_subtype":"","month":"2017-05"},{"category":"violent-crime","location_type":"Force","location":{"latitude":"51.535276","street":{"id":959124,"name":"On or near Grosvenor Avenue"},"longitude":"-0.419945"},"context":"","outcome_status":{"category":"Investigation complete; no suspect identified","date":"2017-08"},"persistent_id":"47b71731ed5afe3e4cbafb0ff0809e5d02d539da502fa57525a94c1ce3dde68e","id":57116943,"location_subtype":"","month":"2017-05"},{"category":"violent-crime","location_type":"Force","location":{"latitude":"51.534353","street":{"id":959132,"name":"On or near Sports\/recreation Area"},"longitude":"-0.416848"},"context":"","outcome_status":{"category":"Investigation complete; no suspect identified","date":"2017-08"},"persistent_id":"8c3027acf8b68583341ebe93ca243160ad55ef3588cab1674bf856e40f1f7001","id":57098541,"location_subtype":"","month":"2017-05"},{"category":"violent-crime","location_type":"Force","location":{"latitude":"51.536856","street":{"id":966230,"name":"On or near Heatherwood Drive"},"longitude":"-0.431786"},"context":"","outcome_status":{"category":"Investigation complete; no suspect identified","date":"2017-05"},"persistent_id":"f98933aa3abc15d4ae110280e1e6d41baeee2f3faafbb9af2616fa536cdb5b40","id":57083166,"location_subtype":"","month":"2017-05"},{"category":"violent-crime","location_type":"Force","location":{"latitude":"51.525681","street":{"id":959064,"name":"On or near Newport Road"},"longitude":"-0.433309"},"context":"","outcome_status":{"category":"Investigation complete; no suspect identified","date":"2017-06"},"persistent_id":"2b1b8353c74aef807822d1269aa1f6754f2a87982d9add8193b903ba66943fd4","id":57119771,"location_subtype":"","month":"2017-05"},{"category":"violent-crime","location_type":"Force","location":{"latitude":"51.532416","street":{"id":959014,"name":"On or near Bradenham Road"},"longitude":"-0.425277"},"context":"","outcome_status":{"category":"Investigation complete; no suspect identified","date":"2017-05"},"persistent_id":"f20aba28ba0163defca781fdeb2c4df1e5e729bee90b298cc9a485d2b7fd80a4","id":57117571,"location_subtype":"","month":"2017-05"},{"category":"violent-crime","location_type":"Force","location":{"latitude":"51.528187","street":{"id":959054,"name":"On or near Blacklands Drive"},"longitude":"-0.437850"},"context":"","outcome_status":{"category":"Investigation complete; no suspect identified","date":"2017-05"},"persistent_id":"13e00b2ce723da3a54b5f85abda49b33d6e2b0f6e6769773b18a87612fae87b1","id":57111741,"location_subtype":"","month":"2017-05"},{"category":"violent-crime","location_type":"Force","location":{"latitude":"51.532308","street":{"id":959168,"name":"On or near Kingshill Avenue"},"longitude":"-0.418563"},"context":"","outcome_status":{"category":"Investigation complete; no suspect identified","date":"2017-06"},"persistent_id":"bfd48e8a1450918a088211743f77176dbde26d568a35a1f781e95eb114074f71","id":57067115,"location_subtype":"","month":"2017-05"},{"category":"violent-crime","location_type":"Force","location":{"latitude":"51.535732","street":{"id":959037,"name":"On or near The Oaks"},"longitude":"-0.437866"},"context":"","outcome_status":{"category":"Investigation complete; no suspect identified","date":"2017-08"},"persistent_id":"1a09cfa2e4cc8d8459f75594d4efe10f23c5b4334c712b429cee3c0ea32a51d8","id":57089013,"location_subtype":"","month":"2017-05"},{"category":"violent-crime","location_type":"Force","location":{"latitude":"51.541204","street":{"id":923821,"name":"On or near Sports\/recreation Area"},"longitude":"-0.420071"},"context":"","outcome_status":{"category":"Investigation complete; no suspect identified","date":"2017-06"},"persistent_id":"13bce037fe527ef926018d74b26b91c191a327591a7c4977f5eabe03e4a5741b","id":57105963,"location_subtype":"","month":"2017-05"},{"category":"violent-crime","location_type":"Force","location":{"latitude":"51.534079","street":{"id":959008,"name":"On or near Exmouth Road"},"longitude":"-0.427916"},"context":"","outcome_status":{"category":"Investigation complete; no suspect identified","date":"2017-06"},"persistent_id":"6c24ad937d976406f06f5afec403facc966356e53bab3610a03933a5af25c371","id":57081233,"location_subtype":"","month":"2017-05"},{"category":"violent-crime","location_type":"Force","location":{"latitude":"51.535276","street":{"id":959124,"name":"On or near Grosvenor Avenue"},"longitude":"-0.419945"},"context":"","outcome_status":{"category":"Court result unavailable","date":"2017-12"},"persistent_id":"e75d7b037b0fbfc45fa6a4a5b21392d902fc186d28a5f784dfbae1fc5b79f37b","id":57061881,"location_subtype":"","month":"2017-05"},{"category":"violent-crime","location_type":"Force","location":{"latitude":"51.536249","street":{"id":959045,"name":"On or near Hoppner Road"},"longitude":"-0.436882"},"context":"","outcome_status":{"category":"Investigation complete; no suspect identified","date":"2017-06"},"persistent_id":"5bb3555e877f59395c5f17108d7df0c92f48b15df5b596b3f59b7cbc7a1cc65b","id":57061528,"location_subtype":"","month":"2017-05"},{"category":"other-crime","location_type":"Force","location":{"latitude":"51.525281","street":{"id":959073,"name":"On or near Petrol Station"},"longitude":"-0.432328"},"context":"","outcome_status":{"category":"Status update unavailable","date":"2017-09"},"persistent_id":"a5fcab8080ae660100447cd0df6c1aa7b659d8b572072af2dd2fbaf6c5b3aa71","id":57097916,"location_subtype":"","month":"2017-05"}]