[{"category":"anti-social-behaviour","location_type":"Force","location":{"latitude":"51.605963","street":{"id":980830,"name":"On or near Field Mead"},"longitude":"-0.246380"},"context":"","outcome_status":null,"persistent_id":"","id":57035582,"location_subtype":"","month":"2017-05"},{"category":"anti-social-behaviour","location_type":"Force","location":{"latitude":"51.601740","street":{"id":980622,"name":"On or near Park\/open Space"},"longitude":"-0.249633"},"context":"","outcome_status":null,"persistent_id":"","id":57035592,"location_subtype":"","month":"2017-05"},{"category":"anti-social-behaviour","location_type":"Force","location":{"latitude":"51.594044","street":{"id":979003,"name":"On or near Sports\/recreation Area"},"longitude":"-0.248557"},"context":"","outcome_status":null,"persistent_id":"","id":57035593,"location_subtype":"","month":"2017-05"},{"category":"anti-social-behaviour","location_type":"Force","location":{"latitude":"51.594044","street":{"id":979003,"name":"On or near Sports\/recreation Area"},"longitude":"-0.248557"},"context":"","outcome_status":null,"persistent_id":"","id":57035594,"location_subtype":"","month":"2017-05"},{"category":"anti-social-behaviour","location_type":"Force","location":{"latitude":"51.594044","street":{"id":979003,"name":"On or near Sports\/recreation Area"},"longitude":"-0.248557"},"context":"","outcome_status":null,"persistent_id":"","id":57035595,"location_subtype":"","month":"2017-05"},{"category":"anti-social-behaviour","location_type":"Force","location":{"latitude":"51.594044","street":{"id":979003,"name":"On or near Sports\/recreation Area"},"longitude":"-0.248557"},"context":"","outcome_status":null,"persistent_id":"","id":57035596,"location_subtype":"","month":"2017-05"},{"category":"anti-social-behaviour","location_type":"Force","location":{"latitude":"51.601132","street":{"id":980758,"name":"On or near Pedestrian Subway"},"longitude":"-0.250494"},"context":"","outcome_status":null,"persistent_id":"","id":57035601,"location_subtype":"","month":"2017-05"},{"category":"anti-social-behaviour","location_type":"Force","location":{"latitude":"51.586456","street":{"id":974239,"name":"On or near Edgware Road The Hyde"},"longitude":"-0.250423"},"context":"","outcome_status":null,"persistent_id":"","id":57035602,"location_subtype":"","month":"2017-05"},{"category":"anti-social-behaviour","location_type":"Force","location":{"latitude":"51.586456","street":{"id":974239,"name":"On or near Edgware Road The Hyde"},"longitude":"-0.250423"},"context":"","outcome_status":null,"persistent_id":"","id":57035603,"location_subtype":"","month":"2017-05"},{"category":"anti-social-behaviour","location_type":"Force","location":{"latitude":"51.595505","street":{"id":979114,"name":"On or near Parking Area"},"longitude":"-0.250638"},"context":"","outcome_status":null,"persistent_id":"","id":57035606,"location_subtype":"","month":"2017-05"},{"category":"anti-social-behaviour","location_type":"Force","location":{"latitude":"51.595505","street":{"id":979114,"name":"On or near Parking Area"},"longitude":"-0.250638"},"context":"","outcome_status":null,"persistent_id":"","id":57035607,"location_subtype":"","month":"2017-05"},{"category":"anti-social-behaviour","location_type":"Force","location":{"latitude":"51.587333","street":{"id":979160,"name":"On or near Edgware Road The Hyde"},"longitude":"-0.251399"},"context":"","outcome_status":null,"persistent_id":"","id":57035611,"location_subtype":"","month":"2017-05"},{"category":"anti-social-behaviour","location_type":"Force","location":{"latitude":"51.587333","street":{"id":979160,"name":"On or near Edgware Road The Hyde"},"longitude":"-0.251399"},"context":"","outcome_status":null,"persistent_id":"","id":57035612,"location_subtype":"","month":"2017-05"},{"category":"anti-social-behaviour","location_type":"Force","location":{"latitude":"51.595505","street":{"id":979114,"name":"On or near Parking Area"},"longitude":"-0.250638"},"context":"","outcome_status":null,"persistent_id":"","id":57035613,"location_subtype":"","month":"2017-05"},{"category":"anti-social-behaviour","location_type":"Force","location":{"latitude":"51.595833","street":{"id":979126,"name":"On or near Pasteur Close"},"longitude":"-0.250929"},"context":"","outcome_status":null,"persistent_id":"","id":57035615,"location_subtype":"","month":"2017-05"},{"category":"anti-social-behaviour","location_type":"Force","location":{"latitude":"51.595833","street":{"id":979126,"name":"On or near Pasteur Close"},"longitude":"-0.250929"},"context":"","outcome_status":null,"persistent_id":"","id":57035616,"location_subtype":"","month":"2017-05"},{"category":"anti-social-behaviour","location_type":"Force","location":{"latitude":"51.595833","street":{"id":979126,"name":"On or near Pasteur Close"},"longitude":"-0.250929"},"context":"","outcome_status":null,"persistent_id":"","id":57035617,"location_subtype":"","month":"2017-05"},{"category":"anti-social-behaviour","location_type":"Force","location":{"latitude":"51.595833","street":{"id":979126,"name":"On or near Pasteur Close"},"longitude":"-0.250929"},"context":"","outcome_status":null,"persistent_id":"","id":57035618,"location_subtype":"","month":"2017-05"},{"category":"anti-social-behaviour","location_type":"Force","location":{"latitude":"51.595833","street":{"id":979126,"name":"On or near Pasteur Close"},"longitude":"-0.250929"},"context":"","outcome_status":null,"persistent_id":"","id":57035619,"location_subtype":"","month":"2017-05"},{"category":"anti-social-behaviour","location_type":"Force","location":{"latitude":"51.593124","street":{"id":979141,"name":"On or near Chequers Close"},"longitude":"-0.251942"},"context":"","outcome_status":null,"persistent_id":"","id":57035620,"location_subtype":"","month":"2017-05"},{"category":"anti-social-behaviour","location_type":"Force","location":{"latitude":"51.602171","street":{"id":980801,"name":"On or near Parking Area"},"longitude":"-0.245400"},"context":"","outcome_status":null,"persistent_id":"","id":57035569,"location_subtype":"","month":"2017-05"},{"category":"anti-social-behaviour","location_type":"Force","location":{"latitude":"51.592785","street":{"id":979142,"name":"On or near Cecil Road"},"longitude":"-0.253933"},"context":"","outcome_status":null,"persistent_id":"","id":57035642,"location_subtype":"","month":"2017-05"},{"category":"anti-social-behaviour","location_type":"Force","location":{"latitude":"51.590072","street":{"id":979132,"name":"On or near Hay Lane"},"longitude":"-0.254773"},"context":"","outcome_status":null,"persistent_id":"","id":57035643,"location_subtype":"","month":"2017-05"},{"category":"anti-social-behaviour","location_type":"Force","location":{"latitude":"51.592841","street":{"id":979123,"name":"On or near Stonecrop Close"},"longitude":"-0.256515"},"context":"","outcome_status":null,"persistent_id":"","id":57035649,"location_subtype":"","month":"2017-05"},{"category":"anti-social-behaviour","location_type":"Force","location":{"latitude":"51.592841","street":{"id":979123,"name":"On or near Stonecrop Close"},"longitude":"-0.256515"},"context":"","outcome_status":null,"persistent_id":"","id":57035650,"location_subtype":"","month":"2017-05"},{"category":"anti-social-behaviour","location_type":"Force","location":{"latitude":"51.592841","street":{"id":979123,"name":"On or near Stonecrop Close"},"longitude":"-0.256515"},"context":"","outcome_status":null,"persistent_id":"","id":57035651,"location_subtype":"","month":"2017-05"},{"category":"anti-social-behaviour","location_type":"Force","location":{"latitude":"51.595833","street":{"id":979126,"name":"On or near Pasteur Close"},"longitude":"-0.250929"},"context":"","outcome_status":null,"persistent_id":"","id":57035621,"location_subtype":"","month":"2017-05"},{"category":"anti-social-behaviour","location_type":"Force","location":{"latitude":"51.595833","street":{"id":979126,"name":"On or near Pasteur Close"},"longitude":"-0.250929"},"context":"","outcome_status":null,"persistent_id":"","id":57035622,"location_subtype":"","month":"2017-05"},{"category":"anti-social-behaviour","location_type":"Force","location":{"latitude":"51.593124","street":{"id":979141,"name":"On or near Chequers Close"},"longitude":"-0.251942"},"context":"","outcome_status":null,"persistent_id":"","id":57035625,"location_subtype":"","month":"2017-05"},{"category":"anti-social-behaviour","location_type":"Force","location":{"latitude":"51.593124","street":{"id":979141,"name":"On or near Chequers Close"},"longitude":"-0.251942"},"context":"","outcome_status":null,"persistent_id":"","id":57035626,"location_subtype":"","month":"2017-05"},{"category":"anti-social-behaviour","location_type":"Force","location":{"latitude":"51.595833","street":{"id":979126,"name":"On or near Pasteur Close"},"longitude":"-0.250929"},"context":"","outcome_status":null,"persistent_id":"","id":57035630,"location_subtype":"","month":"2017-05"},{"category":"anti-social-behaviour","location_type":"Force","location":{"latitude":"51.595833","street":{"id":979126,"name":"On or near Pasteur Close"},"longitude":"-0.250929"},"context":"","outcome_status":null,"persistent_id":"","id":57035631,"location_subtype":"","month":"2017-05"},{"category":"anti-social-behaviour","location_type":"Force","location":{"latitude":"51.595833","street":{"id":979126,"name":"On or near Pasteur Close"},"longitude":"-0.250929"},"context":"","outcome_status":null,"persistent_id":"","id":57035632,"location_subtype":"","month":"2017-05"},{"category":"anti-social-behaviour","location_type":"Force","location":{"latitude":"51.591153","street":{"id":979128,"name":"On or near Manor Way"},"longitude":"-0.252436"},"context":"","outcome_status":null,"persistent_id":"","id":57035633,"location_subtype":"","month":"2017-05"},{"category":"anti-social-behaviour","location_type":"Force","location":{"latitude":"51.590202","street":{"id":979140,"name":"On or near Colin Park Road"},"longitude":"-0.252574"},"context":"","outcome_status":null,"persistent_id":"","id":57035635,"location_subtype":"","month":"2017-05"},{"category":"anti-social-behaviour","location_type":"Force","location":{"latitude":"51.592841","street":{"id":979123,"name":"On or near Stonecrop Close"},"longitude":"-0.256515"},"context":"","outcome_status":null,"persistent_id":"","id":57035652,"location_subtype":"","month":"2017-05"},{"category":"anti-social-behaviour","location_type":"Force","location":{"latitude":"51.590072","street":{"id":979132,"name":"On or near Hay Lane"},"longitude":"-0.254773"},"context":"","outcome_status":null,"persistent_id":"","id":57035656,"location_subtype":"","month":"2017-05"},{"category":"anti-social-behaviour","location_type":"Force","location":{"latitude":"51.586456","street":{"id":974239,"name":"On or near Edgware Road The Hyde"},"longitude":"-0.250423"},"context":"","outcome_status":null,"persistent_id":"","id":57041920,"location_subtype":"","month":"2017-05"},{"category":"anti-social-behaviour","location_type":"Force","location":{"latitude":"51.586456","street":{"id":974239,"name":"On or near Edgware Road The Hyde"},"longitude":"-0.250423"},"context":"","outcome_status":null,"persistent_id":"","id":57041921,"location_subtype":"","month":"2017-05"},{"category":"anti-social-behaviour","location_type":"Force","location":{"latitude":"51.590072","street":{"id":979132,"name":"On or near Hay Lane"},"longitude":"-0.254773"},"context":"","outcome_status":null,"persistent_id":"","id":57041962,"location_subtype":"","month":"2017-05"},{"category":"anti-social-behaviour","location_type":"Force","location":{"latitude":"51.590072","street":{"id":979132,"name":"On or near Hay Lane"},"longitude":"-0.254773"},"context":"","outcome_status":null,"persistent_id":"","id":57041981,"location_subtype":"","month":"2017-05"},{"category":"anti-social-behaviour","location_type":"Force","location":{"latitude":"51.584634","street":{"id":974385,"name":"On or near Colin Drive"},"longitude":"-0.241673"},"context":"","outcome_status":null,"persistent_id":"","id":57035239,"location_subtype":"","month":"2017-05"},{"category":"anti-social-behaviour","location_type":"Force","location":{"latitude":"51.595878","street":{"id":979001,"name":"On or near Boulevard Drive"},"longitude":"-0.241297"},"context":"","outcome_status":null,"persistent_id":"","id":57035242,"location_subtype":"","month":"2017-05"},{"category":"anti-social-behaviour","location_type":"Force","location":{"latitude":"51.595878","street":{"id":979001,"name":"On or near Boulevard Drive"},"longitude":"-0.241297"},"context":"","outcome_status":null,"persistent_id":"","id":57035243,"location_subtype":"","month":"2017-05"},{"category":"anti-social-behaviour","location_type":"Force","location":{"latitude":"51.595878","street":{"id":979001,"name":"On or near Boulevard Drive"},"longitude":"-0.241297"},"context":"","outcome_status":null,"persistent_id":"","id":57035244,"location_subtype":"","month":"2017-05"},{"category":"anti-social-behaviour","location_type":"Force","location":{"latitude":"51.605710","street":{"id":980825,"name":"On or near Lancaster Close"},"longitude":"-0.243300"},"context":"","outcome_status":null,"persistent_id":"","id":57035246,"location_subtype":"","month":"2017-05"},{"category":"anti-social-behaviour","location_type":"Force","location":{"latitude":"51.601240","street":{"id":980806,"name":"On or near Everglade Strand"},"longitude":"-0.242692"},"context":"","outcome_status":null,"persistent_id":"","id":57035247,"location_subtype":"","month":"2017-05"},{"category":"anti-social-behaviour","location_type":"Force","location":{"latitude":"51.601240","street":{"id":980806,"name":"On or near Everglade Strand"},"longitude":"-0.242692"},"context":"","outcome_status":null,"persistent_id":"","id":57035248,"location_subtype":"","month":"2017-05"},{"category":"anti-social-behaviour","location_type":"Force","location":{"latitude":"51.595963","street":{"id":978989,"name":"On or near Heritage Avenue"},"longitude":"-0.242752"},"context":"","outcome_status":null,"persistent_id":"","id":57035249,"location_subtype":"","month":"2017-05"},{"category":"anti-social-behaviour","location_type":"Force","location":{"latitude":"51.586122","street":{"id":974395,"name":"On or near Scottwell Drive"},"longitude":"-0.243752"},"context":"","outcome_status":null,"persistent_id":"","id":57035251,"location_subtype":"","month":"2017-05"},{"category":"anti-social-behaviour","location_type":"Force","location":{"latitude":"51.605710","street":{"id":980825,"name":"On or near Lancaster Close"},"longitude":"-0.243300"},"context":"","outcome_status":null,"persistent_id":"","id":57035252,"location_subtype":"","month":"2017-05"},{"category":"anti-social-behaviour","location_type":"Force","location":{"latitude":"51.605710","street":{"id":980825,"name":"On or near Lancaster Close"},"longitude":"-0.243300"},"context":"","outcome_status":null,"persistent_id":"","id":57035253,"location_subtype":"","month":"2017-05"},{"category":"anti-social-behaviour","location_type":"Force","location":{"latitude":"51.602801","street":{"id":980800,"name":"On or near Pedestrian Subway"},"longitude":"-0.244235"},"context":"","outcome_status":null,"persistent_id":"","id":57035257,"location_subtype":"","month":"2017-05"},{"category":"anti-social-behaviour","location_type":"Force","location":{"latitude":"51.602801","street":{"id":980800,"name":"On or near Pedestrian Subway"},"longitude":"-0.244235"},"context":"","outcome_status":null,"persistent_id":"","id":57035258,"location_subtype":"","month":"2017-05"},{"category":"anti-social-behaviour","location_type":"Force","location":{"latitude":"51.603739","street":{"id":980812,"name":"On or near Withers Mead"},"longitude":"-0.244430"},"context":"","outcome_status":null,"persistent_id":"","id":57035576,"location_subtype":"","month":"2017-05"},{"category":"anti-social-behaviour","location_type":"Force","location":{"latitude":"51.601783","street":{"id":980804,"name":"On or near Quakers Course"},"longitude":"-0.245891"},"context":"","outcome_status":null,"persistent_id":"","id":57035577,"location_subtype":"","month":"2017-05"},{"category":"anti-social-behaviour","location_type":"Force","location":{"latitude":"51.601783","street":{"id":980804,"name":"On or near Quakers Course"},"longitude":"-0.245891"},"context":"","outcome_status":null,"persistent_id":"","id":57035578,"location_subtype":"","month":"2017-05"},{"category":"anti-social-behaviour","location_type":"Force","location":{"latitude":"51.601783","street":{"id":980804,"name":"On or near Quakers Course"},"longitude":"-0.245891"},"context":"","outcome_status":null,"persistent_id":"","id":57035579,"location_subtype":"","month":"2017-05"},{"category":"anti-social-behaviour","location_type":"Force","location":{"latitude":"51.587650","street":{"id":979058,"name":"On or near Rushgrove Avenue"},"longitude":"-0.244920"},"context":"","outcome_status":null,"persistent_id":"","id":57035580,"location_subtype":"","month":"2017-05"},{"category":"anti-social-behaviour","location_type":"Force","location":{"latitude":"51.605747","street":{"id":980831,"name":"On or near Dunn Mead"},"longitude":"-0.245811"},"context":"","outcome_status":null,"persistent_id":"","id":57035581,"location_subtype":"","month":"2017-05"},{"category":"anti-social-behaviour","location_type":"Force","location":{"latitude":"51.605963","street":{"id":980830,"name":"On or near Field Mead"},"longitude":"-0.246380"},"context":"","outcome_status":null,"persistent_id":"","id":57035583,"location_subtype":"","month":"2017-05"},{"category":"anti-social-behaviour","location_type":"Force","location":{"latitude":"51.593103","street":{"id":978980,"name":"On or near Rankin Close"},"longitude":"-0.248132"},"context":"","outcome_status":null,"persistent_id":"","id":57035585,"location_subtype":"","month":"2017-05"},{"category":"anti-social-behaviour","location_type":"Force","location":{"latitude":"51.593103","street":{"id":978980,"name":"On or near Rankin Close"},"longitude":"-0.248132"},"context":"","outcome_status":null,"persistent_id":"","id":57035586,"location_subtype":"","month":"2017-05"},{"category":"anti-social-behaviour","location_type":"Force","location":{"latitude":"51.590644","street":{"id":978977,"name":"On or near Sheaveshill Avenue"},"longitude":"-0.248443"},"context":"","outcome_status":null,"persistent_id":"","id":57035587,"location_subtype":"","month":"2017-05"},{"category":"anti-social-behaviour","location_type":"Force","location":{"latitude":"51.588886","street":{"id":978981,"name":"On or near Poolsford Road"},"longitude":"-0.248770"},"context":"","outcome_status":null,"persistent_id":"","id":57035588,"location_subtype":"","month":"2017-05"},{"category":"anti-social-behaviour","location_type":"Force","location":{"latitude":"51.598249","street":{"id":978972,"name":"On or near Magpie Close"},"longitude":"-0.248930"},"context":"","outcome_status":null,"persistent_id":"","id":57035589,"location_subtype":"","month":"2017-05"},{"category":"anti-social-behaviour","location_type":"Force","location":{"latitude":"51.598249","street":{"id":978972,"name":"On or near Magpie Close"},"longitude":"-0.248930"},"context":"","outcome_status":null,"persistent_id":"","id":57035590,"location_subtype":"","month":"2017-05"},{"category":"anti-social-behaviour","location_type":"Force","location":{"latitude":"51.601740","street":{"id":980622,"name":"On or near Park\/open Space"},"longitude":"-0.249633"},"context":"","outcome_status":null,"persistent_id":"","id":57035591,"location_subtype":"","month":"2017-05"},{"category":"bicycle-theft","location_type":"Force","location":{"latitude":"51.592841","street":{"id":979123,"name":"On or near Stonecrop Close"},"longitude":"-0.256515"},"context":"","outcome_status":{"category":"Investigation complete; no suspect identified","date":"2017-06"},"persistent_id":"0bce877fc3c7dddcf5016bd9399420bdb857d15583a000699bafdb0cb99296e9","id":57091946,"location_subtype":"","month":"2017-05"},{"category":"bicycle-theft","location_type":"Force","location":{"latitude":"51.595518","street":{"id":979064,"name":"On or near Parking Area"},"longitude":"-0.249699"},"context":"","outcome_status":{"category":"Investigation complete; no suspect identified","date":"2017-05"},"persistent_id":"60d374bd461470c92971454b21f327818f6b481d0981e17a09897dc31fd13f5e","id":57082805,"location_subtype":"","month":"2017-05"},{"category":"burglary","location_type":"Force","location":{"latitude":"51.592785","street":{"id":979142,"name":"On or near Cecil Road"},"longitude":"-0.253933"},"context":"","outcome_status":{"category":"Status update unavailable","date":"2017-09"},"persistent_id":"c1e639816aa29fe5d8ed9e29f23ae8b68435ad65d29ad8e126b09d8f755e39fa","id":57084316,"location_subtype":"","month":"2017-05"},{"category":"burglary","location_type":"Force","location":{"latitude":"51.595833","street":{"id":979126,"name":"On or near Pasteur Close"},"longitude":"-0.250929"},"context":"","outcome_status":{"category":"Investigation complete; no suspect identified","date":"2017-05"},"persistent_id":"7faafc4866dadec69b0dea8759960fb80ae477573dbf64893ef50d15a7f84c8a","id":57094774,"location_subtype":"","month":"2017-05"},{"category":"burglary","location_type":"Force","location":{"latitude":"51.599219","street":{"id":978988,"name":"On or near Hundred Acre"},"longitude":"-0.245225"},"context":"","outcome_status":{"category":"Investigation complete; no suspect identified","date":"2017-07"},"persistent_id":"5ff81f4b64006c56228d11ea97023b2532cb3e72debbc1919097a4ef292df004","id":57077594,"location_subtype":"","month":"2017-05"},{"category":"burglary","location_type":"Force","location":{"latitude":"51.595963","street":{"id":978989,"name":"On or near Heritage Avenue"},"longitude":"-0.242752"},"context":"","outcome_status":{"category":"Investigation complete; no suspect identified","date":"2017-05"},"persistent_id":"f56d60895d35adeb82e1ce75df701e50daa1606789cd1357f2b62ad95147126c","id":57058091,"location_subtype":"","month":"2017-05"},{"category":"burglary","location_type":"Force","location":{"latitude":"51.586982","street":{"id":979062,"name":"On or near Colin Gardens"},"longitude":"-0.242319"},"context":"","outcome_status":{"category":"Status update unavailable","date":"2017-09"},"persistent_id":"8178c8e0eda24f80ffc058c6c83c9c22ee9d6f6efc0c57b4904c6656c9ef098a","id":57077155,"location_subtype":"","month":"2017-05"},{"category":"burglary","location_type":"Force","location":{"latitude":"51.590072","street":{"id":979132,"name":"On or near Hay Lane"},"longitude":"-0.254773"},"context":"","outcome_status":{"category":"Status update unavailable","date":"2017-09"},"persistent_id":"1c68e203fa0bbdf494fa8d7ff0a3908de10ea28068822fb0e7f81c710bb93503","id":57101510,"location_subtype":"","month":"2017-05"},{"category":"burglary","location_type":"Force","location":{"latitude":"51.595878","street":{"id":979001,"name":"On or near Boulevard Drive"},"longitude":"-0.241297"},"context":"","outcome_status":{"category":"Status update unavailable","date":"2017-09"},"persistent_id":"f174939f934d2fef418b2e050fdbf1e8fbeccbb7f6b2663467b05e18b87509b0","id":57102175,"location_subtype":"","month":"2017-05"},{"category":"burglary","location_type":"Force","location":{"latitude":"51.605323","street":{"id":980845,"name":"On or near Linklea Close"},"longitude":"-0.248715"},"context":"","outcome_status":{"category":"Status update unavailable","date":"2017-09"},"persistent_id":"0091fcd10c2e62d13beb6b87cabba4b79209b274e10058a93f1bded0ada5e170","id":57077175,"location_subtype":"","month":"2017-05"},{"category":"burglary","location_type":"Force","location":{"latitude":"51.594125","street":{"id":979139,"name":"On or near Colindale Avenue"},"longitude":"-0.252178"},"context":"","outcome_status":{"category":"Status update unavailable","date":"2017-09"},"persistent_id":"e17fd3e25a91794a01097dfab140b151d2842f527f647d7a6ab7379da98438e2","id":57066296,"location_subtype":"","month":"2017-05"},{"category":"criminal-damage-arson","location_type":"Force","location":{"latitude":"51.598249","street":{"id":978972,"name":"On or near Magpie Close"},"longitude":"-0.248930"},"context":"","outcome_status":{"category":"Status update unavailable","date":"2017-09"},"persistent_id":"02a193c1c63464d28334271e8301bb2564c714cb2930b64f69ed666665000d58","id":57070391,"location_subtype":"","month":"2017-05"},{"category":"criminal-damage-arson","location_type":"Force","location":{"latitude":"51.599028","street":{"id":978986,"name":"On or near Little Strand"},"longitude":"-0.242662"},"context":"","outcome_status":{"category":"Status update unavailable","date":"2017-09"},"persistent_id":"952cddcf30568eb74994f18987e6ba8ac9435e867a12f77f267fe602a7dbef64","id":57116887,"location_subtype":"","month":"2017-05"},{"category":"criminal-damage-arson","location_type":"Force","location":{"latitude":"51.596894","street":{"id":979007,"name":"On or near Police Station"},"longitude":"-0.241272"},"context":"","outcome_status":{"category":"Offender fined","date":"2017-05"},"persistent_id":"766c9bbd772d1561fd63d3827091fab97ed84f98ca2a7b55331d94b318848bc5","id":57097917,"location_subtype":"","month":"2017-05"},{"category":"criminal-damage-arson","location_type":"Force","location":{"latitude":"51.603565","street":{"id":980826,"name":"On or near Great Field"},"longitude":"-0.247180"},"context":"","outcome_status":{"category":"Status update unavailable","date":"2017-09"},"persistent_id":"51c5f4714e17991abfd7e54333b376fcd29a9b3cb2389a5faf23bd44af578a36","id":57076624,"location_subtype":"","month":"2017-05"},{"category":"criminal-damage-arson","location_type":"Force","location":{"latitude":"51.596894","street":{"id":979007,"name":"On or near Police Station"},"longitude":"-0.241272"},"context":"","outcome_status":{"category":"Investigation complete; no suspect identified","date":"2017-05"},"persistent_id":"6c515ae020d0f1079123cea823749dcad39c8b5c6121a9d5a062692630e82f17","id":57087016,"location_subtype":"","month":"2017-05"},{"category":"criminal-damage-arson","location_type":"Force","location":{"latitude":"51.587333","street":{"id":979160,"name":"On or near Edgware Road The Hyde"},"longitude":"-0.251399"},"context":"","outcome_status":{"category":"Status update unavailable","date":"2017-09"},"persistent_id":"c9595bc61e24d32e3f4ee724b287aba875acd9bd24de63c2162ed46683a9c34e","id":57114853,"location_subtype":"","month":"2017-05"},{"category":"criminal-damage-arson","location_type":"Force","location":{"latitude":"51.596894","street":{"id":979007,"name":"On or near Police Station"},"longitude":"-0.241272"},"context":"","outcome_status":{"category":"Offender given a caution","date":"2017-07"},"persistent_id":"11e032e4342404973c5fd30b5a15c24c8b92a520daf4708ecc055e66c90180f7","id":57097462,"location_subtype":"","month":"2017-05"},{"category":"criminal-damage-arson","location_type":"Force","location":{"latitude":"51.592841","street":{"id":979123,"name":"On or near Stonecrop Close"},"longitude":"-0.256515"},"context":"","outcome_status":{"category":"Status update unavailable","date":"2017-09"},"persistent_id":"50ebd6086eccffd39368fe31bdcbb2ccd0f2dd72f8e7b0f22df80d1b5f040a5b","id":57097110,"location_subtype":"","month":"2017-05"},{"category":"criminal-damage-arson","location_type":"Force","location":{"latitude":"51.587644","street":{"id":979161,"name":"On or near Edgware Road The Hyde"},"longitude":"-0.251748"},"context":"","outcome_status":{"category":"Investigation complete; no suspect identified","date":"2018-01"},"persistent_id":"3c50c1dfb5906ec2f86d3d44f6ee7a4ef65b2f4e1b01078fda744a39a521bb21","id":57094264,"location_subtype":"","month":"2017-05"},{"category":"criminal-damage-arson","location_type":"Force","location":{"latitude":"51.587982","street":{"id":979151,"name":"On or near Wakemans Hill Avenue"},"longitude":"-0.252053"},"context":"","outcome_status":{"category":"Investigation complete; no suspect identified","date":"2017-05"},"persistent_id":"b8e9b3c64c34ca9df88d856cb14051e7a2f4e86d6ddd8aebfa06bbc0e04e6f99","id":57108314,"location_subtype":"","month":"2017-05"},{"category":"criminal-damage-arson","location_type":"Force","location":{"latitude":"51.591189","street":{"id":978997,"name":"On or near Colindeep Lane"},"longitude":"-0.247050"},"context":"","outcome_status":{"category":"Investigation complete; no suspect identified","date":"2017-06"},"persistent_id":"fdd7c41997e0cedf85efaf3390710f3066da924840334e0790f2f582f64c15b4","id":57087980,"location_subtype":"","month":"2017-05"},{"category":"criminal-damage-arson","location_type":"Force","location":{"latitude":"51.595963","street":{"id":978989,"name":"On or near Heritage Avenue"},"longitude":"-0.242752"},"context":"","outcome_status":{"category":"Investigation complete; no suspect identified","date":"2017-11"},"persistent_id":"c60cb52f8baf16c18fbed28d65ea9e82f02cac289e1fadd94c860a121337733e","id":57073742,"location_subtype":"","month":"2017-05"},{"category":"criminal-damage-arson","location_type":"Force","location":{"latitude":"51.587845","street":{"id":979063,"name":"On or near Colin Crescent"},"longitude":"-0.240466"},"context":"","outcome_status":{"category":"Investigation complete; no suspect identified","date":"2017-05"},"persistent_id":"28feece53dbe440136e1f3d6003b34675041390669b4dfd7eff7c6551ce52dde","id":57094430,"location_subtype":"","month":"2017-05"},{"category":"criminal-damage-arson","location_type":"Force","location":{"latitude":"51.596894","street":{"id":979007,"name":"On or near Police Station"},"longitude":"-0.241272"},"context":"","outcome_status":{"category":"Offender given suspended prison sentence","date":"2017-05"},"persistent_id":"4a644dee7d1ecc55a7802351b7a5a1d034980767fccdb7e544860ee3a76442b5","id":57078940,"location_subtype":"","month":"2017-05"},{"category":"criminal-damage-arson","location_type":"Force","location":{"latitude":"51.592841","street":{"id":979123,"name":"On or near Stonecrop Close"},"longitude":"-0.256515"},"context":"","outcome_status":{"category":"Offender given a caution","date":"2017-05"},"persistent_id":"b76719a336c053d7d40a298bf527217940b15568cb37ec641ea8afc5b2d2990d","id":57055900,"location_subtype":"","month":"2017-05"},{"category":"criminal-damage-arson","location_type":"Force","location":{"latitude":"51.595833","street":{"id":979126,"name":"On or near Pasteur Close"},"longitude":"-0.250929"},"context":"","outcome_status":{"category":"Status update unavailable","date":"2017-09"},"persistent_id":"a4ac64b4367faac4a866a2cfc758c15dfdeef08d8f0637d55e14e9befe2dc413","id":57070236,"location_subtype":"","month":"2017-05"},{"category":"criminal-damage-arson","location_type":"Force","location":{"latitude":"51.599755","street":{"id":980853,"name":"On or near Five Acre"},"longitude":"-0.245565"},"context":"","outcome_status":{"category":"Investigation complete; no suspect identified","date":"2017-05"},"persistent_id":"7116a9b809d1db0673266b0d717f90b6298a85dc562497b3c8cd8bb295c28069","id":57092185,"location_subtype":"","month":"2017-05"},{"category":"criminal-damage-arson","location_type":"Force","location":{"latitude":"51.596894","street":{"id":979007,"name":"On or near Police Station"},"longitude":"-0.241272"},"context":"","outcome_status":{"category":"Investigation complete; no suspect identified","date":"2017-05"},"persistent_id":"77ef2801b51b221b2aef98d10247eb60d5e853e50d893c0108e8d9f2a82aac88","id":57119294,"location_subtype":"","month":"2017-05"},{"category":"criminal-damage-arson","location_type":"Force","location":{"latitude":"51.596894","street":{"id":979007,"name":"On or near Police Station"},"longitude":"-0.241272"},"context":"","outcome_status":{"category":"Investigation complete; no suspect identified","date":"2018-02"},"persistent_id":"24190928e92a41de65f7b10560836b91d9d41eb13aba487c3ccee8525531393e","id":57119005,"location_subtype":"","month":"2017-05"},{"category":"criminal-damage-arson","location_type":"Force","location":{"latitude":"51.596894","street":{"id":979007,"name":"On or near Police Station"},"longitude":"-0.241272"},"context":"","outcome_status":{"category":"Investigation complete; no suspect identified","date":"2017-05"},"persistent_id":"ede8c175992182cec06bf9e538b7c8896453e7e59dab222caa861c8ad9360a39","id":57081086,"location_subtype":"","month":"2017-05"},{"category":"criminal-damage-arson","location_type":"Force","location":{"latitude":"51.593771","street":{"id":979144,"name":"On or near Annesley Avenue"},"longitude":"-0.256754"},"context":"","outcome_status":{"category":"Status update unavailable","date":"2017-09"},"persistent_id":"b682c6a562c9bf5860cc1c25916a5305ab439e17323e71979ebf8d8a422338f0","id":57081546,"location_subtype":"","month":"2017-05"},{"category":"criminal-damage-arson","location_type":"Force","location":{"latitude":"51.596880","street":{"id":979002,"name":"On or near Belvedere Strand"},"longitude":"-0.245127"},"context":"","outcome_status":{"category":"Court result unavailable","date":"2017-11"},"persistent_id":"41f549d9658b549c1a635afa3381e1d20a70ceb11e40baf31f962a91887bda32","id":57107236,"location_subtype":"","month":"2017-05"},{"category":"drugs","location_type":"Force","location":{"latitude":"51.597013","street":{"id":978973,"name":"On or near Booth Road"},"longitude":"-0.249252"},"context":"","outcome_status":{"category":"Offender given a drugs possession warning","date":"2017-06"},"persistent_id":"dfe3d68823f98562c66281b06fea2a9ff796f2fcaa028f13f899c91bf889f08e","id":57114135,"location_subtype":"","month":"2017-05"},{"category":"drugs","location_type":"Force","location":{"latitude":"51.597013","street":{"id":978973,"name":"On or near Booth Road"},"longitude":"-0.249252"},"context":"","outcome_status":{"category":"Status update unavailable","date":"2017-09"},"persistent_id":"dfe3d68823f98562c66281b06fea2a9ff796f2fcaa028f13f899c91bf889f08e","id":57114134,"location_subtype":"","month":"2017-05"},{"category":"drugs","location_type":"Force","location":{"latitude":"51.595518","street":{"id":979064,"name":"On or near Parking Area"},"longitude":"-0.249699"},"context":"","outcome_status":{"category":"Status update unavailable","date":"2017-09"},"persistent_id":"51575a74af6f0d8a345193b04765ff011fd3528fa3ee808d80d8a61d343040f3","id":57076602,"location_subtype":"","month":"2017-05"},{"category":"drugs","location_type":"Force","location":{"latitude":"51.602219","street":{"id":980802,"name":"On or near Parking Area"},"longitude":"-0.243824"},"context":"","outcome_status":{"category":"Offender given a drugs possession warning","date":"2017-05"},"persistent_id":"91ce914dde6d21bf820de2da32de541a0cb013accc65cd26e70a41b06f3d92e1","id":57099715,"location_subtype":"","month":"2017-05"},{"category":"drugs","location_type":"Force","location":{"latitude":"51.596894","street":{"id":979007,"name":"On or near Police Station"},"longitude":"-0.241272"},"context":"","outcome_status":{"category":"Offender given a drugs possession warning","date":"2017-05"},"persistent_id":"9b5defd40c5006e4d8fad93753d7f0a436e77fbd3a1864f35308ed1da7796b7c","id":57114756,"location_subtype":"","month":"2017-05"},{"category":"drugs","location_type":"Force","location":{"latitude":"51.596894","street":{"id":979007,"name":"On or near Police Station"},"longitude":"-0.241272"},"context":"","outcome_status":{"category":"Offender fined","date":"2017-05"},"persistent_id":"1d56ddb131cbca33ef3de91485128f5801c4719a80e0972a38baa73bdc58f361","id":57102553,"location_subtype":"","month":"2017-05"},{"category":"drugs","location_type":"Force","location":{"latitude":"51.596894","street":{"id":979007,"name":"On or near Police Station"},"longitude":"-0.241272"},"context":"","outcome_status":{"category":"Court result unavailable","date":"2017-12"},"persistent_id":"4778c85927bdc1fe57eb10bc0e91f1f1532d97030cd602e192019038a4804e6d","id":57118121,"location_subtype":"","month":"2017-05"},{"category":"other-theft","location_type":"Force","location":{"latitude":"51.604938","street":{"id":980824,"name":"On or near Long Field"},"longitude":"-0.247026"},"context":"","outcome_status":{"category":"Investigation complete; no suspect identified","date":"2017-05"},"persistent_id":"b184d0f1a2f935b364753387c84b4788386ed1fb9b8a42724a77f40e567d5bf6","id":57103358,"location_subtype":"","month":"2017-05"},{"category":"other-theft","location_type":"Force","location":{"latitude":"51.595963","street":{"id":978989,"name":"On or near Heritage Avenue"},"longitude":"-0.242752"},"context":"","outcome_status":{"category":"Investigation complete; no suspect identified","date":"2017-05"},"persistent_id":"5865e55db60cccb3e6947327761f7a609135b378b6e985460379a5f78765ecab","id":57083665,"location_subtype":"","month":"2017-05"},{"category":"other-theft","location_type":"Force","location":{"latitude":"51.586456","street":{"id":974239,"name":"On or near Edgware Road The Hyde"},"longitude":"-0.250423"},"context":"","outcome_status":{"category":"Investigation complete; no suspect identified","date":"2017-05"},"persistent_id":"33d225f745d573382418ee507b284c918576d1fc5480439b55e27c1ca0f88856","id":57055322,"location_subtype":"","month":"2017-05"},{"category":"other-theft","location_type":"Force","location":{"latitude":"51.592070","street":{"id":923732,"name":"On or near Rowan Drive"},"longitude":"-0.238037"},"context":"","outcome_status":{"category":"Status update unavailable","date":"2017-09"},"persistent_id":"0f3c74f1820fff77bea684128b20bf6904299070bf8607c8e975bbe834e723db","id":57056132,"location_subtype":"","month":"2017-05"},{"category":"other-theft","location_type":"Force","location":{"latitude":"51.597876","street":{"id":978985,"name":"On or near Lower Strand"},"longitude":"-0.242591"},"context":"","outcome_status":{"category":"Investigation complete; no suspect identified","date":"2017-07"},"persistent_id":"6463155e57195cf31abdfb5a7f4c13f431b8fc43557cfb81268ad7ccbcdea865","id":57085321,"location_subtype":"","month":"2017-05"},{"category":"other-theft","location_type":"Force","location":{"latitude":"51.595518","street":{"id":979064,"name":"On or near Parking Area"},"longitude":"-0.249699"},"context":"","outcome_status":{"category":"Status update unavailable","date":"2017-09"},"persistent_id":"1dd4d5b3972ceaecc1155bb20351afd56deb9b637d5a80a462bdf0515732f489","id":57081302,"location_subtype":"","month":"2017-05"},{"category":"other-theft","location_type":"Force","location":{"latitude":"51.605963","street":{"id":980830,"name":"On or near Field Mead"},"longitude":"-0.246380"},"context":"","outcome_status":{"category":"Status update unavailable","date":"2017-09"},"persistent_id":"88ae81f26306fc5f36d5096d9bb789b9b1b54a9126975fc55ec8d28a0370fb63","id":57083311,"location_subtype":"","month":"2017-05"},{"category":"other-theft","location_type":"Force","location":{"latitude":"51.585548","street":{"id":974369,"name":"On or near Rookery Close"},"longitude":"-0.245622"},"context":"","outcome_status":{"category":"Status update unavailable","date":"2017-09"},"persistent_id":"e3cca234c16d38f3ee05a2cce85543acd20d1f7b131a0e69a67182e4bee4100f","id":57092973,"location_subtype":"","month":"2017-05"},{"category":"other-theft","location_type":"Force","location":{"latitude":"51.583450","street":{"id":974389,"name":"On or near Nightclub"},"longitude":"-0.247290"},"context":"","outcome_status":{"category":"Status update unavailable","date":"2017-09"},"persistent_id":"c2ff2799b363dfc74d4742b7ece9ec5179ae30c7bcc810c9e272fcef41c3dc4f","id":57099502,"location_subtype":"","month":"2017-05"},{"category":"other-theft","location_type":"Force","location":{"latitude":"51.581790","street":{"id":974390,"name":"On or near Supermarket"},"longitude":"-0.243919"},"context":"","outcome_status":{"category":"Investigation complete; no suspect identified","date":"2017-05"},"persistent_id":"c8175d560d1a5af5194523fd430b02e92b6c07b5f6e1fd479decad81cfda4f52","id":57101111,"location_subtype":"","month":"2017-05"},{"category":"other-theft","location_type":"Force","location":{"latitude":"51.595518","street":{"id":979064,"name":"On or near Parking Area"},"longitude":"-0.249699"},"context":"","outcome_status":{"category":"Status update unavailable","date":"2017-09"},"persistent_id":"339317c8fb7fb647d71a030962fa0bec174dfdbe49e07120451963b0a4677e5b","id":57103343,"location_subtype":"","month":"2017-05"},{"category":"other-theft","location_type":"Force","location":{"latitude":"51.596894","street":{"id":979007,"name":"On or near Police Station"},"longitude":"-0.241272"},"context":"","outcome_status":{"category":"Investigation complete; no suspect identified","date":"2017-05"},"persistent_id":"69665e20160c8fcefb1c711ecea5a1ca7784ffc7ca461990520616a06cba4d41","id":57103685,"location_subtype":"","month":"2017-05"},{"category":"other-theft","location_type":"Force","location":{"latitude":"51.595833","street":{"id":979126,"name":"On or near Pasteur Close"},"longitude":"-0.250929"},"context":"","outcome_status":{"category":"Status update unavailable","date":"2017-09"},"persistent_id":"1282a64da8d1794b2711ab67a13a8253b9ffe9e49d352352bed5b1c780f6e259","id":57108782,"location_subtype":"","month":"2017-05"},{"category":"other-theft","location_type":"Force","location":{"latitude":"51.595878","street":{"id":979001,"name":"On or near Boulevard Drive"},"longitude":"-0.241297"},"context":"","outcome_status":{"category":"Investigation complete; no suspect identified","date":"2017-07"},"persistent_id":"31ed427a6f19077c826ab722684c2df559e5cbae244f41e50f3c5be062092a5a","id":57118757,"location_subtype":"","month":"2017-05"},{"category":"other-theft","location_type":"Force","location":{"latitude":"51.605323","street":{"id":980845,"name":"On or near Linklea Close"},"longitude":"-0.248715"},"context":"","outcome_status":{"category":"Investigation complete; no suspect identified","date":"2017-05"},"persistent_id":"6694fd076427233b39f9ef69438a3694ce8906457ddad2a451c97b342bda9ae2","id":57068824,"location_subtype":"","month":"2017-05"},{"category":"other-theft","location_type":"Force","location":{"latitude":"51.598411","street":{"id":978993,"name":"On or near Further Acre"},"longitude":"-0.245314"},"context":"","outcome_status":{"category":"Investigation complete; no suspect identified","date":"2017-10"},"persistent_id":"1b474868f353b923a44cc4b3de67a7880c80caf1b6aad2940c0279b0c6c04715","id":57082678,"location_subtype":"","month":"2017-05"},{"category":"possession-of-weapons","location_type":"Force","location":{"latitude":"51.584634","street":{"id":974385,"name":"On or near Colin Drive"},"longitude":"-0.241673"},"context":"","outcome_status":{"category":"Investigation complete; no suspect identified","date":"2017-05"},"persistent_id":"2ef3ce7d78d808a7a2241d7300c10f7ac4dd59790c09b24dd96f825d7637233a","id":57083598,"location_subtype":"","month":"2017-05"},{"category":"possession-of-weapons","location_type":"Force","location":{"latitude":"51.603462","street":{"id":980843,"name":"On or near Parklea Close"},"longitude":"-0.248744"},"context":"","outcome_status":{"category":"Investigation complete; no suspect identified","date":"2017-05"},"persistent_id":"897b062c75956a0eba6aaf2236eb283aeadbaa38ee4bda1c3de33b150a55c4b7","id":57105762,"location_subtype":"","month":"2017-05"},{"category":"possession-of-weapons","location_type":"Force","location":{"latitude":"51.594125","street":{"id":979139,"name":"On or near Colindale Avenue"},"longitude":"-0.252178"},"context":"","outcome_status":{"category":"Investigation complete; no suspect identified","date":"2017-05"},"persistent_id":"690f274dce98d00b5e55033ae373b6c4959b2610b09773a3c2b0e28ceedb4020","id":57092895,"location_subtype":"","month":"2017-05"},{"category":"public-order","location_type":"Force","location":{"latitude":"51.597945","street":{"id":978999,"name":"On or near Cherry Close"},"longitude":"-0.246617"},"context":"","outcome_status":{"category":"Investigation complete; no suspect identified","date":"2017-05"},"persistent_id":"a3d1eae4a2d9247826c5c97a37aa2ee270138c96aef1cb74f20115223d015403","id":57117140,"location_subtype":"","month":"2017-05"},{"category":"public-order","location_type":"Force","location":{"latitude":"51.592841","street":{"id":979123,"name":"On or near Stonecrop Close"},"longitude":"-0.256515"},"context":"","outcome_status":{"category":"Investigation complete; no suspect identified","date":"2017-05"},"persistent_id":"6d1e4ad453ca1c61a02a9f5a019a3657e2829b8b7d2e4a655207983a5a394f75","id":57079672,"location_subtype":"","month":"2017-05"},{"category":"public-order","location_type":"Force","location":{"latitude":"51.593103","street":{"id":978980,"name":"On or near Rankin Close"},"longitude":"-0.248132"},"context":"","outcome_status":{"category":"Investigation complete; no suspect identified","date":"2017-06"},"persistent_id":"689d12ff518cfea58a9408d65b3f4c85bff9c6f6a0ea155205ce720a1ad40731","id":57090045,"location_subtype":"","month":"2017-05"},{"category":"public-order","location_type":"Force","location":{"latitude":"51.587333","street":{"id":979160,"name":"On or near Edgware Road The Hyde"},"longitude":"-0.251399"},"context":"","outcome_status":{"category":"Offender ordered to pay compensation","date":"2018-02"},"persistent_id":"d35a44ea4c7c998b6b76b55e41473d7b0fc0a35095dbbbb6d847d2b385ab23b7","id":57065563,"location_subtype":"","month":"2017-05"},{"category":"public-order","location_type":"Force","location":{"latitude":"51.596894","street":{"id":979007,"name":"On or near Police Station"},"longitude":"-0.241272"},"context":"","outcome_status":{"category":"Investigation complete; no suspect identified","date":"2017-10"},"persistent_id":"15086e1f5788262521809464ca31ff15abe6530f4371785ae3973cd66c495bd4","id":57108373,"location_subtype":"","month":"2017-05"},{"category":"public-order","location_type":"Force","location":{"latitude":"51.596894","street":{"id":979007,"name":"On or near Police Station"},"longitude":"-0.241272"},"context":"","outcome_status":{"category":"Court result unavailable","date":"2017-11"},"persistent_id":"b7798a4e8e545595f5fb3f71ba31007327f592382ec3894bd471876a01e9c644","id":57080192,"location_subtype":"","month":"2017-05"},{"category":"public-order","location_type":"Force","location":{"latitude":"51.605747","street":{"id":980831,"name":"On or near Dunn Mead"},"longitude":"-0.245811"},"context":"","outcome_status":{"category":"Investigation complete; no suspect identified","date":"2017-05"},"persistent_id":"3cbaa72ae08550e2a9de5aab66248201c0001483f456175c100b377516ab8c43","id":57087276,"location_subtype":"","month":"2017-05"},{"category":"public-order","location_type":"Force","location":{"latitude":"51.595833","street":{"id":979126,"name":"On or near Pasteur Close"},"longitude":"-0.250929"},"context":"","outcome_status":{"category":"Investigation complete; no suspect identified","date":"2017-07"},"persistent_id":"87652825dc099ed6804ffdae9847c92aec43e4d0cd21807ffe48ea023f2cf471","id":57077983,"location_subtype":"","month":"2017-05"},{"category":"public-order","location_type":"Force","location":{"latitude":"51.587333","street":{"id":979160,"name":"On or near Edgware Road The Hyde"},"longitude":"-0.251399"},"context":"","outcome_status":{"category":"Status update unavailable","date":"2017-09"},"persistent_id":"d35a44ea4c7c998b6b76b55e41473d7b0fc0a35095dbbbb6d847d2b385ab23b7","id":57065561,"location_subtype":"","month":"2017-05"},{"category":"public-order","location_type":"Force","location":{"latitude":"51.593103","street":{"id":978980,"name":"On or near Rankin Close"},"longitude":"-0.248132"},"context":"","outcome_status":{"category":"Investigation complete; no suspect identified","date":"2017-06"},"persistent_id":"fc60241830f47c277782e3fd89548eb8c357207fdffc97ce4ee2e819580177f1","id":57080263,"location_subtype":"","month":"2017-05"},{"category":"public-order","location_type":"Force","location":{"latitude":"51.587333","street":{"id":979160,"name":"On or near Edgware Road The Hyde"},"longitude":"-0.251399"},"context":"","outcome_status":{"category":"Status update unavailable","date":"2017-09"},"persistent_id":"d35a44ea4c7c998b6b76b55e41473d7b0fc0a35095dbbbb6d847d2b385ab23b7","id":57065562,"location_subtype":"","month":"2017-05"},{"category":"public-order","location_type":"Force","location":{"latitude":"51.596880","street":{"id":979002,"name":"On or near Belvedere Strand"},"longitude":"-0.245127"},"context":"","outcome_status":{"category":"Status update unavailable","date":"2017-09"},"persistent_id":"2adb89c991154b6d07fb2f1d565211d19c24029fe70c227225e80241a4d9b395","id":57105483,"location_subtype":"","month":"2017-05"},{"category":"public-order","location_type":"Force","location":{"latitude":"51.597876","street":{"id":978985,"name":"On or near Lower Strand"},"longitude":"-0.242591"},"context":"","outcome_status":{"category":"Investigation complete; no suspect identified","date":"2017-06"},"persistent_id":"873d33dd1e86fddda24fb625a23319c01cd14bee6e8e6538f8376390e56e3b56","id":57098403,"location_subtype":"","month":"2017-05"},{"category":"robbery","location_type":"Force","location":{"latitude":"51.595518","street":{"id":979064,"name":"On or near Parking Area"},"longitude":"-0.249699"},"context":"","outcome_status":{"category":"Status update unavailable","date":"2017-09"},"persistent_id":"0e79bcee0a382e5798494197b4147d3200ef2238b00585b9be6df4d9d2fa64cc","id":57115543,"location_subtype":"","month":"2017-05"},{"category":"robbery","location_type":"Force","location":{"latitude":"51.588886","street":{"id":978981,"name":"On or near Poolsford Road"},"longitude":"-0.248770"},"context":"","outcome_status":{"category":"Status update unavailable","date":"2017-09"},"persistent_id":"32291701ce22e5ed177b0c21c82764044bcaaa68483bb162fcfb4f9c7a75bea4","id":57118417,"location_subtype":"","month":"2017-05"},{"category":"robbery","location_type":"Force","location":{"latitude":"51.595518","street":{"id":979064,"name":"On or near Parking Area"},"longitude":"-0.249699"},"context":"","outcome_status":{"category":"Investigation complete; no suspect identified","date":"2017-06"},"persistent_id":"7beed48d1231b2e2734282586aabb27a0c809887874d68f654f9993e507321e1","id":57088755,"location_subtype":"","month":"2017-05"},{"category":"shoplifting","location_type":"Force","location":{"latitude":"51.596880","street":{"id":979002,"name":"On or near Belvedere Strand"},"longitude":"-0.245127"},"context":"","outcome_status":{"category":"Investigation complete; no suspect identified","date":"2017-06"},"persistent_id":"2adb89c991154b6d07fb2f1d565211d19c24029fe70c227225e80241a4d9b395","id":57106902,"location_subtype":"","month":"2017-05"},{"category":"shoplifting","location_type":"Force","location":{"latitude":"51.583450","street":{"id":974389,"name":"On or near Nightclub"},"longitude":"-0.247290"},"context":"","outcome_status":{"category":"Offender sent to prison","date":"2017-05"},"persistent_id":"1469d1ad8acc44f3a5ba1ae3fa13fb3ef0b645b0eaf8c9d30b9f6dd6083aa7f1","id":57084045,"location_subtype":"","month":"2017-05"},{"category":"shoplifting","location_type":"Force","location":{"latitude":"51.581790","street":{"id":974390,"name":"On or near Supermarket"},"longitude":"-0.243919"},"context":"","outcome_status":{"category":"Status update unavailable","date":"2017-09"},"persistent_id":"13ca0533bad5e5f000528aebf85d533d1329905cbf3a04eb2aeac6ceee0403dd","id":57120563,"location_subtype":"","month":"2017-05"},{"category":"shoplifting","location_type":"Force","location":{"latitude":"51.596880","street":{"id":979002,"name":"On or near Belvedere Strand"},"longitude":"-0.245127"},"context":"","outcome_status":{"category":"Status update unavailable","date":"2017-09"},"persistent_id":"4ff874033cd9451978145ab0a2b726767c3fbd64919a23b3a780799715bf84a7","id":57103141,"location_subtype":"","month":"2017-05"},{"category":"shoplifting","location_type":"Force","location":{"latitude":"51.594044","street":{"id":979003,"name":"On or near Sports\/recreation Area"},"longitude":"-0.248557"},"context":"","outcome_status":{"category":"Investigation complete; no suspect identified","date":"2017-05"},"persistent_id":"03f8595bf74fa3e7a807ca5eae1146573f58a83f2e738c68b40a90dbd9d3fdb4","id":57112798,"location_subtype":"","month":"2017-05"},{"category":"theft-from-the-person","location_type":"Force","location":{"latitude":"51.601783","street":{"id":980804,"name":"On or near Quakers Course"},"longitude":"-0.245891"},"context":"","outcome_status":{"category":"Status update unavailable","date":"2017-09"},"persistent_id":"c55286976847ba722394f8b86162b868b631f955b0e30da490d4eda919a76f54","id":57095054,"location_subtype":"","month":"2017-05"},{"category":"theft-from-the-person","location_type":"Force","location":{"latitude":"51.595518","street":{"id":979064,"name":"On or near Parking Area"},"longitude":"-0.249699"},"context":"","outcome_status":{"category":"Status update unavailable","date":"2017-09"},"persistent_id":"1d0657ff80bb6c18aa7464ad94ff9446050fbab4bb2f208df085c8b4dfb45a4f","id":57087543,"location_subtype":"","month":"2017-05"},{"category":"theft-from-the-person","location_type":"Force","location":{"latitude":"51.595518","street":{"id":979064,"name":"On or near Parking Area"},"longitude":"-0.249699"},"context":"","outcome_status":{"category":"Status update unavailable","date":"2017-09"},"persistent_id":"e9218079323c1380ef3e6b03f4f6e36941bbb883da0c8970977eb52ea50b3866","id":57116496,"location_subtype":"","month":"2017-05"},{"category":"vehicle-crime","location_type":"Force","location":{"latitude":"51.586456","street":{"id":974239,"name":"On or near Edgware Road The Hyde"},"longitude":"-0.250423"},"context":"","outcome_status":{"category":"Status update unavailable","date":"2017-09"},"persistent_id":"db90b4b2996b13db29f3619f5ece891f7343000299b8cb1035b80548d9094eee","id":57085772,"location_subtype":"","month":"2017-05"},{"category":"vehicle-crime","location_type":"Force","location":{"latitude":"51.605710","street":{"id":980825,"name":"On or near Lancaster Close"},"longitude":"-0.243300"},"context":"","outcome_status":{"category":"Investigation complete; no suspect identified","date":"2017-05"},"persistent_id":"0b28adfc8d921cba2276b8733583c1263ba8ab8399e1070beb4fc72dd0a90693","id":57065937,"location_subtype":"","month":"2017-05"},{"category":"vehicle-crime","location_type":"Force","location":{"latitude":"51.592070","street":{"id":923732,"name":"On or near Rowan Drive"},"longitude":"-0.238037"},"context":"","outcome_status":{"category":"Investigation complete; no suspect identified","date":"2017-06"},"persistent_id":"b69054a043d87f1bfb7b1f3667a097eb6bae51b7dcd379e21dc1656254905d9e","id":57101489,"location_subtype":"","month":"2017-05"},{"category":"vehicle-crime","location_type":"Force","location":{"latitude":"51.592841","street":{"id":979123,"name":"On or near Stonecrop Close"},"longitude":"-0.256515"},"context":"","outcome_status":{"category":"Status update unavailable","date":"2017-09"},"persistent_id":"ffcdcf5d759c57ab842993fc0441460758ef0676c597fb8297f1178f0e74edee","id":57093925,"location_subtype":"","month":"2017-05"},{"category":"vehicle-crime","location_type":"Force","location":{"latitude":"51.584739","street":{"id":974391,"name":"On or near Shopping Area"},"longitude":"-0.248064"},"context":"","outcome_status":{"category":"Investigation complete; no suspect identified","date":"2017-05"},"persistent_id":"92612ed9342b06d1e40a1f2de5b11a6abba92278651eadfc2d0ad0b192165385","id":57112899,"location_subtype":"","month":"2017-05"},{"category":"vehicle-crime","location_type":"Force","location":{"latitude":"51.587650","street":{"id":979058,"name":"On or near Rushgrove Avenue"},"longitude":"-0.244920"},"context":"","outcome_status":{"category":"Investigation complete; no suspect identified","date":"2017-05"},"persistent_id":"2081e40ba7fe2a107bea2fb3c5eca4563f46a1f8997c98d27934dd7980f79999","id":57053499,"location_subtype":"","month":"2017-05"},{"category":"vehicle-crime","location_type":"Force","location":{"latitude":"51.587845","street":{"id":979063,"name":"On or near Colin Crescent"},"longitude":"-0.240466"},"context":"","outcome_status":{"category":"Status update unavailable","date":"2017-09"},"persistent_id":"3f1a0acac98ba9ae3f06d53b56ac0add441032dbd44accd6389eb54e3403184a","id":57117462,"location_subtype":"","month":"2017-05"},{"category":"vehicle-crime","location_type":"Force","location":{"latitude":"51.590072","street":{"id":979132,"name":"On or near Hay Lane"},"longitude":"-0.254773"},"context":"","outcome_status":{"category":"Investigation complete; no suspect identified","date":"2017-05"},"persistent_id":"7060e8151851e0523c6865b614884d6f841ee14fb1bcc5a36f9bd19ed00f3831","id":57088141,"location_subtype":"","month":"2017-05"},{"category":"vehicle-crime","location_type":"Force","location":{"latitude":"51.598411","street":{"id":978993,"name":"On or near Further Acre"},"longitude":"-0.245314"},"context":"","outcome_status":{"category":"Status update unavailable","date":"2017-09"},"persistent_id":"e8c97afabee87b8c5e9edf110a5acc2b831dbe1f4c0bae54e9177b25b25c1def","id":57117654,"location_subtype":"","month":"2017-05"},{"category":"vehicle-crime","location_type":"Force","location":{"latitude":"51.598705","street":{"id":979119,"name":"On or near Turnstone Close"},"longitude":"-0.250544"},"context":"","outcome_status":{"category":"Status update unavailable","date":"2017-09"},"persistent_id":"fd329d9b2e1dcc77a5e811b46644e1d190d2be729db929c0dee7969a614bdeec","id":57075796,"location_subtype":"","month":"2017-05"},{"category":"violent-crime","location_type":"Force","location":{"latitude":"51.602171","street":{"id":980801,"name":"On or near Parking Area"},"longitude":"-0.245400"},"context":"","outcome_status":{"category":"Investigation complete; no suspect identified","date":"2017-08"},"persistent_id":"c866866aa67aac206c32f81695f626747c17f71403a594fed43843d92812adef","id":57103136,"location_subtype":"","month":"2017-05"},{"category":"violent-crime","location_type":"Force","location":{"latitude":"51.581790","street":{"id":974390,"name":"On or near Supermarket"},"longitude":"-0.243919"},"context":"","outcome_status":{"category":"Status update unavailable","date":"2017-09"},"persistent_id":"35a49b509835e6db5d08a6e668178bb934d3e3f3ca92f9e11eb442e106f60a3c","id":57077904,"location_subtype":"","month":"2017-05"},{"category":"violent-crime","location_type":"Force","location":{"latitude":"51.587333","street":{"id":979160,"name":"On or near Edgware Road The Hyde"},"longitude":"-0.251399"},"context":"","outcome_status":{"category":"Investigation complete; no suspect identified","date":"2017-10"},"persistent_id":"9ddc1b4e7e0a6135d73cabb30d718eb9b9432101ab1def86822b8e1ee2620be4","id":57062667,"location_subtype":"","month":"2017-05"},{"category":"violent-crime","location_type":"Force","location":{"latitude":"51.602539","street":{"id":980805,"name":"On or near Long Mead"},"longitude":"-0.244173"},"context":"","outcome_status":{"category":"Investigation complete; no suspect identified","date":"2017-10"},"persistent_id":"2e9b3497e7d51e7deade9d8e6ab1e5c8a9e8c678df2b97d3191f8eb192226025","id":57112001,"location_subtype":"","month":"2017-05"},{"category":"violent-crime","location_type":"Force","location":{"latitude":"51.596894","street":{"id":979007,"name":"On or near Police Station"},"longitude":"-0.241272"},"context":"","outcome_status":{"category":"Investigation complete; no suspect identified","date":"2018-01"},"persistent_id":"21380827da048aa4e4502de802a0f5f81bb5ad8de0ac874f324cfbebdbd03501","id":57116772,"location_subtype":"","month":"2017-05"},{"category":"violent-crime","location_type":"Force","location":{"latitude":"51.592841","street":{"id":979123,"name":"On or near Stonecrop Close"},"longitude":"-0.256515"},"context":"","outcome_status":{"category":"Investigation complete; no suspect identified","date":"2017-06"},"persistent_id":"d4ecb542c57f591107e4067b3e3a2cdc305f5a196086aaf17f39f604ef3f07d0","id":57092596,"location_subtype":"","month":"2017-05"},{"category":"violent-crime","location_type":"Force","location":{"latitude":"51.586456","street":{"id":974239,"name":"On or near Edgware Road The Hyde"},"longitude":"-0.250423"},"context":"","outcome_status":{"category":"Investigation complete; no suspect identified","date":"2017-06"},"persistent_id":"9b0eec7f15cc51628918b01b54e80dda1e9c4d36f2ba747817c6a196cceaf473","id":57099019,"location_subtype":"","month":"2017-05"},{"category":"violent-crime","location_type":"Force","location":{"latitude":"51.596999","street":{"id":978979,"name":"On or near Raven Close"},"longitude":"-0.247130"},"context":"","outcome_status":{"category":"Investigation complete; no suspect identified","date":"2017-06"},"persistent_id":"47e694c5e7b7b3d1df12d8fe3048ec03b049402486c0ba258e1827da6e97baa1","id":57100819,"location_subtype":"","month":"2017-05"},{"category":"violent-crime","location_type":"Force","location":{"latitude":"51.602171","street":{"id":980801,"name":"On or near Parking Area"},"longitude":"-0.245400"},"context":"","outcome_status":{"category":"Investigation complete; no suspect identified","date":"2017-06"},"persistent_id":"a1dedb1ac32835491c41baef029c8ecf674b161130b00f0103127edb34357d7b","id":57115128,"location_subtype":"","month":"2017-05"},{"category":"violent-crime","location_type":"Force","location":{"latitude":"51.605710","street":{"id":980825,"name":"On or near Lancaster Close"},"longitude":"-0.243300"},"context":"","outcome_status":{"category":"Investigation complete; no suspect identified","date":"2017-08"},"persistent_id":"ecdfc9f92f0b83931393f33bd1bdd8b0b85fcaf44b51e82b77ab9d9c1fbc1e3b","id":57115360,"location_subtype":"","month":"2017-05"},{"category":"violent-crime","location_type":"Force","location":{"latitude":"51.594044","street":{"id":979003,"name":"On or near Sports\/recreation Area"},"longitude":"-0.248557"},"context":"","outcome_status":{"category":"Investigation complete; no suspect identified","date":"2017-05"},"persistent_id":"6395e9332e926050ee2e0daf753a7c93cb9c45c15201e65fe94c30b3101677c3","id":57086739,"location_subtype":"","month":"2017-05"},{"category":"violent-crime","location_type":"Force","location":{"latitude":"51.595963","street":{"id":978989,"name":"On or near Heritage Avenue"},"longitude":"-0.242752"},"context":"","outcome_status":{"category":"Investigation complete; no suspect identified","date":"2018-02"},"persistent_id":"d56831fa20615b52f98319c9309e0f83cc40aff1f446fc606a58ec764e32498b","id":57105332,"location_subtype":"","month":"2017-05"},{"category":"violent-crime","location_type":"Force","location":{"latitude":"51.603739","street":{"id":980812,"name":"On or near Withers Mead"},"longitude":"-0.244430"},"context":"","outcome_status":{"category":"Investigation complete; no suspect identified","date":"2017-06"},"persistent_id":"14a9013ac92d838bf858a7a7f6048bc24c5b4f5a31243bfb45fa3672aba213fd","id":57095468,"location_subtype":"","month":"2017-05"},{"category":"violent-crime","location_type":"Force","location":{"latitude":"51.603462","street":{"id":980843,"name":"On or near Parklea Close"},"longitude":"-0.248744"},"context":"","outcome_status":{"category":"Investigation complete; no suspect identified","date":"2017-06"},"persistent_id":"6fb2c18a0ae3a8fec3f68e89e3296674fce1970e1b41ccea1b5245fb26ce53cf","id":57085163,"location_subtype":"","month":"2017-05"},{"category":"violent-crime","location_type":"Force","location":{"latitude":"51.602171","street":{"id":980801,"name":"On or near Parking Area"},"longitude":"-0.245400"},"context":"","outcome_status":{"category":"Offender given a caution","date":"2017-07"},"persistent_id":"15267be2e265f8a19c85987839169adb64b4981ef5b51be39a5109b32fa89969","id":57095765,"location_subtype":"","month":"2017-05"},{"category":"violent-crime","location_type":"Force","location":{"latitude":"51.596880","street":{"id":979002,"name":"On or near Belvedere Strand"},"longitude":"-0.245127"},"context":"","outcome_status":{"category":"Status update unavailable","date":"2017-09"},"persistent_id":"ca9c983064b2dded54f3b524263170ab9db1bc6970569966a0c8aa7e9666dfd9","id":57092402,"location_subtype":"","month":"2017-05"},{"category":"violent-crime","location_type":"Force","location":{"latitude":"51.595878","street":{"id":979001,"name":"On or near Boulevard Drive"},"longitude":"-0.241297"},"context":"","outcome_status":{"category":"Investigation complete; no suspect identified","date":"2017-05"},"persistent_id":"2216eda3784fd985d460ff9a8a8feb7d400eff421b4960d9de71205b67cb88f5","id":57088764,"location_subtype":"","month":"2017-05"},{"category":"violent-crime","location_type":"Force","location":{"latitude":"51.595505","street":{"id":979114,"name":"On or near Parking Area"},"longitude":"-0.250638"},"context":"","outcome_status":{"category":"Investigation complete; no suspect identified","date":"2017-06"},"persistent_id":"0f504c77525bbda1d4214cf612911504b89415601dc68e052ec47e8aaf392699","id":57115256,"location_subtype":"","month":"2017-05"},{"category":"violent-crime","location_type":"Force","location":{"latitude":"51.602801","street":{"id":980800,"name":"On or near Pedestrian Subway"},"longitude":"-0.244235"},"context":"","outcome_status":{"category":"Investigation complete; no suspect identified","date":"2017-05"},"persistent_id":"aa41497c6a611d7a6540ba988c2b1cbc4d9be39e465139ecfc1b66f8d7dd5964","id":57100234,"location_subtype":"","month":"2017-05"},{"category":"violent-crime","location_type":"Force","location":{"latitude":"51.600758","street":{"id":980852,"name":"On or near Near Acre"},"longitude":"-0.245296"},"context":"","outcome_status":{"category":"Investigation complete; no suspect identified","date":"2017-11"},"persistent_id":"ea80f548eb71f5eccb2a5fd1c9d9cf53516d4bb781f085226bd076cd58689bdb","id":57100464,"location_subtype":"","month":"2017-05"},{"category":"violent-crime","location_type":"Force","location":{"latitude":"51.603565","street":{"id":980826,"name":"On or near Great Field"},"longitude":"-0.247180"},"context":"","outcome_status":{"category":"Investigation complete; no suspect identified","date":"2017-08"},"persistent_id":"50cf2a5cc0cd8e159b0a8e2554ec7c3972552bd45f0c73b7acfbd42e23320a07","id":57087018,"location_subtype":"","month":"2017-05"},{"category":"violent-crime","location_type":"Force","location":{"latitude":"51.592785","street":{"id":979142,"name":"On or near Cecil Road"},"longitude":"-0.253933"},"context":"","outcome_status":{"category":"Offender given a caution","date":"2017-05"},"persistent_id":"fe9df06f3ede7e2d2f97cdb1a1a59254a20fa14ac98057491c7aae73a204bb8e","id":57101112,"location_subtype":"","month":"2017-05"},{"category":"violent-crime","location_type":"Force","location":{"latitude":"51.587644","street":{"id":979161,"name":"On or near Edgware Road The Hyde"},"longitude":"-0.251748"},"context":"","outcome_status":{"category":"Status update unavailable","date":"2017-09"},"persistent_id":"7bd0e6b12cc04eef9d33e54c2917e0f8a3e6e3d41243d9d1b9389494290ff2f5","id":57102162,"location_subtype":"","month":"2017-05"},{"category":"violent-crime","location_type":"Force","location":{"latitude":"51.592077","street":{"id":978982,"name":"On or near Peel Drive"},"longitude":"-0.240852"},"context":"","outcome_status":{"category":"Investigation complete; no suspect identified","date":"2017-10"},"persistent_id":"c335de4a2aebae8b6accfef01e4c72de488000b8df5077c70d6176bed9eaeb41","id":57102546,"location_subtype":"","month":"2017-05"},{"category":"violent-crime","location_type":"Force","location":{"latitude":"51.581790","street":{"id":974390,"name":"On or near Supermarket"},"longitude":"-0.243919"},"context":"","outcome_status":{"category":"Investigation complete; no suspect identified","date":"2017-06"},"persistent_id":"2258defdbcb415052a81f60c63d12ee8a24faf55be0abc0ea7063976c84a80b4","id":57070231,"location_subtype":"","month":"2017-05"},{"category":"violent-crime","location_type":"Force","location":{"latitude":"51.584739","street":{"id":974391,"name":"On or near Shopping Area"},"longitude":"-0.248064"},"context":"","outcome_status":{"category":"Investigation complete; no suspect identified","date":"2017-08"},"persistent_id":"5b06fbf9adceb018ca4d733a6a69d4fdd70bec298a55c8ad13a08e4178d9dd4e","id":57083997,"location_subtype":"","month":"2017-05"},{"category":"violent-crime","location_type":"Force","location":{"latitude":"51.597945","street":{"id":978999,"name":"On or near Cherry Close"},"longitude":"-0.246617"},"context":"","outcome_status":{"category":"Investigation complete; no suspect identified","date":"2017-06"},"persistent_id":"6b0aea2ae490090364b45a9df3e352ca7020fddbdc9482f6b78cad32f9633748","id":57102501,"location_subtype":"","month":"2017-05"},{"category":"violent-crime","location_type":"Force","location":{"latitude":"51.596894","street":{"id":979007,"name":"On or near Police Station"},"longitude":"-0.241272"},"context":"","outcome_status":{"category":"Status update unavailable","date":"2017-09"},"persistent_id":"69665e20160c8fcefb1c711ecea5a1ca7784ffc7ca461990520616a06cba4d41","id":57103498,"location_subtype":"","month":"2017-05"},{"category":"violent-crime","location_type":"Force","location":{"latitude":"51.596513","street":{"id":979000,"name":"On or near Chancellor Place"},"longitude":"-0.244694"},"context":"","outcome_status":{"category":"Court result unavailable","date":"2017-12"},"persistent_id":"b3133b39cb6d1ce0c717dba94edfcde458e7fc2be779582e8b795f97e48eed92","id":57105991,"location_subtype":"","month":"2017-05"},{"category":"violent-crime","location_type":"Force","location":{"latitude":"51.596894","street":{"id":979007,"name":"On or near Police Station"},"longitude":"-0.241272"},"context":"","outcome_status":{"category":"Court result unavailable","date":"2017-11"},"persistent_id":"be19147514dd43003a70662c769dba0ecb4f3298958c7d3a79be9de1e1a2049b","id":57083424,"location_subtype":"","month":"2017-05"},{"category":"violent-crime","location_type":"Force","location":{"latitude":"51.595878","street":{"id":979001,"name":"On or near Boulevard Drive"},"longitude":"-0.241297"},"context":"","outcome_status":{"category":"Investigation complete; no suspect identified","date":"2017-05"},"persistent_id":"15496539ddf4f26dc1643113afdf5142421b749964c30ec201b7101800e1e83f","id":57108511,"location_subtype":"","month":"2017-05"},{"category":"violent-crime","location_type":"Force","location":{"latitude":"51.585380","street":{"id":974384,"name":"On or near Deerfield Close"},"longitude":"-0.245830"},"context":"","outcome_status":{"category":"Investigation complete; no suspect identified","date":"2017-05"},"persistent_id":"da91773b44b2b520b0d4a13f23bb531bc353f5db8b77e7895de2202851149a15","id":57109300,"location_subtype":"","month":"2017-05"},{"category":"violent-crime","location_type":"Force","location":{"latitude":"51.595963","street":{"id":978989,"name":"On or near Heritage Avenue"},"longitude":"-0.242752"},"context":"","outcome_status":{"category":"Offender sent to prison","date":"2017-11"},"persistent_id":"65b553b6342f0f9c9c9037d0b4fce8c3ab557e6c6fa40f29db32712b73135518","id":57102238,"location_subtype":"","month":"2017-05"},{"category":"violent-crime","location_type":"Force","location":{"latitude":"51.595963","street":{"id":978989,"name":"On or near Heritage Avenue"},"longitude":"-0.242752"},"context":"","outcome_status":{"category":"Investigation complete; no suspect identified","date":"2017-06"},"persistent_id":"679bcdd127a4d8c31898de67c59cb6dbfc51f38ce052530744eee53a3d57edd6","id":57086441,"location_subtype":"","month":"2017-05"},{"category":"violent-crime","location_type":"Force","location":{"latitude":"51.595963","street":{"id":978989,"name":"On or near Heritage Avenue"},"longitude":"-0.242752"},"context":"","outcome_status":{"category":"Investigation complete; no suspect identified","date":"2017-10"},"persistent_id":"7dcdbeb8f823743ab06fff05311784d8e54809fd5e1ba88b23abfe8b88b6fddd","id":57119266,"location_subtype":"","month":"2017-05"},{"category":"violent-crime","location_type":"Force","location":{"latitude":"51.597945","street":{"id":978999,"name":"On or near Cherry Close"},"longitude":"-0.246617"},"context":"","outcome_status":{"category":"Status update unavailable","date":"2017-09"},"persistent_id":"1d010d8d9faf6b4b2e5fa83def04810eb0c0f88248b13dc4c5aab0de6b2729b7","id":57079788,"location_subtype":"","month":"2017-05"},{"category":"violent-crime","location_type":"Force","location":{"latitude":"51.587333","street":{"id":979160,"name":"On or near Edgware Road The Hyde"},"longitude":"-0.251399"},"context":"","outcome_status":{"category":"Investigation complete; no suspect identified","date":"2017-08"},"persistent_id":"95a16133fc6c92b82de3100ef3f39e0c923cb1a048b9aa78c208fd4f1f70ad89","id":57079193,"location_subtype":"","month":"2017-05"},{"category":"violent-crime","location_type":"Force","location":{"latitude":"51.600758","street":{"id":980852,"name":"On or near Near Acre"},"longitude":"-0.245296"},"context":"","outcome_status":{"category":"Investigation complete; no suspect identified","date":"2017-05"},"persistent_id":"6b86420fff7394af280174b89363ec1f8d358e7efcc37ff023699b159ba90847","id":57095042,"location_subtype":"","month":"2017-05"},{"category":"violent-crime","location_type":"Force","location":{"latitude":"51.594125","street":{"id":979139,"name":"On or near Colindale Avenue"},"longitude":"-0.252178"},"context":"","outcome_status":{"category":"Investigation complete; no suspect identified","date":"2017-05"},"persistent_id":"bba0107bf37afbeced80aa1a706cd336a79ffec0246ce46171695fa2bfba9899","id":57115254,"location_subtype":"","month":"2017-05"},{"category":"violent-crime","location_type":"Force","location":{"latitude":"51.581790","street":{"id":974390,"name":"On or near Supermarket"},"longitude":"-0.243919"},"context":"","outcome_status":{"category":"Investigation complete; no suspect identified","date":"2017-06"},"persistent_id":"35a49b509835e6db5d08a6e668178bb934d3e3f3ca92f9e11eb442e106f60a3c","id":57077905,"location_subtype":"","month":"2017-05"},{"category":"violent-crime","location_type":"Force","location":{"latitude":"51.601783","street":{"id":980804,"name":"On or near Quakers Course"},"longitude":"-0.245891"},"context":"","outcome_status":{"category":"Investigation complete; no suspect identified","date":"2017-07"},"persistent_id":"5efd23cde5850dd925cacc2c8c7d3f361646b09e09c54e7d45f1e61ad46d9511","id":57077619,"location_subtype":"","month":"2017-05"},{"category":"violent-crime","location_type":"Force","location":{"latitude":"51.598365","street":{"id":979121,"name":"On or near Swan Drive"},"longitude":"-0.250687"},"context":"","outcome_status":{"category":"Offender given a caution","date":"2017-07"},"persistent_id":"86afac9a0c687192c29a918100690856e69f7d84a73bd9ff4e75260e801f2b5a","id":57114735,"location_subtype":"","month":"2017-05"},{"category":"violent-crime","location_type":"Force","location":{"latitude":"51.596880","street":{"id":979002,"name":"On or near Belvedere Strand"},"longitude":"-0.245127"},"context":"","outcome_status":{"category":"Investigation complete; no suspect identified","date":"2017-07"},"persistent_id":"7985be6c312c06c668e4dbac096f71f9501c9a16b25d5af1ca1aae8358eeead5","id":57071451,"location_subtype":"","month":"2017-05"},{"category":"violent-crime","location_type":"Force","location":{"latitude":"51.587333","street":{"id":979160,"name":"On or near Edgware Road The Hyde"},"longitude":"-0.251399"},"context":"","outcome_status":{"category":"Status update unavailable","date":"2017-09"},"persistent_id":"9ddc1b4e7e0a6135d73cabb30d718eb9b9432101ab1def86822b8e1ee2620be4","id":57062666,"location_subtype":"","month":"2017-05"},{"category":"violent-crime","location_type":"Force","location":{"latitude":"51.587333","street":{"id":979160,"name":"On or near Edgware Road The Hyde"},"longitude":"-0.251399"},"context":"","outcome_status":{"category":"Status update unavailable","date":"2017-09"},"persistent_id":"9ddc1b4e7e0a6135d73cabb30d718eb9b9432101ab1def86822b8e1ee2620be4","id":57062010,"location_subtype":"","month":"2017-05"},{"category":"violent-crime","location_type":"Force","location":{"latitude":"51.591613","street":{"id":978983,"name":"On or near Marlow Court"},"longitude":"-0.247135"},"context":"","outcome_status":{"category":"Investigation complete; no suspect identified","date":"2017-05"},"persistent_id":"826eb38a84d4e877dab75f8a4aa913ed6c9463907229f536c765c3776d5e91a7","id":57081973,"location_subtype":"","month":"2017-05"},{"category":"violent-crime","location_type":"Force","location":{"latitude":"51.605323","street":{"id":980845,"name":"On or near Linklea Close"},"longitude":"-0.248715"},"context":"","outcome_status":{"category":"Offender given a caution","date":"2017-05"},"persistent_id":"ffc860198c063fe8dd338e8e05801c9b0406f86b4b5ed0aef987b459c1e3f5a7","id":57088038,"location_subtype":"","month":"2017-05"},{"category":"violent-crime","location_type":"Force","location":{"latitude":"51.597876","street":{"id":978985,"name":"On or near Lower Strand"},"longitude":"-0.242591"},"context":"","outcome_status":{"category":"Investigation complete; no suspect identified","date":"2017-09"},"persistent_id":"caf8387e1d2da667f975caa6ec33b69cdb9426f030a2097e8f204e8b1d97e435","id":57090699,"location_subtype":"","month":"2017-05"},{"category":"violent-crime","location_type":"Force","location":{"latitude":"51.603739","street":{"id":980812,"name":"On or near Withers Mead"},"longitude":"-0.244430"},"context":"","outcome_status":{"category":"Investigation complete; no suspect identified","date":"2017-05"},"persistent_id":"990f16a393a1d9c9d8c7992b796ef0765cb5cff60031a2575a621ee40a5ee4b4","id":57093396,"location_subtype":"","month":"2017-05"},{"category":"violent-crime","location_type":"Force","location":{"latitude":"51.594044","street":{"id":979003,"name":"On or near Sports\/recreation Area"},"longitude":"-0.248557"},"context":"","outcome_status":{"category":"Status update unavailable","date":"2017-09"},"persistent_id":"bb784d2f90673d8f7f4533ad41a3137b0c2cbbae11f294be53260029ad469b72","id":57058941,"location_subtype":"","month":"2017-05"},{"category":"violent-crime","location_type":"Force","location":{"latitude":"51.590644","street":{"id":978977,"name":"On or near Sheaveshill Avenue"},"longitude":"-0.248443"},"context":"","outcome_status":{"category":"Investigation complete; no suspect identified","date":"2017-05"},"persistent_id":"378816cf0cc371f0dd8a5b518fd88ebc4f28bc56c043a637d03a80531f0df645","id":57115017,"location_subtype":"","month":"2017-05"},{"category":"violent-crime","location_type":"Force","location":{"latitude":"51.591153","street":{"id":979128,"name":"On or near Manor Way"},"longitude":"-0.252436"},"context":"","outcome_status":{"category":"Investigation complete; no suspect identified","date":"2017-07"},"persistent_id":"6dfd93705147cd1fe0e5dd9139462a84bd69127c7e2e85e2c88579254663a1bf","id":57112380,"location_subtype":"","month":"2017-05"},{"category":"violent-crime","location_type":"Force","location":{"latitude":"51.599028","street":{"id":978986,"name":"On or near Little Strand"},"longitude":"-0.242662"},"context":"","outcome_status":{"category":"Investigation complete; no suspect identified","date":"2017-07"},"persistent_id":"460128ff4a0c6fd5381811d52f5027b7624262b195e13239bb8fa60302c8e062","id":57084614,"location_subtype":"","month":"2017-05"},{"category":"violent-crime","location_type":"Force","location":{"latitude":"51.602801","street":{"id":980800,"name":"On or near Pedestrian Subway"},"longitude":"-0.244235"},"context":"","outcome_status":{"category":"Investigation complete; no suspect identified","date":"2017-07"},"persistent_id":"6c4cc28767abbabc6d9065659ad82dc9a0ab67a33c1a832cf5ce1893e719cb78","id":57085880,"location_subtype":"","month":"2017-05"},{"category":"other-crime","location_type":"Force","location":{"latitude":"51.595518","street":{"id":979064,"name":"On or near Parking Area"},"longitude":"-0.249699"},"context":"","outcome_status":{"category":"Offender sent to prison","date":"2017-06"},"persistent_id":"51575a74af6f0d8a345193b04765ff011fd3528fa3ee808d80d8a61d343040f3","id":57077924,"location_subtype":"","month":"2017-05"},{"category":"other-crime","location_type":"Force","location":{"latitude":"51.581790","street":{"id":974390,"name":"On or near Supermarket"},"longitude":"-0.243919"},"context":"","outcome_status":{"category":"Investigation complete; no suspect identified","date":"2017-07"},"persistent_id":"4f1866ccd1b539716a0786be98f7fbb9c20398c7714936e9daaf4fed5c6bd7bd","id":57107767,"location_subtype":"","month":"2017-05"}]