[{"category":"anti-social-behaviour","location_type":"Force","location":{"latitude":"51.563900","street":{"id":972052,"name":"On or near A1201"},"longitude":"-0.105436"},"context":"","outcome_status":null,"persistent_id":"","id":57043203,"location_subtype":"","month":"2017-05"},{"category":"anti-social-behaviour","location_type":"Force","location":{"latitude":"51.554963","street":{"id":968420,"name":"On or near Highbury Park"},"longitude":"-0.098306"},"context":"","outcome_status":null,"persistent_id":"","id":57043068,"location_subtype":"","month":"2017-05"},{"category":"anti-social-behaviour","location_type":"Force","location":{"latitude":"51.563900","street":{"id":972052,"name":"On or near A1201"},"longitude":"-0.105436"},"context":"","outcome_status":null,"persistent_id":"","id":57043187,"location_subtype":"","month":"2017-05"},{"category":"anti-social-behaviour","location_type":"Force","location":{"latitude":"51.563900","street":{"id":972052,"name":"On or near A1201"},"longitude":"-0.105436"},"context":"","outcome_status":null,"persistent_id":"","id":57043190,"location_subtype":"","month":"2017-05"},{"category":"anti-social-behaviour","location_type":"Force","location":{"latitude":"51.561321","street":{"id":972020,"name":"On or near St Thomas's Road"},"longitude":"-0.105009"},"context":"","outcome_status":null,"persistent_id":"","id":57043192,"location_subtype":"","month":"2017-05"},{"category":"anti-social-behaviour","location_type":"Force","location":{"latitude":"51.563900","street":{"id":972052,"name":"On or near A1201"},"longitude":"-0.105436"},"context":"","outcome_status":null,"persistent_id":"","id":57043194,"location_subtype":"","month":"2017-05"},{"category":"anti-social-behaviour","location_type":"Force","location":{"latitude":"51.563900","street":{"id":972052,"name":"On or near A1201"},"longitude":"-0.105436"},"context":"","outcome_status":null,"persistent_id":"","id":57043195,"location_subtype":"","month":"2017-05"},{"category":"anti-social-behaviour","location_type":"Force","location":{"latitude":"51.563900","street":{"id":972052,"name":"On or near A1201"},"longitude":"-0.105436"},"context":"","outcome_status":null,"persistent_id":"","id":57043196,"location_subtype":"","month":"2017-05"},{"category":"anti-social-behaviour","location_type":"Force","location":{"latitude":"51.563900","street":{"id":972052,"name":"On or near A1201"},"longitude":"-0.105436"},"context":"","outcome_status":null,"persistent_id":"","id":57043197,"location_subtype":"","month":"2017-05"},{"category":"anti-social-behaviour","location_type":"Force","location":{"latitude":"51.563900","street":{"id":972052,"name":"On or near A1201"},"longitude":"-0.105436"},"context":"","outcome_status":null,"persistent_id":"","id":57043198,"location_subtype":"","month":"2017-05"},{"category":"anti-social-behaviour","location_type":"Force","location":{"latitude":"51.563900","street":{"id":972052,"name":"On or near A1201"},"longitude":"-0.105436"},"context":"","outcome_status":null,"persistent_id":"","id":57043199,"location_subtype":"","month":"2017-05"},{"category":"anti-social-behaviour","location_type":"Force","location":{"latitude":"51.563900","street":{"id":972052,"name":"On or near A1201"},"longitude":"-0.105436"},"context":"","outcome_status":null,"persistent_id":"","id":57043200,"location_subtype":"","month":"2017-05"},{"category":"anti-social-behaviour","location_type":"Force","location":{"latitude":"51.563900","street":{"id":972052,"name":"On or near A1201"},"longitude":"-0.105436"},"context":"","outcome_status":null,"persistent_id":"","id":57043201,"location_subtype":"","month":"2017-05"},{"category":"anti-social-behaviour","location_type":"Force","location":{"latitude":"51.563900","street":{"id":972052,"name":"On or near A1201"},"longitude":"-0.105436"},"context":"","outcome_status":null,"persistent_id":"","id":57043202,"location_subtype":"","month":"2017-05"},{"category":"anti-social-behaviour","location_type":"Force","location":{"latitude":"51.563900","street":{"id":972052,"name":"On or near A1201"},"longitude":"-0.105436"},"context":"","outcome_status":null,"persistent_id":"","id":57043204,"location_subtype":"","month":"2017-05"},{"category":"anti-social-behaviour","location_type":"Force","location":{"latitude":"51.559780","street":{"id":972082,"name":"On or near Tannington Terrace"},"longitude":"-0.104828"},"context":"","outcome_status":null,"persistent_id":"","id":57043205,"location_subtype":"","month":"2017-05"},{"category":"anti-social-behaviour","location_type":"Force","location":{"latitude":"51.557554","street":{"id":968413,"name":"On or near Legard Road"},"longitude":"-0.098977"},"context":"","outcome_status":null,"persistent_id":"","id":57043078,"location_subtype":"","month":"2017-05"},{"category":"anti-social-behaviour","location_type":"Force","location":{"latitude":"51.560851","street":{"id":971859,"name":"On or near Chatterton Mews"},"longitude":"-0.099287"},"context":"","outcome_status":null,"persistent_id":"","id":57043081,"location_subtype":"","month":"2017-05"},{"category":"anti-social-behaviour","location_type":"Force","location":{"latitude":"51.560851","street":{"id":971859,"name":"On or near Chatterton Mews"},"longitude":"-0.099287"},"context":"","outcome_status":null,"persistent_id":"","id":57043082,"location_subtype":"","month":"2017-05"},{"category":"anti-social-behaviour","location_type":"Force","location":{"latitude":"51.559533","street":{"id":971930,"name":"On or near Hurlock Street"},"longitude":"-0.099544"},"context":"","outcome_status":null,"persistent_id":"","id":57043095,"location_subtype":"","month":"2017-05"},{"category":"anti-social-behaviour","location_type":"Force","location":{"latitude":"51.553959","street":{"id":968406,"name":"On or near Roseleigh Avenue"},"longitude":"-0.100209"},"context":"","outcome_status":null,"persistent_id":"","id":57043104,"location_subtype":"","month":"2017-05"},{"category":"anti-social-behaviour","location_type":"Force","location":{"latitude":"51.553959","street":{"id":968406,"name":"On or near Roseleigh Avenue"},"longitude":"-0.100209"},"context":"","outcome_status":null,"persistent_id":"","id":57043105,"location_subtype":"","month":"2017-05"},{"category":"anti-social-behaviour","location_type":"Force","location":{"latitude":"51.558639","street":{"id":971929,"name":"On or near Elwood Street"},"longitude":"-0.100432"},"context":"","outcome_status":null,"persistent_id":"","id":57043106,"location_subtype":"","month":"2017-05"},{"category":"anti-social-behaviour","location_type":"Force","location":{"latitude":"51.557317","street":{"id":968429,"name":"On or near Elphinstone Street"},"longitude":"-0.100978"},"context":"","outcome_status":null,"persistent_id":"","id":57043107,"location_subtype":"","month":"2017-05"},{"category":"anti-social-behaviour","location_type":"Force","location":{"latitude":"51.555473","street":{"id":968203,"name":"On or near Highbury Hill"},"longitude":"-0.103175"},"context":"","outcome_status":null,"persistent_id":"","id":57043157,"location_subtype":"","month":"2017-05"},{"category":"anti-social-behaviour","location_type":"Force","location":{"latitude":"51.554674","street":{"id":968271,"name":"On or near Holloway Road"},"longitude":"-0.114965"},"context":"","outcome_status":null,"persistent_id":"","id":57044138,"location_subtype":"","month":"2017-05"},{"category":"anti-social-behaviour","location_type":"Force","location":{"latitude":"51.556481","street":{"id":968252,"name":"On or near Parking Area"},"longitude":"-0.114905"},"context":"","outcome_status":null,"persistent_id":"","id":57044140,"location_subtype":"","month":"2017-05"},{"category":"anti-social-behaviour","location_type":"Force","location":{"latitude":"51.555848","street":{"id":968176,"name":"On or near Loraine Road"},"longitude":"-0.114743"},"context":"","outcome_status":null,"persistent_id":"","id":57044142,"location_subtype":"","month":"2017-05"},{"category":"anti-social-behaviour","location_type":"Force","location":{"latitude":"51.554674","street":{"id":968271,"name":"On or near Holloway Road"},"longitude":"-0.114965"},"context":"","outcome_status":null,"persistent_id":"","id":57044143,"location_subtype":"","month":"2017-05"},{"category":"anti-social-behaviour","location_type":"Force","location":{"latitude":"51.554291","street":{"id":968224,"name":"On or near Sports\/recreation Area"},"longitude":"-0.108475"},"context":"","outcome_status":null,"persistent_id":"","id":57044039,"location_subtype":"","month":"2017-05"},{"category":"anti-social-behaviour","location_type":"Force","location":{"latitude":"51.552690","street":{"id":968219,"name":"On or near Benwell Road"},"longitude":"-0.109594"},"context":"","outcome_status":null,"persistent_id":"","id":57044054,"location_subtype":"","month":"2017-05"},{"category":"anti-social-behaviour","location_type":"Force","location":{"latitude":"51.552690","street":{"id":968219,"name":"On or near Benwell Road"},"longitude":"-0.109594"},"context":"","outcome_status":null,"persistent_id":"","id":57044055,"location_subtype":"","month":"2017-05"},{"category":"anti-social-behaviour","location_type":"Force","location":{"latitude":"51.554291","street":{"id":968224,"name":"On or near Sports\/recreation Area"},"longitude":"-0.108475"},"context":"","outcome_status":null,"persistent_id":"","id":57044070,"location_subtype":"","month":"2017-05"},{"category":"anti-social-behaviour","location_type":"Force","location":{"latitude":"51.558130","street":{"id":972085,"name":"On or near Rixon Street"},"longitude":"-0.110119"},"context":"","outcome_status":null,"persistent_id":"","id":57044076,"location_subtype":"","month":"2017-05"},{"category":"anti-social-behaviour","location_type":"Force","location":{"latitude":"51.552506","street":{"id":968187,"name":"On or near Slaney Place"},"longitude":"-0.111578"},"context":"","outcome_status":null,"persistent_id":"","id":57044094,"location_subtype":"","month":"2017-05"},{"category":"anti-social-behaviour","location_type":"Force","location":{"latitude":"51.552506","street":{"id":968187,"name":"On or near Slaney Place"},"longitude":"-0.111578"},"context":"","outcome_status":null,"persistent_id":"","id":57044095,"location_subtype":"","month":"2017-05"},{"category":"anti-social-behaviour","location_type":"Force","location":{"latitude":"51.552506","street":{"id":968187,"name":"On or near Slaney Place"},"longitude":"-0.111578"},"context":"","outcome_status":null,"persistent_id":"","id":57044096,"location_subtype":"","month":"2017-05"},{"category":"anti-social-behaviour","location_type":"Force","location":{"latitude":"51.552506","street":{"id":968187,"name":"On or near Slaney Place"},"longitude":"-0.111578"},"context":"","outcome_status":null,"persistent_id":"","id":57044097,"location_subtype":"","month":"2017-05"},{"category":"anti-social-behaviour","location_type":"Force","location":{"latitude":"51.552506","street":{"id":968187,"name":"On or near Slaney Place"},"longitude":"-0.111578"},"context":"","outcome_status":null,"persistent_id":"","id":57044098,"location_subtype":"","month":"2017-05"},{"category":"anti-social-behaviour","location_type":"Force","location":{"latitude":"51.552506","street":{"id":968187,"name":"On or near Slaney Place"},"longitude":"-0.111578"},"context":"","outcome_status":null,"persistent_id":"","id":57044099,"location_subtype":"","month":"2017-05"},{"category":"anti-social-behaviour","location_type":"Force","location":{"latitude":"51.552506","street":{"id":968187,"name":"On or near Slaney Place"},"longitude":"-0.111578"},"context":"","outcome_status":null,"persistent_id":"","id":57044100,"location_subtype":"","month":"2017-05"},{"category":"anti-social-behaviour","location_type":"Force","location":{"latitude":"51.553385","street":{"id":968201,"name":"On or near Holloway Road"},"longitude":"-0.113100"},"context":"","outcome_status":null,"persistent_id":"","id":57044110,"location_subtype":"","month":"2017-05"},{"category":"anti-social-behaviour","location_type":"Force","location":{"latitude":"51.556828","street":{"id":968189,"name":"On or near Shelburne Road"},"longitude":"-0.113000"},"context":"","outcome_status":null,"persistent_id":"","id":57044118,"location_subtype":"","month":"2017-05"},{"category":"anti-social-behaviour","location_type":"Force","location":{"latitude":"51.553669","street":{"id":968207,"name":"On or near Emily Place"},"longitude":"-0.107289"},"context":"","outcome_status":null,"persistent_id":"","id":57044032,"location_subtype":"","month":"2017-05"},{"category":"anti-social-behaviour","location_type":"Force","location":{"latitude":"51.553669","street":{"id":968207,"name":"On or near Emily Place"},"longitude":"-0.107289"},"context":"","outcome_status":null,"persistent_id":"","id":57044033,"location_subtype":"","month":"2017-05"},{"category":"anti-social-behaviour","location_type":"Force","location":{"latitude":"51.563589","street":{"id":972048,"name":"On or near Blackstock Road"},"longitude":"-0.102895"},"context":"","outcome_status":null,"persistent_id":"","id":57046870,"location_subtype":"","month":"2017-05"},{"category":"anti-social-behaviour","location_type":"Force","location":{"latitude":"51.563589","street":{"id":972048,"name":"On or near Blackstock Road"},"longitude":"-0.102895"},"context":"","outcome_status":null,"persistent_id":"","id":57046871,"location_subtype":"","month":"2017-05"},{"category":"bicycle-theft","location_type":"Force","location":{"latitude":"51.552582","street":{"id":968213,"name":"On or near Courtney Road"},"longitude":"-0.108488"},"context":"","outcome_status":{"category":"Status update unavailable","date":"2017-09"},"persistent_id":"77ea136340470dfb2f0b9439cf3078f8a75e0315822d2119e566767c6a7b8364","id":57099755,"location_subtype":"","month":"2017-05"},{"category":"bicycle-theft","location_type":"Force","location":{"latitude":"51.559375","street":{"id":971932,"name":"On or near Gillespie Road"},"longitude":"-0.102537"},"context":"","outcome_status":{"category":"Status update unavailable","date":"2017-09"},"persistent_id":"c831cf19ea10135a881c9370cdac8aad3ccce0f849a70b9d7e5d8535980ed0e3","id":57098367,"location_subtype":"","month":"2017-05"},{"category":"bicycle-theft","location_type":"Force","location":{"latitude":"51.560851","street":{"id":971859,"name":"On or near Chatterton Mews"},"longitude":"-0.099287"},"context":"","outcome_status":{"category":"Status update unavailable","date":"2017-09"},"persistent_id":"c2a281ffd3ce687732e315463645aa89f1bccc7e3bb58e1aab70d7a85eb6a57e","id":57101199,"location_subtype":"","month":"2017-05"},{"category":"bicycle-theft","location_type":"Force","location":{"latitude":"51.556828","street":{"id":968189,"name":"On or near Shelburne Road"},"longitude":"-0.113000"},"context":"","outcome_status":{"category":"Status update unavailable","date":"2017-09"},"persistent_id":"cf371f64479cefa4406cab515cabb10cb71cf244d8a517fbe94aaa3e90ed2a4e","id":57067066,"location_subtype":"","month":"2017-05"},{"category":"bicycle-theft","location_type":"Force","location":{"latitude":"51.555848","street":{"id":968176,"name":"On or near Loraine Road"},"longitude":"-0.114743"},"context":"","outcome_status":{"category":"Status update unavailable","date":"2017-09"},"persistent_id":"7a9956a40b93cc5c3218a267030c9009bc2fa949de799b3a5ab69de11c729157","id":57112871,"location_subtype":"","month":"2017-05"},{"category":"burglary","location_type":"Force","location":{"latitude":"51.559533","street":{"id":971930,"name":"On or near Hurlock Street"},"longitude":"-0.099544"},"context":"","outcome_status":{"category":"Status update unavailable","date":"2017-09"},"persistent_id":"2d2b20116259cda5bee56d92ca679bb6807c62a08a761ecf83f567fc9580f204","id":57075511,"location_subtype":"","month":"2017-05"},{"category":"burglary","location_type":"Force","location":{"latitude":"51.554291","street":{"id":968224,"name":"On or near Sports\/recreation Area"},"longitude":"-0.108475"},"context":"","outcome_status":{"category":"Status update unavailable","date":"2017-09"},"persistent_id":"d08938df7b211cc5bfbd9dfd998ace6f39c3021cf5518871aa718cd76f239819","id":57094821,"location_subtype":"","month":"2017-05"},{"category":"burglary","location_type":"Force","location":{"latitude":"51.556331","street":{"id":968411,"name":"On or near Lucerne Road"},"longitude":"-0.099490"},"context":"","outcome_status":{"category":"Defendant found not guilty","date":"2017-08"},"persistent_id":"8ccfc6f55229e29302979ad0198218ba53957309bc20204087f439f8cd05aa30","id":57068172,"location_subtype":"","month":"2017-05"},{"category":"burglary","location_type":"Force","location":{"latitude":"51.551819","street":{"id":968229,"name":"On or near Further\/higher Educational Building"},"longitude":"-0.110236"},"context":"","outcome_status":{"category":"Investigation complete; no suspect identified","date":"2017-06"},"persistent_id":"4bd166582117a311ff5dfd1e7f3a377b008b1b6c98f19a08af83e21c9ee2c675","id":57075278,"location_subtype":"","month":"2017-05"},{"category":"burglary","location_type":"Force","location":{"latitude":"51.553385","street":{"id":968201,"name":"On or near Holloway Road"},"longitude":"-0.113100"},"context":"","outcome_status":{"category":"Investigation complete; no suspect identified","date":"2017-08"},"persistent_id":"da4e425908e9265b04ab33682be19918fccfebe32e0f046f1e70973ccff67e6e","id":57074394,"location_subtype":"","month":"2017-05"},{"category":"burglary","location_type":"Force","location":{"latitude":"51.561321","street":{"id":972020,"name":"On or near St Thomas's Road"},"longitude":"-0.105009"},"context":"","outcome_status":{"category":"Investigation complete; no suspect identified","date":"2018-02"},"persistent_id":"1a05b0fff21d4a18d7e6c2322639f42523fde32904a0fdcf328a1a7b8eee2b23","id":57112399,"location_subtype":"","month":"2017-05"},{"category":"burglary","location_type":"Force","location":{"latitude":"51.557317","street":{"id":968429,"name":"On or near Elphinstone Street"},"longitude":"-0.100978"},"context":"","outcome_status":{"category":"Status update unavailable","date":"2017-09"},"persistent_id":"56a1aaaeed162d8640dff501c3d9e2ec2dd708c0039180b49010fc8fbb0e98a5","id":57078033,"location_subtype":"","month":"2017-05"},{"category":"burglary","location_type":"Force","location":{"latitude":"51.564009","street":{"id":972025,"name":"On or near Rock Street"},"longitude":"-0.104421"},"context":"","outcome_status":{"category":"Investigation complete; no suspect identified","date":"2017-05"},"persistent_id":"fe054024aba710b1c4dd3abd40012dd39b3b23b80b35d6643ff36ba05e21ee3d","id":57069698,"location_subtype":"","month":"2017-05"},{"category":"burglary","location_type":"Force","location":{"latitude":"51.554291","street":{"id":968224,"name":"On or near Sports\/recreation Area"},"longitude":"-0.108475"},"context":"","outcome_status":{"category":"Investigation complete; no suspect identified","date":"2017-06"},"persistent_id":"7de1d8330a73a28cb20fa9cfe155a220855ac1b2c3541456ece6a3af2c086d67","id":57054307,"location_subtype":"","month":"2017-05"},{"category":"burglary","location_type":"Force","location":{"latitude":"51.552690","street":{"id":968219,"name":"On or near Benwell Road"},"longitude":"-0.109594"},"context":"","outcome_status":{"category":"Investigation complete; no suspect identified","date":"2017-06"},"persistent_id":"4dd1762da1c550385d86f3d747022f7ffa7fe3909d0926d3cf698ef0b93abe0e","id":57117156,"location_subtype":"","month":"2017-05"},{"category":"burglary","location_type":"Force","location":{"latitude":"51.558130","street":{"id":972085,"name":"On or near Rixon Street"},"longitude":"-0.110119"},"context":"","outcome_status":{"category":"Status update unavailable","date":"2017-09"},"persistent_id":"004220a92eb985853a28caad3fc03168c3658459e3335be5b09da6f14c521c39","id":57115722,"location_subtype":"","month":"2017-05"},{"category":"burglary","location_type":"Force","location":{"latitude":"51.554291","street":{"id":968224,"name":"On or near Sports\/recreation Area"},"longitude":"-0.108475"},"context":"","outcome_status":{"category":"Investigation complete; no suspect identified","date":"2017-07"},"persistent_id":"8106e31ca1a5207d98d8462bd10464841421e727d8adf9940fb45a046e110063","id":57111447,"location_subtype":"","month":"2017-05"},{"category":"burglary","location_type":"Force","location":{"latitude":"51.552690","street":{"id":968219,"name":"On or near Benwell Road"},"longitude":"-0.109594"},"context":"","outcome_status":{"category":"Status update unavailable","date":"2017-09"},"persistent_id":"315ce3615e6a6815bee7ff7682353a4e93fae07f7900212a517deb7baee5356f","id":57087249,"location_subtype":"","month":"2017-05"},{"category":"burglary","location_type":"Force","location":{"latitude":"51.558130","street":{"id":972085,"name":"On or near Rixon Street"},"longitude":"-0.110119"},"context":"","outcome_status":{"category":"Status update unavailable","date":"2017-09"},"persistent_id":"7728efb648e2cdb6e8ec0e700c488470e04a198652eb6f97c5b3bd6e10191b1d","id":57064603,"location_subtype":"","month":"2017-05"},{"category":"burglary","location_type":"Force","location":{"latitude":"51.561783","street":{"id":971838,"name":"On or near Vivian Comma Close"},"longitude":"-0.100215"},"context":"","outcome_status":{"category":"Status update unavailable","date":"2017-09"},"persistent_id":"4a4c6d0f06d88b7f91616743fc9834bf119c57868db7111e83ec8b80d514ed6a","id":57098520,"location_subtype":"","month":"2017-05"},{"category":"criminal-damage-arson","location_type":"Force","location":{"latitude":"51.564352","street":{"id":972024,"name":"On or near Rock Street"},"longitude":"-0.103931"},"context":"","outcome_status":{"category":"Status update unavailable","date":"2017-09"},"persistent_id":"71d1e51def9930f1de5369a938d94b9b48d97f33e04112f793d23f2068c7c1df","id":57062396,"location_subtype":"","month":"2017-05"},{"category":"criminal-damage-arson","location_type":"Force","location":{"latitude":"51.562767","street":{"id":972027,"name":"On or near Prah Road"},"longitude":"-0.104372"},"context":"","outcome_status":{"category":"Status update unavailable","date":"2017-09"},"persistent_id":"2b30ffb52b67e1d0006a04ffc792c6ae5a8c5bdc0eaad78a2ce980f198b65188","id":57113941,"location_subtype":"","month":"2017-05"},{"category":"criminal-damage-arson","location_type":"Force","location":{"latitude":"51.552690","street":{"id":968219,"name":"On or near Benwell Road"},"longitude":"-0.109594"},"context":"","outcome_status":{"category":"Investigation complete; no suspect identified","date":"2017-09"},"persistent_id":"0fe502e329b81f9b013a331f788100be068e916d5aa070c86e3e2f3103612d5e","id":57104413,"location_subtype":"","month":"2017-05"},{"category":"criminal-damage-arson","location_type":"Force","location":{"latitude":"51.556709","street":{"id":968215,"name":"On or near Citizen Road"},"longitude":"-0.110091"},"context":"","outcome_status":{"category":"Status update unavailable","date":"2017-09"},"persistent_id":"52b6bcbc5d0f968862f7999b1984ec6569ba73085594bbd41e48d40b35b80cb1","id":57109806,"location_subtype":"","month":"2017-05"},{"category":"criminal-damage-arson","location_type":"Force","location":{"latitude":"51.556709","street":{"id":968215,"name":"On or near Citizen Road"},"longitude":"-0.110091"},"context":"","outcome_status":{"category":"Investigation complete; no suspect identified","date":"2017-06"},"persistent_id":"e96833fa00ca54a68cbf4a26555ea6283f97629d8d956beca18a1ebbbc3ee46f","id":57070624,"location_subtype":"","month":"2017-05"},{"category":"criminal-damage-arson","location_type":"Force","location":{"latitude":"51.558130","street":{"id":972085,"name":"On or near Rixon Street"},"longitude":"-0.110119"},"context":"","outcome_status":{"category":"Status update unavailable","date":"2017-09"},"persistent_id":"b77ca76a698ccc9cb2df99cda6a7048c3d122dcce2619343ddedb0c95670268f","id":57092573,"location_subtype":"","month":"2017-05"},{"category":"drugs","location_type":"Force","location":{"latitude":"51.560851","street":{"id":971859,"name":"On or near Chatterton Mews"},"longitude":"-0.099287"},"context":"","outcome_status":{"category":"Defendant found not guilty","date":"2017-07"},"persistent_id":"86facf63362a296d1f79995ab1b258b51b46fdfe863623be8924f309446e5fa9","id":57110324,"location_subtype":"","month":"2017-05"},{"category":"drugs","location_type":"Force","location":{"latitude":"51.556709","street":{"id":968215,"name":"On or near Citizen Road"},"longitude":"-0.110091"},"context":"","outcome_status":{"category":"Offender given a drugs possession warning","date":"2017-05"},"persistent_id":"02f290464ca6ca52c38b7960cfacc1d327028ebdf0d9219076cb64151eb33a53","id":57052295,"location_subtype":"","month":"2017-05"},{"category":"drugs","location_type":"Force","location":{"latitude":"51.562767","street":{"id":972027,"name":"On or near Prah Road"},"longitude":"-0.104372"},"context":"","outcome_status":{"category":"Offender given a drugs possession warning","date":"2017-05"},"persistent_id":"d62286ce5954765e335f5ac6d7b62fe6504f07fe9faecf3622d25f0489ba3c28","id":57105587,"location_subtype":"","month":"2017-05"},{"category":"drugs","location_type":"Force","location":{"latitude":"51.557554","street":{"id":968413,"name":"On or near Legard Road"},"longitude":"-0.098977"},"context":"","outcome_status":{"category":"Court result unavailable","date":"2017-12"},"persistent_id":"6d28963de512a748c1ca5c22714a448545f3f94ff69a7d61a4ef9c5714c3f64d","id":57106682,"location_subtype":"","month":"2017-05"},{"category":"other-theft","location_type":"Force","location":{"latitude":"51.554622","street":{"id":968210,"name":"On or near Dunford Road"},"longitude":"-0.113395"},"context":"","outcome_status":{"category":"Investigation complete; no suspect identified","date":"2017-07"},"persistent_id":"91937ec59326bdffaeb91fde3837ed60e9e56623d548bfbad5adeb93939977b8","id":57065487,"location_subtype":"","month":"2017-05"},{"category":"other-theft","location_type":"Force","location":{"latitude":"51.557554","street":{"id":968413,"name":"On or near Legard Road"},"longitude":"-0.098977"},"context":"","outcome_status":{"category":"Investigation complete; no suspect identified","date":"2017-08"},"persistent_id":"6b28f7dcd28332468b31da582892b56bf289ccd428f93df8092888929c746064","id":57085313,"location_subtype":"","month":"2017-05"},{"category":"other-theft","location_type":"Force","location":{"latitude":"51.550955","street":{"id":968196,"name":"On or near Liverpool Road"},"longitude":"-0.110157"},"context":"","outcome_status":{"category":"Status update unavailable","date":"2017-09"},"persistent_id":"499566c0e91e02970c4aa50cc951779622b6d34d2cb67e1d9b30cf5c8e0826d9","id":57109777,"location_subtype":"","month":"2017-05"},{"category":"other-theft","location_type":"Force","location":{"latitude":"51.554227","street":{"id":968427,"name":"On or near Hamilton Lane"},"longitude":"-0.098943"},"context":"","outcome_status":{"category":"Status update unavailable","date":"2017-09"},"persistent_id":"06e21ac44e46f71ca1316d52d90cff4858c8a89bfd1e78a2577b7b080486dbca","id":57094556,"location_subtype":"","month":"2017-05"},{"category":"other-theft","location_type":"Force","location":{"latitude":"51.564352","street":{"id":972024,"name":"On or near Rock Street"},"longitude":"-0.103931"},"context":"","outcome_status":{"category":"Investigation complete; no suspect identified","date":"2017-05"},"persistent_id":"55ba6ce107123e9f4199d0bb3afa28e25a4f214a9e932dd63d42a69b80bceb45","id":57088868,"location_subtype":"","month":"2017-05"},{"category":"other-theft","location_type":"Force","location":{"latitude":"51.553669","street":{"id":968207,"name":"On or near Emily Place"},"longitude":"-0.107289"},"context":"","outcome_status":{"category":"Status update unavailable","date":"2017-09"},"persistent_id":"73f886c49654e1ae3245d028eb726e78035f165c7f0f88fd59d89723932f7bcd","id":57117693,"location_subtype":"","month":"2017-05"},{"category":"other-theft","location_type":"Force","location":{"latitude":"51.553646","street":{"id":968326,"name":"On or near Martineau Road"},"longitude":"-0.104160"},"context":"","outcome_status":{"category":"Status update unavailable","date":"2017-09"},"persistent_id":"f7bba885f37499d67a1700b0f25c878d63045bb93bc6927d60d2608d38cc6b07","id":57056739,"location_subtype":"","month":"2017-05"},{"category":"other-theft","location_type":"Force","location":{"latitude":"51.554559","street":{"id":968186,"name":"On or near Stavordale Road"},"longitude":"-0.104497"},"context":"","outcome_status":{"category":"Status update unavailable","date":"2017-09"},"persistent_id":"144690d805867e843818f5df936fe953b76d24ecd27c87dce88b941748645a76","id":57103520,"location_subtype":"","month":"2017-05"},{"category":"other-theft","location_type":"Force","location":{"latitude":"51.554963","street":{"id":968420,"name":"On or near Highbury Park"},"longitude":"-0.098306"},"context":"","outcome_status":{"category":"Status update unavailable","date":"2017-09"},"persistent_id":"e66631bd1c5efe76e7be5ddbb9642b651731df2c8fdbe6326b0faf01f9e01046","id":57104586,"location_subtype":"","month":"2017-05"},{"category":"other-theft","location_type":"Force","location":{"latitude":"51.557554","street":{"id":968413,"name":"On or near Legard Road"},"longitude":"-0.098977"},"context":"","outcome_status":{"category":"Status update unavailable","date":"2017-09"},"persistent_id":"336a691b0c5262c879d4f7358484d62ead67172ed0d3e343fa8b99e1a1c4e266","id":57080311,"location_subtype":"","month":"2017-05"},{"category":"other-theft","location_type":"Force","location":{"latitude":"51.563900","street":{"id":972052,"name":"On or near A1201"},"longitude":"-0.105436"},"context":"","outcome_status":{"category":"Investigation complete; no suspect identified","date":"2017-08"},"persistent_id":"4c6df67a033779280931b5d078596db1864438bc8f82965e385670a6b8aeddbc","id":57075653,"location_subtype":"","month":"2017-05"},{"category":"other-theft","location_type":"Force","location":{"latitude":"51.563900","street":{"id":972052,"name":"On or near A1201"},"longitude":"-0.105436"},"context":"","outcome_status":{"category":"Investigation complete; no suspect identified","date":"2018-01"},"persistent_id":"b734e907eac05e5da671fecffa53e84a33a6a7deac622d94858ff0d0c51aa389","id":57112040,"location_subtype":"","month":"2017-05"},{"category":"other-theft","location_type":"Force","location":{"latitude":"51.561410","street":{"id":971864,"name":"On or near Blackstock Road"},"longitude":"-0.099393"},"context":"","outcome_status":{"category":"Investigation complete; no suspect identified","date":"2017-06"},"persistent_id":"776c7d1d8b9305e34e1cb1e88e3e73436c526d71f1fa5436a1fb065cfe6211e9","id":57111845,"location_subtype":"","month":"2017-05"},{"category":"other-theft","location_type":"Force","location":{"latitude":"51.555175","street":{"id":968408,"name":"On or near Panmure Close"},"longitude":"-0.100836"},"context":"","outcome_status":{"category":"Status update unavailable","date":"2017-09"},"persistent_id":"081cd876139cbdfbb2eee56312254ba0dae58547fd5b6ff3249b02503eefe878","id":57075485,"location_subtype":"","month":"2017-05"},{"category":"other-theft","location_type":"BTP","location":{"latitude":"51.553000","street":{"id":1486450,"name":"Drayton Park (station)"},"longitude":"-0.105784"},"context":"","outcome_status":{"category":"Status update unavailable","date":"2017-09"},"persistent_id":"","id":66305257,"location_subtype":"STATION","month":"2017-05"},{"category":"other-theft","location_type":"Force","location":{"latitude":"51.560851","street":{"id":971859,"name":"On or near Chatterton Mews"},"longitude":"-0.099287"},"context":"","outcome_status":{"category":"Status update unavailable","date":"2017-09"},"persistent_id":"27dfcb40baf39a39ed05a4468aa56d893c4479c79ea1a7c4c4842b155d30e6c8","id":57081367,"location_subtype":"","month":"2017-05"},{"category":"other-theft","location_type":"Force","location":{"latitude":"51.554674","street":{"id":968271,"name":"On or near Holloway Road"},"longitude":"-0.114965"},"context":"","outcome_status":{"category":"Investigation complete; no suspect identified","date":"2017-07"},"persistent_id":"5462d1e008c12f7886328125e7eaa337bfff1bd6a186dbb6417604b5f4755b71","id":57095882,"location_subtype":"","month":"2017-05"},{"category":"possession-of-weapons","location_type":"Force","location":{"latitude":"51.564352","street":{"id":972024,"name":"On or near Rock Street"},"longitude":"-0.103931"},"context":"","outcome_status":{"category":"Defendant found not guilty","date":"2017-10"},"persistent_id":"8109ba7a44c085bd5c1bfbd5786ac01f6e5460a70a458542698d65f22bef7de6","id":57113782,"location_subtype":"","month":"2017-05"},{"category":"possession-of-weapons","location_type":"Force","location":{"latitude":"51.552190","street":{"id":968227,"name":"On or near Further\/higher Educational Building"},"longitude":"-0.112601"},"context":"","outcome_status":{"category":"Status update unavailable","date":"2017-09"},"persistent_id":"c0b14de042eaf40764fea9b3cb2b4fd609cc53be2d327c94ac6ef79b7be96681","id":57091698,"location_subtype":"","month":"2017-05"},{"category":"public-order","location_type":"Force","location":{"latitude":"51.552769","street":{"id":968191,"name":"On or near Rollit Street"},"longitude":"-0.111683"},"context":"","outcome_status":{"category":"Investigation complete; no suspect identified","date":"2017-05"},"persistent_id":"7e6f72b84da3e855a9bdfa4d546211e3a0a2db9f326e2b5052d5152ada87a1fd","id":57106571,"location_subtype":"","month":"2017-05"},{"category":"public-order","location_type":"Force","location":{"latitude":"51.552190","street":{"id":968227,"name":"On or near Further\/higher Educational Building"},"longitude":"-0.112601"},"context":"","outcome_status":{"category":"Investigation complete; no suspect identified","date":"2017-07"},"persistent_id":"c0b14de042eaf40764fea9b3cb2b4fd609cc53be2d327c94ac6ef79b7be96681","id":57093582,"location_subtype":"","month":"2017-05"},{"category":"public-order","location_type":"Force","location":{"latitude":"51.552690","street":{"id":968219,"name":"On or near Benwell Road"},"longitude":"-0.109594"},"context":"","outcome_status":{"category":"Investigation complete; no suspect identified","date":"2017-05"},"persistent_id":"c3122020f45ba2954fa1ab2b2f2bf0c4e7fa247143a93ef1a8646e6264c8f713","id":57065724,"location_subtype":"","month":"2017-05"},{"category":"public-order","location_type":"Force","location":{"latitude":"51.553418","street":{"id":968412,"name":"On or near Leigh Road"},"longitude":"-0.100073"},"context":"","outcome_status":{"category":"Investigation complete; no suspect identified","date":"2017-06"},"persistent_id":"1e27642c916dca6bd5fa3772891a7f9b88e51ecdf1aa0b143cbde10340ffef20","id":57082056,"location_subtype":"","month":"2017-05"},{"category":"public-order","location_type":"BTP","location":{"latitude":"51.558554","street":{"id":1489562,"name":"Arsenal (lu Station)"},"longitude":"-0.105730"},"context":"","outcome_status":{"category":"Status update unavailable","date":"2017-09"},"persistent_id":"","id":66305330,"location_subtype":"LU STATION","month":"2017-05"},{"category":"public-order","location_type":"Force","location":{"latitude":"51.553418","street":{"id":968412,"name":"On or near Leigh Road"},"longitude":"-0.100073"},"context":"","outcome_status":{"category":"Status update unavailable","date":"2017-09"},"persistent_id":"1e27642c916dca6bd5fa3772891a7f9b88e51ecdf1aa0b143cbde10340ffef20","id":57082055,"location_subtype":"","month":"2017-05"},{"category":"robbery","location_type":"Force","location":{"latitude":"51.563900","street":{"id":972052,"name":"On or near A1201"},"longitude":"-0.105436"},"context":"","outcome_status":{"category":"Investigation complete; no suspect identified","date":"2017-06"},"persistent_id":"b208493246b9475d28b8900978d9232d65b41f89a6067237da351814c8c9cd49","id":57096071,"location_subtype":"","month":"2017-05"},{"category":"robbery","location_type":"Force","location":{"latitude":"51.550955","street":{"id":968196,"name":"On or near Liverpool Road"},"longitude":"-0.110157"},"context":"","outcome_status":{"category":"Investigation complete; no suspect identified","date":"2018-02"},"persistent_id":"6b25f98c50e0b3ac513a753295e8d454ebc7c91d05ab952c853764c357642f21","id":57093613,"location_subtype":"","month":"2017-05"},{"category":"robbery","location_type":"Force","location":{"latitude":"51.553385","street":{"id":968201,"name":"On or near Holloway Road"},"longitude":"-0.113100"},"context":"","outcome_status":{"category":"Investigation complete; no suspect identified","date":"2017-06"},"persistent_id":"17029691b63cc98a8d8f907afd1595d9cce5266148ced63d5bf7421135308a4d","id":57117157,"location_subtype":"","month":"2017-05"},{"category":"robbery","location_type":"Force","location":{"latitude":"51.553385","street":{"id":968201,"name":"On or near Holloway Road"},"longitude":"-0.113100"},"context":"","outcome_status":{"category":"Status update unavailable","date":"2017-09"},"persistent_id":"b805066b1857dd454a6659beed5d22553471aa392f22055c391f92b1522acf89","id":57115686,"location_subtype":"","month":"2017-05"},{"category":"robbery","location_type":"Force","location":{"latitude":"51.564009","street":{"id":972025,"name":"On or near Rock Street"},"longitude":"-0.104421"},"context":"","outcome_status":{"category":"Offender sent to prison","date":"2017-06"},"persistent_id":"8b8de639fe1ef09443762cd878154f7c2b71c0941d2020659125a2142ac589ec","id":57099928,"location_subtype":"","month":"2017-05"},{"category":"robbery","location_type":"Force","location":{"latitude":"51.556709","street":{"id":968215,"name":"On or near Citizen Road"},"longitude":"-0.110091"},"context":"","outcome_status":{"category":"Investigation complete; no suspect identified","date":"2017-06"},"persistent_id":"a65910f8aa9cef5fd34eb8893f2510d3f71760f5ee4774136226ec989d7102de","id":57072725,"location_subtype":"","month":"2017-05"},{"category":"shoplifting","location_type":"Force","location":{"latitude":"51.554674","street":{"id":968271,"name":"On or near Holloway Road"},"longitude":"-0.114965"},"context":"","outcome_status":{"category":"Investigation complete; no suspect identified","date":"2017-05"},"persistent_id":"ccf0ebf45bd11dfd763fd1e29efcad54d5ba33b71d34fd835819afeb648db1b9","id":57083242,"location_subtype":"","month":"2017-05"},{"category":"shoplifting","location_type":"Force","location":{"latitude":"51.552690","street":{"id":968219,"name":"On or near Benwell Road"},"longitude":"-0.109594"},"context":"","outcome_status":{"category":"Status update unavailable","date":"2017-09"},"persistent_id":"df7f127c26fc645554d37ab8599662a4b9d755230e7ac9f326655f13122dfd39","id":57106898,"location_subtype":"","month":"2017-05"},{"category":"shoplifting","location_type":"Force","location":{"latitude":"51.552190","street":{"id":968227,"name":"On or near Further\/higher Educational Building"},"longitude":"-0.112601"},"context":"","outcome_status":{"category":"Investigation complete; no suspect identified","date":"2017-08"},"persistent_id":"b997761129ae0a7f028ae1dd0d5f116328f8df789b3babb02ed0c2f7a3af9c3c","id":57095288,"location_subtype":"","month":"2017-05"},{"category":"shoplifting","location_type":"Force","location":{"latitude":"51.564009","street":{"id":972025,"name":"On or near Rock Street"},"longitude":"-0.104421"},"context":"","outcome_status":{"category":"Investigation complete; no suspect identified","date":"2017-05"},"persistent_id":"45dffeacd5d1a75ff4484f4553fd00012a8b201a464a01f5c1d60d116c8332e6","id":57059042,"location_subtype":"","month":"2017-05"},{"category":"theft-from-the-person","location_type":"Force","location":{"latitude":"51.563900","street":{"id":972052,"name":"On or near A1201"},"longitude":"-0.105436"},"context":"","outcome_status":{"category":"Investigation complete; no suspect identified","date":"2017-06"},"persistent_id":"05314925498bfe6197e10c396acb6c769de673fe8078d271dc669fac8d514a1b","id":57069973,"location_subtype":"","month":"2017-05"},{"category":"theft-from-the-person","location_type":"Force","location":{"latitude":"51.553385","street":{"id":968201,"name":"On or near Holloway Road"},"longitude":"-0.113100"},"context":"","outcome_status":{"category":"Investigation complete; no suspect identified","date":"2017-06"},"persistent_id":"139a2c68ee202c3823335bdad00b66baad89acaaf34bb5724f75dfe32c23705b","id":57054270,"location_subtype":"","month":"2017-05"},{"category":"theft-from-the-person","location_type":"Force","location":{"latitude":"51.556828","street":{"id":968189,"name":"On or near Shelburne Road"},"longitude":"-0.113000"},"context":"","outcome_status":{"category":"Status update unavailable","date":"2017-09"},"persistent_id":"9ab1a4f32b770ffc7df46f84272e1ff56ea733dc48ae07ee3d138f4151f5e7fd","id":57084207,"location_subtype":"","month":"2017-05"},{"category":"theft-from-the-person","location_type":"Force","location":{"latitude":"51.559780","street":{"id":972082,"name":"On or near Tannington Terrace"},"longitude":"-0.104828"},"context":"","outcome_status":{"category":"Investigation complete; no suspect identified","date":"2017-06"},"persistent_id":"e18f4ba8187db9742a5fef7452d4a44a2c20d4cb16bcb55bcafcfde903b20430","id":57096634,"location_subtype":"","month":"2017-05"},{"category":"theft-from-the-person","location_type":"Force","location":{"latitude":"51.553385","street":{"id":968201,"name":"On or near Holloway Road"},"longitude":"-0.113100"},"context":"","outcome_status":{"category":"Status update unavailable","date":"2017-09"},"persistent_id":"6b94174b21f1f30a060fa24a3664491a8b5e1dabb9b43b6bbb55685cf34418a1","id":57085945,"location_subtype":"","month":"2017-05"},{"category":"theft-from-the-person","location_type":"BTP","location":{"latitude":"51.552800","street":{"id":1488722,"name":"Holloway Road (lu Station)"},"longitude":"-0.112922"},"context":"","outcome_status":{"category":"Status update unavailable","date":"2017-09"},"persistent_id":"","id":66305645,"location_subtype":"LU STATION","month":"2017-05"},{"category":"theft-from-the-person","location_type":"Force","location":{"latitude":"51.554674","street":{"id":968271,"name":"On or near Holloway Road"},"longitude":"-0.114965"},"context":"","outcome_status":{"category":"Status update unavailable","date":"2017-09"},"persistent_id":"f3977b6aaa198f4b220c92102ef6e42c0ef632eac3e2c61bd803396ecf9a81ab","id":57100486,"location_subtype":"","month":"2017-05"},{"category":"theft-from-the-person","location_type":"Force","location":{"latitude":"51.559780","street":{"id":972082,"name":"On or near Tannington Terrace"},"longitude":"-0.104828"},"context":"","outcome_status":{"category":"Investigation complete; no suspect identified","date":"2017-08"},"persistent_id":"a3c2edc38aa96683dccb5d1b9a161c48a2b247d10190bf7f6a2cb12f416814c1","id":57088346,"location_subtype":"","month":"2017-05"},{"category":"theft-from-the-person","location_type":"Force","location":{"latitude":"51.559780","street":{"id":972082,"name":"On or near Tannington Terrace"},"longitude":"-0.104828"},"context":"","outcome_status":{"category":"Investigation complete; no suspect identified","date":"2017-06"},"persistent_id":"dd76572c6a03995274bdb3b3537823beee111a4361a1696bcd9f72f9e9b88210","id":57084957,"location_subtype":"","month":"2017-05"},{"category":"theft-from-the-person","location_type":"Force","location":{"latitude":"51.554291","street":{"id":968224,"name":"On or near Sports\/recreation Area"},"longitude":"-0.108475"},"context":"","outcome_status":{"category":"Status update unavailable","date":"2017-09"},"persistent_id":"e2f3dbdf6ecd17e22080c280895ffa2bc4a076e9d1af661b2b45893e66b16f02","id":57105100,"location_subtype":"","month":"2017-05"},{"category":"theft-from-the-person","location_type":"Force","location":{"latitude":"51.564352","street":{"id":972024,"name":"On or near Rock Street"},"longitude":"-0.103931"},"context":"","outcome_status":{"category":"Status update unavailable","date":"2017-09"},"persistent_id":"651bc07e071c0abaadf315412cb33284ce54d868d450e1ec72e13e683a0b5ca5","id":57090561,"location_subtype":"","month":"2017-05"},{"category":"theft-from-the-person","location_type":"Force","location":{"latitude":"51.554622","street":{"id":968210,"name":"On or near Dunford Road"},"longitude":"-0.113395"},"context":"","outcome_status":{"category":"Status update unavailable","date":"2017-09"},"persistent_id":"9460f20a3b69cf41e51ce76382ece9d767a6959d617cdc3ab1a9110a0abbc9e0","id":57067876,"location_subtype":"","month":"2017-05"},{"category":"theft-from-the-person","location_type":"Force","location":{"latitude":"51.555571","street":{"id":968419,"name":"On or near Highbury Park"},"longitude":"-0.098137"},"context":"","outcome_status":{"category":"Status update unavailable","date":"2017-09"},"persistent_id":"0a4ec76999edcd1c2e67e3a920c4fc988055a9612cd7ceac4be1a29f66ecaaee","id":57109002,"location_subtype":"","month":"2017-05"},{"category":"theft-from-the-person","location_type":"Force","location":{"latitude":"51.560851","street":{"id":971859,"name":"On or near Chatterton Mews"},"longitude":"-0.099287"},"context":"","outcome_status":{"category":"Status update unavailable","date":"2017-09"},"persistent_id":"0b085abae4729c692f6f6ee3261c44d2717f35bac5238016be2d6360b9decad8","id":57090679,"location_subtype":"","month":"2017-05"},{"category":"theft-from-the-person","location_type":"Force","location":{"latitude":"51.564352","street":{"id":972024,"name":"On or near Rock Street"},"longitude":"-0.103931"},"context":"","outcome_status":{"category":"Investigation complete; no suspect identified","date":"2017-07"},"persistent_id":"90ee7c4a88e8e64e82185bb5962ab04da565e23c6f1d9fe8b983b8ce61b29937","id":57109372,"location_subtype":"","month":"2017-05"},{"category":"theft-from-the-person","location_type":"Force","location":{"latitude":"51.561410","street":{"id":971864,"name":"On or near Blackstock Road"},"longitude":"-0.099393"},"context":"","outcome_status":{"category":"Investigation complete; no suspect identified","date":"2017-06"},"persistent_id":"be7cf09b5feb74fb203475257760532ad343e44882b9eed69f76b4f977e23bdf","id":57108999,"location_subtype":"","month":"2017-05"},{"category":"theft-from-the-person","location_type":"Force","location":{"latitude":"51.563900","street":{"id":972052,"name":"On or near A1201"},"longitude":"-0.105436"},"context":"","outcome_status":{"category":"Status update unavailable","date":"2017-09"},"persistent_id":"561c5fbbea7299faf5966d8e0214fe98636c62535c885d4fb601338346174123","id":57065816,"location_subtype":"","month":"2017-05"},{"category":"theft-from-the-person","location_type":"Force","location":{"latitude":"51.559779","street":{"id":971936,"name":"On or near Blackstock Road"},"longitude":"-0.098625"},"context":"","outcome_status":{"category":"Status update unavailable","date":"2017-09"},"persistent_id":"613947dac0087f35e2b19b344ffee973cd0e6ba8e6c511941bf53bef0c3ae936","id":57111304,"location_subtype":"","month":"2017-05"},{"category":"theft-from-the-person","location_type":"Force","location":{"latitude":"51.564352","street":{"id":972024,"name":"On or near Rock Street"},"longitude":"-0.103931"},"context":"","outcome_status":{"category":"Status update unavailable","date":"2017-09"},"persistent_id":"df610d29aae84a392abfce7f33703522af4c177a78b7f5e57f7f2491f17313ea","id":57110892,"location_subtype":"","month":"2017-05"},{"category":"theft-from-the-person","location_type":"Force","location":{"latitude":"51.561321","street":{"id":972020,"name":"On or near St Thomas's Road"},"longitude":"-0.105009"},"context":"","outcome_status":{"category":"Investigation complete; no suspect identified","date":"2017-06"},"persistent_id":"70bb30b9d3187e7e44a2eb0f361b77a61188522d7d62364629405a9afe0dbd3e","id":57114880,"location_subtype":"","month":"2017-05"},{"category":"theft-from-the-person","location_type":"Force","location":{"latitude":"51.550955","street":{"id":968196,"name":"On or near Liverpool Road"},"longitude":"-0.110157"},"context":"","outcome_status":{"category":"Status update unavailable","date":"2017-09"},"persistent_id":"9baaedcab9d7ac63719ae67923427a0f5249f47ea9683d6e306a42b3ca17c41d","id":57114881,"location_subtype":"","month":"2017-05"},{"category":"theft-from-the-person","location_type":"Force","location":{"latitude":"51.554963","street":{"id":968420,"name":"On or near Highbury Park"},"longitude":"-0.098306"},"context":"","outcome_status":{"category":"Status update unavailable","date":"2017-09"},"persistent_id":"2066d15685a05901ad6be4e392904e27df7da83ba8f0fa8c172c5a65fb34f344","id":57119365,"location_subtype":"","month":"2017-05"},{"category":"theft-from-the-person","location_type":"Force","location":{"latitude":"51.554291","street":{"id":968224,"name":"On or near Sports\/recreation Area"},"longitude":"-0.108475"},"context":"","outcome_status":{"category":"Investigation complete; no suspect identified","date":"2017-05"},"persistent_id":"d4e1d909745a13d12534383b4ba4dddc4ad590af626600a2c41ad7cdc33937da","id":57103926,"location_subtype":"","month":"2017-05"},{"category":"theft-from-the-person","location_type":"Force","location":{"latitude":"51.563589","street":{"id":972048,"name":"On or near Blackstock Road"},"longitude":"-0.102895"},"context":"","outcome_status":{"category":"Status update unavailable","date":"2017-09"},"persistent_id":"cdedb7c196dbad28cae677318203ab45ec422804a53d71477698c245a4b6cf0b","id":57059791,"location_subtype":"","month":"2017-05"},{"category":"theft-from-the-person","location_type":"Force","location":{"latitude":"51.561410","street":{"id":971864,"name":"On or near Blackstock Road"},"longitude":"-0.099393"},"context":"","outcome_status":{"category":"Investigation complete; no suspect identified","date":"2017-05"},"persistent_id":"c25ff04fd8c5104750bb5b4f28b3ca42755f90f318f9a5fc91a70a1598fa6cf8","id":57067285,"location_subtype":"","month":"2017-05"},{"category":"theft-from-the-person","location_type":"Force","location":{"latitude":"51.554622","street":{"id":968210,"name":"On or near Dunford Road"},"longitude":"-0.113395"},"context":"","outcome_status":{"category":"Investigation complete; no suspect identified","date":"2018-03"},"persistent_id":"11cc96c5d3ef1866993c67fef92549bbd229a52928749a4931aa5f021ea94d2c","id":57104037,"location_subtype":"","month":"2017-05"},{"category":"theft-from-the-person","location_type":"Force","location":{"latitude":"51.553385","street":{"id":968201,"name":"On or near Holloway Road"},"longitude":"-0.113100"},"context":"","outcome_status":{"category":"Investigation complete; no suspect identified","date":"2017-06"},"persistent_id":"00b930cb752c44bfaad28e181575cc4ab8f9705b2f34e163704ede433012f932","id":57116840,"location_subtype":"","month":"2017-05"},{"category":"theft-from-the-person","location_type":"Force","location":{"latitude":"51.564352","street":{"id":972024,"name":"On or near Rock Street"},"longitude":"-0.103931"},"context":"","outcome_status":{"category":"Investigation complete; no suspect identified","date":"2017-06"},"persistent_id":"5da1b01cce7579a9d33cd7964a1c6242e0ec83251fc2a320dcb6b4d306f79e0e","id":57091282,"location_subtype":"","month":"2017-05"},{"category":"theft-from-the-person","location_type":"Force","location":{"latitude":"51.559780","street":{"id":972082,"name":"On or near Tannington Terrace"},"longitude":"-0.104828"},"context":"","outcome_status":{"category":"Investigation complete; no suspect identified","date":"2017-06"},"persistent_id":"9583e46ce01da4456aaa2ed0670bbe5c1b874ab9846bcbc18591ee7040d096e7","id":57078982,"location_subtype":"","month":"2017-05"},{"category":"theft-from-the-person","location_type":"Force","location":{"latitude":"51.551819","street":{"id":968229,"name":"On or near Further\/higher Educational Building"},"longitude":"-0.110236"},"context":"","outcome_status":{"category":"Investigation complete; no suspect identified","date":"2017-06"},"persistent_id":"d3455a91cfa0ac97cf5ec91566ff5b3d55f95276a1aadbfb24e8c3b17dcb4c72","id":57051425,"location_subtype":"","month":"2017-05"},{"category":"theft-from-the-person","location_type":"Force","location":{"latitude":"51.564352","street":{"id":972024,"name":"On or near Rock Street"},"longitude":"-0.103931"},"context":"","outcome_status":{"category":"Investigation complete; no suspect identified","date":"2017-06"},"persistent_id":"f37dea7064b8ad517adfc186b179a2e04d50c28beec0180fea18352029cb0f2f","id":57070581,"location_subtype":"","month":"2017-05"},{"category":"vehicle-crime","location_type":"Force","location":{"latitude":"51.554682","street":{"id":968211,"name":"On or near Drayton Park"},"longitude":"-0.105401"},"context":"","outcome_status":{"category":"Investigation complete; no suspect identified","date":"2017-06"},"persistent_id":"b74fca8afdc022131a0608312f56fffaf2dbd6530e71f9da69b3853c57c0409c","id":57082723,"location_subtype":"","month":"2017-05"},{"category":"vehicle-crime","location_type":"Force","location":{"latitude":"51.557030","street":{"id":968226,"name":"On or near Further\/higher Educational Building"},"longitude":"-0.113843"},"context":"","outcome_status":{"category":"Status update unavailable","date":"2017-09"},"persistent_id":"3955ed7e9c05f9b4261b8d93d70abfe44ad57c68aa81cc71022edb67449b8744","id":57086858,"location_subtype":"","month":"2017-05"},{"category":"vehicle-crime","location_type":"Force","location":{"latitude":"51.553418","street":{"id":968412,"name":"On or near Leigh Road"},"longitude":"-0.100073"},"context":"","outcome_status":{"category":"Status update unavailable","date":"2017-09"},"persistent_id":"8b6d7277cc5610293609ce2dbb8b938a1cd7f42bb076d18ad3454344a6d1fe09","id":57078970,"location_subtype":"","month":"2017-05"},{"category":"vehicle-crime","location_type":"Force","location":{"latitude":"51.552582","street":{"id":968213,"name":"On or near Courtney Road"},"longitude":"-0.108488"},"context":"","outcome_status":{"category":"Status update unavailable","date":"2017-09"},"persistent_id":"9510f047f32006da71544ee4727f84f108e73333fe36bb6e56122fdad515131b","id":57076227,"location_subtype":"","month":"2017-05"},{"category":"vehicle-crime","location_type":"Force","location":{"latitude":"51.553646","street":{"id":968326,"name":"On or near Martineau Road"},"longitude":"-0.104160"},"context":"","outcome_status":{"category":"Status update unavailable","date":"2017-09"},"persistent_id":"b49aa9d9e44eed672dfc958667c8b9460e797dcafe92fa8b7444b82bffac744e","id":57092688,"location_subtype":"","month":"2017-05"},{"category":"vehicle-crime","location_type":"Force","location":{"latitude":"51.552690","street":{"id":968219,"name":"On or near Benwell Road"},"longitude":"-0.109594"},"context":"","outcome_status":{"category":"Status update unavailable","date":"2017-09"},"persistent_id":"f419b70819feb893169b9b269f33b822aa0dfe7942053c9e93639cbf876aa4c6","id":57075023,"location_subtype":"","month":"2017-05"},{"category":"vehicle-crime","location_type":"Force","location":{"latitude":"51.550955","street":{"id":968196,"name":"On or near Liverpool Road"},"longitude":"-0.110157"},"context":"","outcome_status":{"category":"Status update unavailable","date":"2017-09"},"persistent_id":"7ef47efc12d8f6d5c62d08f86257b4f6e39fda0c64119a6b3ce15d19966a8ef0","id":57096611,"location_subtype":"","month":"2017-05"},{"category":"vehicle-crime","location_type":"Force","location":{"latitude":"51.562767","street":{"id":972027,"name":"On or near Prah Road"},"longitude":"-0.104372"},"context":"","outcome_status":{"category":"Status update unavailable","date":"2017-09"},"persistent_id":"a2f5ae459824d7f0d79410eebfdac651891478d55281cbcea82deeeae18b58ff","id":57074467,"location_subtype":"","month":"2017-05"},{"category":"vehicle-crime","location_type":"Force","location":{"latitude":"51.559780","street":{"id":972082,"name":"On or near Tannington Terrace"},"longitude":"-0.104828"},"context":"","outcome_status":{"category":"Status update unavailable","date":"2017-09"},"persistent_id":"15bab1747ab72537d1538ba05550da698059080689ef46aa0b85d1e7567f7ce7","id":57099599,"location_subtype":"","month":"2017-05"},{"category":"vehicle-crime","location_type":"Force","location":{"latitude":"51.562767","street":{"id":972027,"name":"On or near Prah Road"},"longitude":"-0.104372"},"context":"","outcome_status":{"category":"Status update unavailable","date":"2017-09"},"persistent_id":"74b7ad6496de545730bec373e82f624650728b3ad8734ae7b693d705cb59b37c","id":57071289,"location_subtype":"","month":"2017-05"},{"category":"vehicle-crime","location_type":"Force","location":{"latitude":"51.556630","street":{"id":968208,"name":"On or near Elfort Road"},"longitude":"-0.105190"},"context":"","outcome_status":{"category":"Investigation complete; no suspect identified","date":"2017-06"},"persistent_id":"d976932c775a172395360db6a6390b0e2e851b0ed7e7a611b23e681b965ef694","id":57104402,"location_subtype":"","month":"2017-05"},{"category":"vehicle-crime","location_type":"Force","location":{"latitude":"51.556039","street":{"id":968432,"name":"On or near Aubert Road"},"longitude":"-0.099819"},"context":"","outcome_status":{"category":"Status update unavailable","date":"2017-09"},"persistent_id":"9d6957b57fbad6d5e26f7b7cd36562f0a257adb8bbb19a9fbb6085199a5dc503","id":57104536,"location_subtype":"","month":"2017-05"},{"category":"vehicle-crime","location_type":"Force","location":{"latitude":"51.561925","street":{"id":972051,"name":"On or near Ambler Road"},"longitude":"-0.103426"},"context":"","outcome_status":{"category":"Status update unavailable","date":"2017-09"},"persistent_id":"e6376424ef9221b351fe420568e2cdab76ea22eb0702aea90c7b9e08341cdce6","id":57109003,"location_subtype":"","month":"2017-05"},{"category":"vehicle-crime","location_type":"Force","location":{"latitude":"51.554622","street":{"id":968210,"name":"On or near Dunford Road"},"longitude":"-0.113395"},"context":"","outcome_status":{"category":"Status update unavailable","date":"2017-09"},"persistent_id":"d485989905b1b0f5a869c8bbcbe7383f5517f120fb3b3017ed549fb246de7c73","id":57115347,"location_subtype":"","month":"2017-05"},{"category":"vehicle-crime","location_type":"Force","location":{"latitude":"51.557317","street":{"id":968429,"name":"On or near Elphinstone Street"},"longitude":"-0.100978"},"context":"","outcome_status":{"category":"Status update unavailable","date":"2017-09"},"persistent_id":"bfbf6835d2e1bfc4b9b3c6eed4d1aaa0a7f81dc57ee2f13476a08803dab10ff3","id":57058705,"location_subtype":"","month":"2017-05"},{"category":"vehicle-crime","location_type":"Force","location":{"latitude":"51.556630","street":{"id":968208,"name":"On or near Elfort Road"},"longitude":"-0.105190"},"context":"","outcome_status":{"category":"Status update unavailable","date":"2017-09"},"persistent_id":"000876c9319bb0bdff391b7d0120f7599ba5586a75b23dec116edb5a44d60bbf","id":57053381,"location_subtype":"","month":"2017-05"},{"category":"vehicle-crime","location_type":"Force","location":{"latitude":"51.555481","street":{"id":968194,"name":"On or near Lowman Road"},"longitude":"-0.113114"},"context":"","outcome_status":{"category":"Investigation complete; no suspect identified","date":"2017-05"},"persistent_id":"64bb225681c03383ffea669279642037bfb67ce730fda5e1d1bf29b1b949c8ce","id":57083128,"location_subtype":"","month":"2017-05"},{"category":"vehicle-crime","location_type":"Force","location":{"latitude":"51.561321","street":{"id":972020,"name":"On or near St Thomas's Road"},"longitude":"-0.105009"},"context":"","outcome_status":{"category":"Investigation complete; no suspect identified","date":"2017-09"},"persistent_id":"c7a6ba73aff3b84cbeec941eed82fabd712f55666f889ca596daf96f7a54de03","id":57100755,"location_subtype":"","month":"2017-05"},{"category":"vehicle-crime","location_type":"Force","location":{"latitude":"51.561925","street":{"id":972051,"name":"On or near Ambler Road"},"longitude":"-0.103426"},"context":"","outcome_status":{"category":"Investigation complete; no suspect identified","date":"2018-02"},"persistent_id":"5e4e760b6d69a3635bd42a2543023c95f87262c88efa8478f8a1d1bcb77719c2","id":57100542,"location_subtype":"","month":"2017-05"},{"category":"vehicle-crime","location_type":"Force","location":{"latitude":"51.556630","street":{"id":968208,"name":"On or near Elfort Road"},"longitude":"-0.105190"},"context":"","outcome_status":{"category":"Investigation complete; no suspect identified","date":"2017-12"},"persistent_id":"f74f211c0b30319178a0baa678c064f2733bc9170691c8ef00b4d567dbd54678","id":57065933,"location_subtype":"","month":"2017-05"},{"category":"vehicle-crime","location_type":"Force","location":{"latitude":"51.555481","street":{"id":968194,"name":"On or near Lowman Road"},"longitude":"-0.113114"},"context":"","outcome_status":{"category":"Status update unavailable","date":"2017-09"},"persistent_id":"e925e93e5c816870a337627cb4fd1cd12ac85fcc79349ca195c86c141849a8cb","id":57101282,"location_subtype":"","month":"2017-05"},{"category":"vehicle-crime","location_type":"Force","location":{"latitude":"51.552769","street":{"id":968191,"name":"On or near Rollit Street"},"longitude":"-0.111683"},"context":"","outcome_status":{"category":"Status update unavailable","date":"2017-09"},"persistent_id":"c218aa764cb219a9da445b5be76713a3e964f0878ed0cc80c9fd7dfaad44fdc9","id":57111005,"location_subtype":"","month":"2017-05"},{"category":"violent-crime","location_type":"Force","location":{"latitude":"51.563900","street":{"id":972052,"name":"On or near A1201"},"longitude":"-0.105436"},"context":"","outcome_status":{"category":"Investigation complete; no suspect identified","date":"2017-07"},"persistent_id":"68778ec295f7cf5fd24fa7c8da1ceed9bf63e3e01bcee987e934d37a608d4610","id":57084997,"location_subtype":"","month":"2017-05"},{"category":"violent-crime","location_type":"Force","location":{"latitude":"51.554227","street":{"id":968427,"name":"On or near Hamilton Lane"},"longitude":"-0.098943"},"context":"","outcome_status":{"category":"Status update unavailable","date":"2017-09"},"persistent_id":"dc213ac46f271c061ca34147c1520255063b112b5ed0ca03e124cc1c242afe27","id":57110933,"location_subtype":"","month":"2017-05"},{"category":"violent-crime","location_type":"Force","location":{"latitude":"51.564352","street":{"id":972024,"name":"On or near Rock Street"},"longitude":"-0.103931"},"context":"","outcome_status":{"category":"Status update unavailable","date":"2017-09"},"persistent_id":"5da1b01cce7579a9d33cd7964a1c6242e0ec83251fc2a320dcb6b4d306f79e0e","id":57090717,"location_subtype":"","month":"2017-05"},{"category":"violent-crime","location_type":"Force","location":{"latitude":"51.553669","street":{"id":968207,"name":"On or near Emily Place"},"longitude":"-0.107289"},"context":"","outcome_status":{"category":"Offender sent to prison","date":"2017-10"},"persistent_id":"d968f74e8c3e522e320049eaaa13dd425a9bbf3c33cd619680611a710b6e0d8d","id":57051722,"location_subtype":"","month":"2017-05"},{"category":"violent-crime","location_type":"Force","location":{"latitude":"51.553385","street":{"id":968201,"name":"On or near Holloway Road"},"longitude":"-0.113100"},"context":"","outcome_status":{"category":"Status update unavailable","date":"2017-09"},"persistent_id":"cfc3cad652ca1bcfb489126679df8558d375a11d38a39634c0acb4a67f89a1ea","id":57068562,"location_subtype":"","month":"2017-05"},{"category":"violent-crime","location_type":"Force","location":{"latitude":"51.553646","street":{"id":968326,"name":"On or near Martineau Road"},"longitude":"-0.104160"},"context":"","outcome_status":{"category":"Investigation complete; no suspect identified","date":"2017-07"},"persistent_id":"04afb3de1e71b5ae95e1887a761cef31d946bc633c08518a61c0927b7a3162c8","id":57078969,"location_subtype":"","month":"2017-05"},{"category":"violent-crime","location_type":"Force","location":{"latitude":"51.554227","street":{"id":968427,"name":"On or near Hamilton Lane"},"longitude":"-0.098943"},"context":"","outcome_status":{"category":"Investigation complete; no suspect identified","date":"2017-05"},"persistent_id":"45d761e0b5ffcf708fae7301b1a7c8b09dd5414a3ad86fa1c286e6a2cd692a2d","id":57066727,"location_subtype":"","month":"2017-05"},{"category":"violent-crime","location_type":"Force","location":{"latitude":"51.557317","street":{"id":968429,"name":"On or near Elphinstone Street"},"longitude":"-0.100978"},"context":"","outcome_status":{"category":"Offender given a caution","date":"2017-08"},"persistent_id":"e82b582512153545ddbd5cc6762fa3057f165da530ba7c743aec781e5c11a965","id":57051782,"location_subtype":"","month":"2017-05"},{"category":"violent-crime","location_type":"Force","location":{"latitude":"51.553646","street":{"id":968326,"name":"On or near Martineau Road"},"longitude":"-0.104160"},"context":"","outcome_status":{"category":"Court case unable to proceed","date":"2017-06"},"persistent_id":"4ed169f7a40b0eae49fca56d505755e74b57ccc9bf886e2de058fcf237357c5a","id":57110069,"location_subtype":"","month":"2017-05"},{"category":"violent-crime","location_type":"Force","location":{"latitude":"51.564352","street":{"id":972024,"name":"On or near Rock Street"},"longitude":"-0.103931"},"context":"","outcome_status":{"category":"Status update unavailable","date":"2017-09"},"persistent_id":"50f9d30da1f02ca360de351ca057c4a53fd8d12d878a0a4ad914bd59abd8208a","id":57080628,"location_subtype":"","month":"2017-05"},{"category":"violent-crime","location_type":"Force","location":{"latitude":"51.563900","street":{"id":972052,"name":"On or near A1201"},"longitude":"-0.105436"},"context":"","outcome_status":{"category":"Investigation complete; no suspect identified","date":"2017-05"},"persistent_id":"27bdb720a2e0458b1a4be0507dca121923e68a28797def56f10b0a0428b13f05","id":57051484,"location_subtype":"","month":"2017-05"},{"category":"violent-crime","location_type":"Force","location":{"latitude":"51.553418","street":{"id":968412,"name":"On or near Leigh Road"},"longitude":"-0.100073"},"context":"","outcome_status":{"category":"Investigation complete; no suspect identified","date":"2017-09"},"persistent_id":"3848cb4e57792c9af9c26c3d71635da70cf4fa566eaac2a766f6118a3e4f636d","id":57067454,"location_subtype":"","month":"2017-05"},{"category":"violent-crime","location_type":"Force","location":{"latitude":"51.562011","street":{"id":971865,"name":"On or near Blackstock Mews"},"longitude":"-0.100999"},"context":"","outcome_status":{"category":"Status update unavailable","date":"2017-09"},"persistent_id":"2c1ed89ec1bc4e0b5f6a85da4e860a816b26d1fb92b8c0fc67e981ccfc85443c","id":57101837,"location_subtype":"","month":"2017-05"},{"category":"violent-crime","location_type":"Force","location":{"latitude":"51.553959","street":{"id":968406,"name":"On or near Roseleigh Avenue"},"longitude":"-0.100209"},"context":"","outcome_status":{"category":"Offender given a caution","date":"2017-05"},"persistent_id":"3fb747b8bdfca74596acc2182fa3ef0b18bad0c105197e9e243351c51da5218f","id":57080694,"location_subtype":"","month":"2017-05"},{"category":"violent-crime","location_type":"Force","location":{"latitude":"51.554291","street":{"id":968224,"name":"On or near Sports\/recreation Area"},"longitude":"-0.108475"},"context":"","outcome_status":{"category":"Investigation complete; no suspect identified","date":"2018-01"},"persistent_id":"08f3f16edfc072f068b8150739d1d88e64f92466a33e4d4d6a272e12a1251593","id":57059726,"location_subtype":"","month":"2017-05"},{"category":"violent-crime","location_type":"Force","location":{"latitude":"51.558130","street":{"id":972085,"name":"On or near Rixon Street"},"longitude":"-0.110119"},"context":"","outcome_status":{"category":"Investigation complete; no suspect identified","date":"2017-06"},"persistent_id":"d8d85e9a22e8e3164d135d874b59a22784e8b7d1457d06cbcc0a597920b97913","id":57101760,"location_subtype":"","month":"2017-05"},{"category":"violent-crime","location_type":"Force","location":{"latitude":"51.563900","street":{"id":972052,"name":"On or near A1201"},"longitude":"-0.105436"},"context":"","outcome_status":{"category":"Investigation complete; no suspect identified","date":"2017-10"},"persistent_id":"cc5497e2570291ef8c82429a871c2b89c2dd386f325760e42e9c9851fd0a8a44","id":57086110,"location_subtype":"","month":"2017-05"},{"category":"violent-crime","location_type":"Force","location":{"latitude":"51.560841","street":{"id":972026,"name":"On or near Quill Street"},"longitude":"-0.105895"},"context":"","outcome_status":{"category":"Investigation complete; no suspect identified","date":"2018-02"},"persistent_id":"bd43489ebc9918d20bb80045376eeef52c1f1e2ef2b34663ca10b0b1e0a6b75f","id":57095268,"location_subtype":"","month":"2017-05"},{"category":"violent-crime","location_type":"BTP","location":{"latitude":"51.558554","street":{"id":1489562,"name":"Arsenal (lu Station)"},"longitude":"-0.105730"},"context":"","outcome_status":{"category":"Status update unavailable","date":"2017-09"},"persistent_id":"","id":66305329,"location_subtype":"LU STATION","month":"2017-05"},{"category":"violent-crime","location_type":"Force","location":{"latitude":"51.564009","street":{"id":972025,"name":"On or near Rock Street"},"longitude":"-0.104421"},"context":"","outcome_status":{"category":"Investigation complete; no suspect identified","date":"2017-08"},"persistent_id":"f4d6a2409ec19c77108192d7d5148e50c1d01f9740b98b912a4d0450269f7a72","id":57104025,"location_subtype":"","month":"2017-05"},{"category":"violent-crime","location_type":"Force","location":{"latitude":"51.559779","street":{"id":971936,"name":"On or near Blackstock Road"},"longitude":"-0.098625"},"context":"","outcome_status":{"category":"Investigation complete; no suspect identified","date":"2017-06"},"persistent_id":"8d2b92e8032457040863b1bd35d75d92938ca8e4f535b15f91896f586decd52c","id":57071817,"location_subtype":"","month":"2017-05"},{"category":"violent-crime","location_type":"Force","location":{"latitude":"51.564352","street":{"id":972024,"name":"On or near Rock Street"},"longitude":"-0.103931"},"context":"","outcome_status":{"category":"Status update unavailable","date":"2017-09"},"persistent_id":"50f9d30da1f02ca360de351ca057c4a53fd8d12d878a0a4ad914bd59abd8208a","id":57080629,"location_subtype":"","month":"2017-05"},{"category":"violent-crime","location_type":"Force","location":{"latitude":"51.554227","street":{"id":968427,"name":"On or near Hamilton Lane"},"longitude":"-0.098943"},"context":"","outcome_status":{"category":"Investigation complete; no suspect identified","date":"2017-06"},"persistent_id":"7e70b5e459c0c1b63e4f18144b91bc3543310061b985ccb2ce8952f02eb70481","id":57115121,"location_subtype":"","month":"2017-05"},{"category":"violent-crime","location_type":"Force","location":{"latitude":"51.553959","street":{"id":968406,"name":"On or near Roseleigh Avenue"},"longitude":"-0.100209"},"context":"","outcome_status":{"category":"Status update unavailable","date":"2017-09"},"persistent_id":"9220ee882e96c92c4391484c472fae23140d2407325e75980d46f08bf20a4e81","id":56814465,"location_subtype":"","month":"2017-05"},{"category":"violent-crime","location_type":"Force","location":{"latitude":"51.564352","street":{"id":972024,"name":"On or near Rock Street"},"longitude":"-0.103931"},"context":"","outcome_status":{"category":"Investigation complete; no suspect identified","date":"2017-06"},"persistent_id":"50f9d30da1f02ca360de351ca057c4a53fd8d12d878a0a4ad914bd59abd8208a","id":57080630,"location_subtype":"","month":"2017-05"},{"category":"violent-crime","location_type":"Force","location":{"latitude":"51.560841","street":{"id":972026,"name":"On or near Quill Street"},"longitude":"-0.105895"},"context":"","outcome_status":{"category":"Status update unavailable","date":"2017-09"},"persistent_id":"bd43489ebc9918d20bb80045376eeef52c1f1e2ef2b34663ca10b0b1e0a6b75f","id":57095267,"location_subtype":"","month":"2017-05"},{"category":"violent-crime","location_type":"Force","location":{"latitude":"51.560841","street":{"id":972026,"name":"On or near Quill Street"},"longitude":"-0.105895"},"context":"","outcome_status":{"category":"Status update unavailable","date":"2017-09"},"persistent_id":"bd43489ebc9918d20bb80045376eeef52c1f1e2ef2b34663ca10b0b1e0a6b75f","id":57095266,"location_subtype":"","month":"2017-05"},{"category":"violent-crime","location_type":"Force","location":{"latitude":"51.560841","street":{"id":972026,"name":"On or near Quill Street"},"longitude":"-0.105895"},"context":"","outcome_status":{"category":"Status update unavailable","date":"2017-09"},"persistent_id":"bd43489ebc9918d20bb80045376eeef52c1f1e2ef2b34663ca10b0b1e0a6b75f","id":57095265,"location_subtype":"","month":"2017-05"},{"category":"violent-crime","location_type":"Force","location":{"latitude":"51.552690","street":{"id":968219,"name":"On or near Benwell Road"},"longitude":"-0.109594"},"context":"","outcome_status":{"category":"Investigation complete; no suspect identified","date":"2017-09"},"persistent_id":"3792274753cf8ee1b8ff9781935a7f06bcf2b0f19d1bc6942f6e5669173e6d47","id":57096877,"location_subtype":"","month":"2017-05"},{"category":"violent-crime","location_type":"Force","location":{"latitude":"51.556709","street":{"id":968215,"name":"On or near Citizen Road"},"longitude":"-0.110091"},"context":"","outcome_status":{"category":"Investigation complete; no suspect identified","date":"2017-08"},"persistent_id":"b93cd227db88166c105f76268568a50ea5a4583ab5096d9154daa6f27fefff12","id":57104482,"location_subtype":"","month":"2017-05"},{"category":"violent-crime","location_type":"Force","location":{"latitude":"51.560841","street":{"id":972026,"name":"On or near Quill Street"},"longitude":"-0.105895"},"context":"","outcome_status":{"category":"Investigation complete; no suspect identified","date":"2017-06"},"persistent_id":"7077908699190bc36548236e38c87cb7fd46bfc7f0234e20a4aed1b0a10a4f19","id":57111405,"location_subtype":"","month":"2017-05"},{"category":"violent-crime","location_type":"Force","location":{"latitude":"51.559375","street":{"id":971932,"name":"On or near Gillespie Road"},"longitude":"-0.102537"},"context":"","outcome_status":{"category":"Investigation complete; no suspect identified","date":"2017-09"},"persistent_id":"9625a76554f7a9257ddb7227b6b4d912e34fe6084fdfdd9de9467b62a56d1862","id":57115117,"location_subtype":"","month":"2017-05"},{"category":"violent-crime","location_type":"Force","location":{"latitude":"51.560841","street":{"id":972026,"name":"On or near Quill Street"},"longitude":"-0.105895"},"context":"","outcome_status":{"category":"Status update unavailable","date":"2017-09"},"persistent_id":"bd43489ebc9918d20bb80045376eeef52c1f1e2ef2b34663ca10b0b1e0a6b75f","id":57095264,"location_subtype":"","month":"2017-05"},{"category":"violent-crime","location_type":"Force","location":{"latitude":"51.554674","street":{"id":968271,"name":"On or near Holloway Road"},"longitude":"-0.114965"},"context":"","outcome_status":{"category":"Investigation complete; no suspect identified","date":"2017-06"},"persistent_id":"95ece8f6bf8f7be3d7fbd8ea5dfc5706935c24763cb5926a599e5291ff3b6986","id":57092632,"location_subtype":"","month":"2017-05"},{"category":"violent-crime","location_type":"Force","location":{"latitude":"51.554227","street":{"id":968427,"name":"On or near Hamilton Lane"},"longitude":"-0.098943"},"context":"","outcome_status":{"category":"Investigation complete; no suspect identified","date":"2017-06"},"persistent_id":"fa90a9f3388d3afe52b611172b884faef655879769a1f751687aedeb34d8e9b9","id":57070382,"location_subtype":"","month":"2017-05"},{"category":"violent-crime","location_type":"Force","location":{"latitude":"51.559780","street":{"id":972082,"name":"On or near Tannington Terrace"},"longitude":"-0.104828"},"context":"","outcome_status":{"category":"Status update unavailable","date":"2017-09"},"persistent_id":"85d8efdc544112c7bfcc333ab97a64e97af2dc8f0665e2c2d0de8abf5ebd227e","id":57074980,"location_subtype":"","month":"2017-05"},{"category":"violent-crime","location_type":"Force","location":{"latitude":"51.555473","street":{"id":968203,"name":"On or near Highbury Hill"},"longitude":"-0.103175"},"context":"","outcome_status":{"category":"Investigation complete; no suspect identified","date":"2017-06"},"persistent_id":"72101347ec9a8578f12922af540feb8ac83eaf176f9bf1080324d8cc063462a7","id":57076838,"location_subtype":"","month":"2017-05"},{"category":"violent-crime","location_type":"Force","location":{"latitude":"51.553646","street":{"id":968326,"name":"On or near Martineau Road"},"longitude":"-0.104160"},"context":"","outcome_status":{"category":"Investigation complete; no suspect identified","date":"2017-07"},"persistent_id":"0a8e9bbc0ce0e7eb5049398c016c68f9d12bf4df60af1f964ddacaf6b343d3e1","id":57076207,"location_subtype":"","month":"2017-05"},{"category":"violent-crime","location_type":"Force","location":{"latitude":"51.556481","street":{"id":968252,"name":"On or near Parking Area"},"longitude":"-0.114905"},"context":"","outcome_status":{"category":"Court case unable to proceed","date":"2017-06"},"persistent_id":"5a62f84c9fd6194db124c6fb1267ed9411ffef17d785e313f59f4944aa8f0827","id":57080721,"location_subtype":"","month":"2017-05"},{"category":"violent-crime","location_type":"Force","location":{"latitude":"51.554674","street":{"id":968271,"name":"On or near Holloway Road"},"longitude":"-0.114965"},"context":"","outcome_status":{"category":"Status update unavailable","date":"2017-09"},"persistent_id":"1807c886b586c3888a0705780e306487a3477256a6837652bce74fe58155e932","id":57103361,"location_subtype":"","month":"2017-05"},{"category":"violent-crime","location_type":"Force","location":{"latitude":"51.563900","street":{"id":972052,"name":"On or near A1201"},"longitude":"-0.105436"},"context":"","outcome_status":{"category":"Offender sent to prison","date":"2017-06"},"persistent_id":"e0db9a5ae1f5f99682fa60bc6b88958aea9f21039980c798de7dfbdb9b3d196d","id":57108576,"location_subtype":"","month":"2017-05"},{"category":"violent-crime","location_type":"Force","location":{"latitude":"51.560841","street":{"id":972026,"name":"On or near Quill Street"},"longitude":"-0.105895"},"context":"","outcome_status":{"category":"Status update unavailable","date":"2017-09"},"persistent_id":"7077908699190bc36548236e38c87cb7fd46bfc7f0234e20a4aed1b0a10a4f19","id":57111404,"location_subtype":"","month":"2017-05"},{"category":"violent-crime","location_type":"Force","location":{"latitude":"51.554291","street":{"id":968224,"name":"On or near Sports\/recreation Area"},"longitude":"-0.108475"},"context":"","outcome_status":{"category":"Status update unavailable","date":"2017-09"},"persistent_id":"08f3f16edfc072f068b8150739d1d88e64f92466a33e4d4d6a272e12a1251593","id":57059725,"location_subtype":"","month":"2017-05"},{"category":"violent-crime","location_type":"Force","location":{"latitude":"51.554291","street":{"id":968224,"name":"On or near Sports\/recreation Area"},"longitude":"-0.108475"},"context":"","outcome_status":{"category":"Status update unavailable","date":"2017-09"},"persistent_id":"08f3f16edfc072f068b8150739d1d88e64f92466a33e4d4d6a272e12a1251593","id":57059724,"location_subtype":"","month":"2017-05"},{"category":"violent-crime","location_type":"Force","location":{"latitude":"51.554291","street":{"id":968224,"name":"On or near Sports\/recreation Area"},"longitude":"-0.108475"},"context":"","outcome_status":{"category":"Status update unavailable","date":"2017-09"},"persistent_id":"08f3f16edfc072f068b8150739d1d88e64f92466a33e4d4d6a272e12a1251593","id":57059723,"location_subtype":"","month":"2017-05"},{"category":"violent-crime","location_type":"Force","location":{"latitude":"51.554674","street":{"id":968271,"name":"On or near Holloway Road"},"longitude":"-0.114965"},"context":"","outcome_status":{"category":"Investigation complete; no suspect identified","date":"2017-05"},"persistent_id":"f46aa9f7ea3f5ec5a6116b6975420b19a82bea37fd23d64141823a1431b78d83","id":57102287,"location_subtype":"","month":"2017-05"},{"category":"violent-crime","location_type":"Force","location":{"latitude":"51.554291","street":{"id":968224,"name":"On or near Sports\/recreation Area"},"longitude":"-0.108475"},"context":"","outcome_status":{"category":"Status update unavailable","date":"2017-09"},"persistent_id":"76469ac11eb3bbdef0dc7e4cb739b78017e4ee3ad23dc8272b2841e34fcb8927","id":57059091,"location_subtype":"","month":"2017-05"},{"category":"violent-crime","location_type":"Force","location":{"latitude":"51.561783","street":{"id":971838,"name":"On or near Vivian Comma Close"},"longitude":"-0.100215"},"context":"","outcome_status":{"category":"Investigation complete; no suspect identified","date":"2018-03"},"persistent_id":"511040a937eceda6fb8c10feeb1e06efbc63e0567080f020437529fc76d1e34a","id":57114365,"location_subtype":"","month":"2017-05"},{"category":"violent-crime","location_type":"Force","location":{"latitude":"51.555848","street":{"id":968176,"name":"On or near Loraine Road"},"longitude":"-0.114743"},"context":"","outcome_status":{"category":"Status update unavailable","date":"2017-09"},"persistent_id":"b407dee6dcb16e57b85468bb86d47009fa326914723538e5a5a416ea510b1d12","id":57086433,"location_subtype":"","month":"2017-05"},{"category":"other-crime","location_type":"Force","location":{"latitude":"51.557030","street":{"id":968226,"name":"On or near Further\/higher Educational Building"},"longitude":"-0.113843"},"context":"","outcome_status":{"category":"Court result unavailable","date":"2017-11"},"persistent_id":"25e9f8de8aaff4e2f06690f463fbf95558f6952c09661eb6310df750a3e1cf1f","id":57065306,"location_subtype":"","month":"2017-05"}]