[{"category":"anti-social-behaviour","location_type":"Force","location":{"latitude":"51.632298","street":{"id":984934,"name":"On or near The Firs"},"longitude":"-0.169056"},"context":"","outcome_status":null,"persistent_id":"","id":48828658,"location_subtype":"","month":"2016-05"},{"category":"anti-social-behaviour","location_type":"Force","location":{"latitude":"51.630339","street":{"id":984943,"name":"On or near Oakleigh Park North"},"longitude":"-0.171404"},"context":"","outcome_status":null,"persistent_id":"","id":48828664,"location_subtype":"","month":"2016-05"},{"category":"anti-social-behaviour","location_type":"Force","location":{"latitude":"51.640306","street":{"id":986563,"name":"On or near Netherlands Road"},"longitude":"-0.170468"},"context":"","outcome_status":null,"persistent_id":"","id":48828676,"location_subtype":"","month":"2016-05"},{"category":"anti-social-behaviour","location_type":"Force","location":{"latitude":"51.623004","street":{"id":984116,"name":"On or near Marlborough Gardens"},"longitude":"-0.154926"},"context":"","outcome_status":null,"persistent_id":"","id":48828598,"location_subtype":"","month":"2016-05"},{"category":"anti-social-behaviour","location_type":"Force","location":{"latitude":"51.621172","street":{"id":984121,"name":"On or near Friars Avenue"},"longitude":"-0.161385"},"context":"","outcome_status":null,"persistent_id":"","id":48828615,"location_subtype":"","month":"2016-05"},{"category":"anti-social-behaviour","location_type":"Force","location":{"latitude":"51.621172","street":{"id":984121,"name":"On or near Friars Avenue"},"longitude":"-0.161385"},"context":"","outcome_status":null,"persistent_id":"","id":48828616,"location_subtype":"","month":"2016-05"},{"category":"anti-social-behaviour","location_type":"Force","location":{"latitude":"51.621172","street":{"id":984121,"name":"On or near Friars Avenue"},"longitude":"-0.161385"},"context":"","outcome_status":null,"persistent_id":"","id":48828617,"location_subtype":"","month":"2016-05"},{"category":"anti-social-behaviour","location_type":"Force","location":{"latitude":"51.626291","street":{"id":985075,"name":"On or near Irvine Close"},"longitude":"-0.163273"},"context":"","outcome_status":null,"persistent_id":"","id":48828620,"location_subtype":"","month":"2016-05"},{"category":"anti-social-behaviour","location_type":"Force","location":{"latitude":"51.641548","street":{"id":986504,"name":"On or near Monks Avenue"},"longitude":"-0.175173"},"context":"","outcome_status":null,"persistent_id":"","id":48828699,"location_subtype":"","month":"2016-05"},{"category":"anti-social-behaviour","location_type":"Force","location":{"latitude":"51.646365","street":{"id":986637,"name":"On or near Western Parade"},"longitude":"-0.187164"},"context":"","outcome_status":null,"persistent_id":"","id":48828908,"location_subtype":"","month":"2016-05"},{"category":"anti-social-behaviour","location_type":"Force","location":{"latitude":"51.649344","street":{"id":986497,"name":"On or near Station Approach"},"longitude":"-0.174021"},"context":"","outcome_status":null,"persistent_id":"","id":48828716,"location_subtype":"","month":"2016-05"},{"category":"anti-social-behaviour","location_type":"Force","location":{"latitude":"51.646018","street":{"id":986507,"name":"On or near Lyonsdown Road"},"longitude":"-0.176959"},"context":"","outcome_status":null,"persistent_id":"","id":48828868,"location_subtype":"","month":"2016-05"},{"category":"anti-social-behaviour","location_type":"Force","location":{"latitude":"51.646018","street":{"id":986507,"name":"On or near Lyonsdown Road"},"longitude":"-0.176959"},"context":"","outcome_status":null,"persistent_id":"","id":48828870,"location_subtype":"","month":"2016-05"},{"category":"anti-social-behaviour","location_type":"Force","location":{"latitude":"51.645511","street":{"id":986516,"name":"On or near Gloucester Road"},"longitude":"-0.178483"},"context":"","outcome_status":null,"persistent_id":"","id":48828877,"location_subtype":"","month":"2016-05"},{"category":"anti-social-behaviour","location_type":"Force","location":{"latitude":"51.643929","street":{"id":986493,"name":"On or near The Fairway"},"longitude":"-0.181422"},"context":"","outcome_status":null,"persistent_id":"","id":48828896,"location_subtype":"","month":"2016-05"},{"category":"anti-social-behaviour","location_type":"Force","location":{"latitude":"51.642026","street":{"id":986515,"name":"On or near Great North Road"},"longitude":"-0.181643"},"context":"","outcome_status":null,"persistent_id":"","id":48828898,"location_subtype":"","month":"2016-05"},{"category":"anti-social-behaviour","location_type":"Force","location":{"latitude":"51.642026","street":{"id":986515,"name":"On or near Great North Road"},"longitude":"-0.181643"},"context":"","outcome_status":null,"persistent_id":"","id":48828899,"location_subtype":"","month":"2016-05"},{"category":"anti-social-behaviour","location_type":"Force","location":{"latitude":"51.644083","street":{"id":986655,"name":"On or near Crofton Way"},"longitude":"-0.184972"},"context":"","outcome_status":null,"persistent_id":"","id":48828905,"location_subtype":"","month":"2016-05"},{"category":"anti-social-behaviour","location_type":"Force","location":{"latitude":"51.646795","street":{"id":986643,"name":"On or near Station Road"},"longitude":"-0.187075"},"context":"","outcome_status":null,"persistent_id":"","id":48828907,"location_subtype":"","month":"2016-05"},{"category":"anti-social-behaviour","location_type":"Force","location":{"latitude":"51.646365","street":{"id":986637,"name":"On or near Western Parade"},"longitude":"-0.187164"},"context":"","outcome_status":null,"persistent_id":"","id":48828909,"location_subtype":"","month":"2016-05"},{"category":"anti-social-behaviour","location_type":"Force","location":{"latitude":"51.646365","street":{"id":986637,"name":"On or near Western Parade"},"longitude":"-0.187164"},"context":"","outcome_status":null,"persistent_id":"","id":48828910,"location_subtype":"","month":"2016-05"},{"category":"anti-social-behaviour","location_type":"Force","location":{"latitude":"51.646365","street":{"id":986637,"name":"On or near Western Parade"},"longitude":"-0.187164"},"context":"","outcome_status":null,"persistent_id":"","id":48828911,"location_subtype":"","month":"2016-05"},{"category":"anti-social-behaviour","location_type":"Force","location":{"latitude":"51.646365","street":{"id":986637,"name":"On or near Western Parade"},"longitude":"-0.187164"},"context":"","outcome_status":null,"persistent_id":"","id":48828912,"location_subtype":"","month":"2016-05"},{"category":"anti-social-behaviour","location_type":"Force","location":{"latitude":"51.646365","street":{"id":986637,"name":"On or near Western Parade"},"longitude":"-0.187164"},"context":"","outcome_status":null,"persistent_id":"","id":48828913,"location_subtype":"","month":"2016-05"},{"category":"anti-social-behaviour","location_type":"Force","location":{"latitude":"51.646365","street":{"id":986637,"name":"On or near Western Parade"},"longitude":"-0.187164"},"context":"","outcome_status":null,"persistent_id":"","id":48828914,"location_subtype":"","month":"2016-05"},{"category":"anti-social-behaviour","location_type":"Force","location":{"latitude":"51.645052","street":{"id":986645,"name":"On or near Raydean Road"},"longitude":"-0.187202"},"context":"","outcome_status":null,"persistent_id":"","id":48828915,"location_subtype":"","month":"2016-05"},{"category":"anti-social-behaviour","location_type":"Force","location":{"latitude":"51.646365","street":{"id":986637,"name":"On or near Western Parade"},"longitude":"-0.187164"},"context":"","outcome_status":null,"persistent_id":"","id":48828924,"location_subtype":"","month":"2016-05"},{"category":"anti-social-behaviour","location_type":"Force","location":{"latitude":"51.645052","street":{"id":986645,"name":"On or near Raydean Road"},"longitude":"-0.187202"},"context":"","outcome_status":null,"persistent_id":"","id":48828926,"location_subtype":"","month":"2016-05"},{"category":"anti-social-behaviour","location_type":"Force","location":{"latitude":"51.646365","street":{"id":986637,"name":"On or near Western Parade"},"longitude":"-0.187164"},"context":"","outcome_status":null,"persistent_id":"","id":48828928,"location_subtype":"","month":"2016-05"},{"category":"anti-social-behaviour","location_type":"Force","location":{"latitude":"51.627699","street":{"id":984962,"name":"On or near Loring Road"},"longitude":"-0.164762"},"context":"","outcome_status":null,"persistent_id":"","id":48828635,"location_subtype":"","month":"2016-05"},{"category":"anti-social-behaviour","location_type":"Force","location":{"latitude":"51.644083","street":{"id":986655,"name":"On or near Crofton Way"},"longitude":"-0.184972"},"context":"","outcome_status":null,"persistent_id":"","id":48828906,"location_subtype":"","month":"2016-05"},{"category":"bicycle-theft","location_type":"Force","location":{"latitude":"51.630273","street":{"id":985067,"name":"On or near Simmons Close"},"longitude":"-0.159688"},"context":"","outcome_status":{"category":"Investigation complete; no suspect identified","date":"2016-07"},"persistent_id":"714669515b02e12221a0cec1bb941c4686ebb6f391b682234822704b22c18925","id":48896711,"location_subtype":"","month":"2016-05"},{"category":"burglary","location_type":"Force","location":{"latitude":"51.630259","street":{"id":984984,"name":"On or near High Road"},"longitude":"-0.174947"},"context":"","outcome_status":{"category":"Status update unavailable","date":"2016-09"},"persistent_id":"1566910bd8d5ae87a089ffd12e6202e75aaca33859166129b2677801a48c9d2c","id":48847613,"location_subtype":"","month":"2016-05"},{"category":"burglary","location_type":"Force","location":{"latitude":"51.625303","street":{"id":985104,"name":"On or near Deodora Close"},"longitude":"-0.159297"},"context":"","outcome_status":{"category":"Investigation complete; no suspect identified","date":"2016-07"},"persistent_id":"4880aa08379ca5f4fd43cd8c078276f380219b643e53b1f61c2a89055dca0020","id":48907176,"location_subtype":"","month":"2016-05"},{"category":"burglary","location_type":"Force","location":{"latitude":"51.634629","street":{"id":984947,"name":"On or near Maryrose Way"},"longitude":"-0.168023"},"context":"","outcome_status":{"category":"Status update unavailable","date":"2016-09"},"persistent_id":"0356db16f8bba78dc4f004ffef074466616f9fee024c5a42002a4536ac666caa","id":48855891,"location_subtype":"","month":"2016-05"},{"category":"burglary","location_type":"Force","location":{"latitude":"51.630103","street":{"id":984944,"name":"On or near Oakleigh Mews"},"longitude":"-0.174202"},"context":"","outcome_status":{"category":"Investigation complete; no suspect identified","date":"2016-07"},"persistent_id":"86c27c0b0af34590736a907b9fb0bafc2c6fd680d586060847b2362fe164d9f5","id":48858031,"location_subtype":"","month":"2016-05"},{"category":"burglary","location_type":"Force","location":{"latitude":"51.639084","street":{"id":986596,"name":"On or near Kingswood Close"},"longitude":"-0.178668"},"context":"","outcome_status":{"category":"Status update unavailable","date":"2016-09"},"persistent_id":"89e9b52b3e4c68a6c92d9f4a02ff1a206409cefc4cedeb618a8b39ea65523d87","id":48862270,"location_subtype":"","month":"2016-05"},{"category":"burglary","location_type":"Force","location":{"latitude":"51.629932","street":{"id":985066,"name":"On or near Simmons' Way"},"longitude":"-0.161508"},"context":"","outcome_status":{"category":"Investigation complete; no suspect identified","date":"2016-07"},"persistent_id":"0ed899689beee99f89814b1ddef039ff91c4b68d2b17de7f7b2f29412a4d9bfb","id":48873639,"location_subtype":"","month":"2016-05"},{"category":"burglary","location_type":"Force","location":{"latitude":"51.640565","street":{"id":986570,"name":"On or near Holyrood Road"},"longitude":"-0.173247"},"context":"","outcome_status":{"category":"Status update unavailable","date":"2016-09"},"persistent_id":"23522e4ddb1e1cebd423e941fdfdbe6e51fa7bfc8ae5d6a49cef56735b3a44f3","id":48877471,"location_subtype":"","month":"2016-05"},{"category":"burglary","location_type":"Force","location":{"latitude":"51.630259","street":{"id":984984,"name":"On or near High Road"},"longitude":"-0.174947"},"context":"","outcome_status":{"category":"Investigation complete; no suspect identified","date":"2016-05"},"persistent_id":"fbd297b092ffbda083618782b98e9fb2b9182e557e65d4624b4b1fe1d0fd3778","id":48878760,"location_subtype":"","month":"2016-05"},{"category":"burglary","location_type":"Force","location":{"latitude":"51.623184","street":{"id":984109,"name":"On or near St James Avenue"},"longitude":"-0.163529"},"context":"","outcome_status":{"category":"Court result unavailable","date":"2017-05"},"persistent_id":"a720307a5f043a146947c4ff2c113aa8c10c20247d1f99f371d9ddd961a570ca","id":48882947,"location_subtype":"","month":"2016-05"},{"category":"burglary","location_type":"Force","location":{"latitude":"51.626133","street":{"id":985073,"name":"On or near Oakleigh Crescent"},"longitude":"-0.161199"},"context":"","outcome_status":{"category":"Investigation complete; no suspect identified","date":"2016-07"},"persistent_id":"06e15329a45f1f841b3bdad4faea8e397797d395a2bb08867c037eb29a50a92a","id":48883888,"location_subtype":"","month":"2016-05"},{"category":"burglary","location_type":"Force","location":{"latitude":"51.644179","street":{"id":986562,"name":"On or near Pank Avenue"},"longitude":"-0.173217"},"context":"","outcome_status":{"category":"Status update unavailable","date":"2016-09"},"persistent_id":"3e0af209ce3513fc700c707f76d7f8c84e2b923b65f67d71e7192b93ad4b104b","id":48884260,"location_subtype":"","month":"2016-05"},{"category":"burglary","location_type":"Force","location":{"latitude":"51.643734","street":{"id":986635,"name":"On or near Wycherley Crescent"},"longitude":"-0.185116"},"context":"","outcome_status":{"category":"Status update unavailable","date":"2016-09"},"persistent_id":"33b444a6ef0c40ec5ae790d6302da56a5946867bfba7d67c02a9f68b881c0f35","id":48897707,"location_subtype":"","month":"2016-05"},{"category":"burglary","location_type":"Force","location":{"latitude":"51.628750","street":{"id":984953,"name":"On or near Cameron Close"},"longitude":"-0.166396"},"context":"","outcome_status":{"category":"Investigation complete; no suspect identified","date":"2017-01"},"persistent_id":"d3fcb2da19b68205d0a26cd53d2863048fbee52b5bad251d9b2ad28c284468ab","id":48902780,"location_subtype":"","month":"2016-05"},{"category":"burglary","location_type":"Force","location":{"latitude":"51.643651","street":{"id":986649,"name":"On or near Ivere Drive"},"longitude":"-0.186145"},"context":"","outcome_status":{"category":"Status update unavailable","date":"2016-09"},"persistent_id":"c94bc26b69d17ec7804922a00283adc8f3be243f833f48a14f1a9391b6a052ed","id":48911163,"location_subtype":"","month":"2016-05"},{"category":"criminal-damage-arson","location_type":"Force","location":{"latitude":"51.641461","street":{"id":986522,"name":"On or near Cherry Hill"},"longitude":"-0.182923"},"context":"","outcome_status":{"category":"Status update unavailable","date":"2016-09"},"persistent_id":"370503c8bc9bab69ae8beb18d4bda3e850187f67329d3207862df3923134b629","id":48886802,"location_subtype":"","month":"2016-05"},{"category":"criminal-damage-arson","location_type":"Force","location":{"latitude":"51.622813","street":{"id":984123,"name":"On or near Bruce Gardens"},"longitude":"-0.156537"},"context":"","outcome_status":{"category":"Status update unavailable","date":"2016-09"},"persistent_id":"f51113e2f6589b0ca2c54df9f3d4aa59ff5c7eb55f00dde1540671fc8ab97653","id":48911872,"location_subtype":"","month":"2016-05"},{"category":"criminal-damage-arson","location_type":"Force","location":{"latitude":"51.626133","street":{"id":985073,"name":"On or near Oakleigh Crescent"},"longitude":"-0.161199"},"context":"","outcome_status":{"category":"Investigation complete; no suspect identified","date":"2016-06"},"persistent_id":"a33c4da8971a9f64715527f1db021faab6c8634120e95b064f7f10e68c84bcae","id":48914244,"location_subtype":"","month":"2016-05"},{"category":"criminal-damage-arson","location_type":"Force","location":{"latitude":"51.642053","street":{"id":986520,"name":"On or near Dale Close"},"longitude":"-0.183420"},"context":"","outcome_status":{"category":"Status update unavailable","date":"2016-09"},"persistent_id":"20b17aa2eebd9e479e80dc57529cb29f47405eff542592ebb8a2657ca5cf5c4c","id":48887201,"location_subtype":"","month":"2016-05"},{"category":"criminal-damage-arson","location_type":"Force","location":{"latitude":"51.629525","street":{"id":985092,"name":"On or near Petrol Station"},"longitude":"-0.159054"},"context":"","outcome_status":{"category":"Status update unavailable","date":"2016-09"},"persistent_id":"ab3ae6584132b2835017d06e890a5e530c3bcd35ddd27f5895a902f87928c7a5","id":48851030,"location_subtype":"","month":"2016-05"},{"category":"criminal-damage-arson","location_type":"Force","location":{"latitude":"51.646365","street":{"id":986637,"name":"On or near Western Parade"},"longitude":"-0.187164"},"context":"","outcome_status":{"category":"Status update unavailable","date":"2016-09"},"persistent_id":"cb9602a046022e94ef06580a0014a3e8bb1cb0a11d86d6f382a925f99e2fc8f0","id":48862116,"location_subtype":"","month":"2016-05"},{"category":"criminal-damage-arson","location_type":"Force","location":{"latitude":"51.646365","street":{"id":986637,"name":"On or near Western Parade"},"longitude":"-0.187164"},"context":"","outcome_status":{"category":"Status update unavailable","date":"2016-09"},"persistent_id":"bcdc1fc75c98b90efd30d2cf8423bf9f966acde1d143c740da03cb12c7fa49b1","id":48895815,"location_subtype":"","month":"2016-05"},{"category":"criminal-damage-arson","location_type":"Force","location":{"latitude":"51.624400","street":{"id":984112,"name":"On or near Porch Way"},"longitude":"-0.157354"},"context":"","outcome_status":{"category":"Status update unavailable","date":"2016-09"},"persistent_id":"11b22e5d9c744e6f720dfb7fbdba8af96cbf7fdb3d9c890d94ea5bfffdb39d9d","id":48907951,"location_subtype":"","month":"2016-05"},{"category":"criminal-damage-arson","location_type":"Force","location":{"latitude":"51.642197","street":{"id":986494,"name":"On or near The Drive"},"longitude":"-0.178196"},"context":"","outcome_status":{"category":"Status update unavailable","date":"2016-09"},"persistent_id":"fe7f188271ce544de9ac5e8dacb0d073cb5d0b6071d5cc217527a366f3906ba7","id":48884014,"location_subtype":"","month":"2016-05"},{"category":"criminal-damage-arson","location_type":"Force","location":{"latitude":"51.630273","street":{"id":985067,"name":"On or near Simmons Close"},"longitude":"-0.159688"},"context":"","outcome_status":{"category":"Investigation complete; no suspect identified","date":"2016-09"},"persistent_id":"2aa732546121daec994f3fae120235a0746d6d5d98b00b3284f1189967ce4146","id":48871445,"location_subtype":"","month":"2016-05"},{"category":"drugs","location_type":"Force","location":{"latitude":"51.630103","street":{"id":984944,"name":"On or near Oakleigh Mews"},"longitude":"-0.174202"},"context":"","outcome_status":{"category":"Offender given a caution","date":"2016-05"},"persistent_id":"4cbb7a8b7c407d6e930c3924b7471080da679fa0d75c6e23011af871b97efb79","id":48861725,"location_subtype":"","month":"2016-05"},{"category":"other-theft","location_type":"Force","location":{"latitude":"51.629525","street":{"id":985092,"name":"On or near Petrol Station"},"longitude":"-0.159054"},"context":"","outcome_status":{"category":"Investigation complete; no suspect identified","date":"2016-05"},"persistent_id":"8cecd68f504ab58c8f037349bf80db873bd157f6c9caf381754034e0aceaa643","id":48888846,"location_subtype":"","month":"2016-05"},{"category":"other-theft","location_type":"Force","location":{"latitude":"51.646958","street":{"id":986659,"name":"On or near Petrol Station"},"longitude":"-0.188919"},"context":"","outcome_status":{"category":"Investigation complete; no suspect identified","date":"2016-05"},"persistent_id":"494c1c6821a923fe77f2e53753f883fa3f4bc4d16d11200247232542ef18b3a1","id":48895797,"location_subtype":"","month":"2016-05"},{"category":"other-theft","location_type":"Force","location":{"latitude":"51.629525","street":{"id":985092,"name":"On or near Petrol Station"},"longitude":"-0.159054"},"context":"","outcome_status":{"category":"Investigation complete; no suspect identified","date":"2016-12"},"persistent_id":"748906e50a9bf2e685b42de97a854c422d74c5cde4c04c65095862e649290b6e","id":48881906,"location_subtype":"","month":"2016-05"},{"category":"other-theft","location_type":"Force","location":{"latitude":"51.630623","street":{"id":984931,"name":"On or near Parking Area"},"longitude":"-0.174094"},"context":"","outcome_status":{"category":"Status update unavailable","date":"2016-09"},"persistent_id":"2b2b61667b01c58c38d136eece53f05973b0b89fe806ae6fcfdf605d016fa528","id":48890340,"location_subtype":"","month":"2016-05"},{"category":"other-theft","location_type":"Force","location":{"latitude":"51.646958","street":{"id":986659,"name":"On or near Petrol Station"},"longitude":"-0.188919"},"context":"","outcome_status":{"category":"Investigation complete; no suspect identified","date":"2016-08"},"persistent_id":"5e2175b14326447ab80fcb1681bd92db70a80a18745eb986f1658a9b680d6244","id":48869596,"location_subtype":"","month":"2016-05"},{"category":"other-theft","location_type":"Force","location":{"latitude":"51.639133","street":{"id":986594,"name":"On or near Holland Close"},"longitude":"-0.169691"},"context":"","outcome_status":{"category":"Status update unavailable","date":"2016-09"},"persistent_id":"08aef55178acf4021421575a26caf65d22ebb813d665a92c818033af7788469a","id":48857996,"location_subtype":"","month":"2016-05"},{"category":"other-theft","location_type":"Force","location":{"latitude":"51.646958","street":{"id":986659,"name":"On or near Petrol Station"},"longitude":"-0.188919"},"context":"","outcome_status":{"category":"Investigation complete; no suspect identified","date":"2016-05"},"persistent_id":"81395ec12a0230441172e20b0b5180c31e88d08874c8491e4920461826c5ac2e","id":48868256,"location_subtype":"","month":"2016-05"},{"category":"other-theft","location_type":"Force","location":{"latitude":"51.638013","street":{"id":985001,"name":"On or near Friern Mount Drive"},"longitude":"-0.174563"},"context":"","outcome_status":{"category":"Investigation complete; no suspect identified","date":"2016-07"},"persistent_id":"71d2e9909bf288766531dd49cbdffe4ead4545a4ca0ba8e7e38eb75d542e2491","id":48883812,"location_subtype":"","month":"2016-05"},{"category":"other-theft","location_type":"Force","location":{"latitude":"51.629525","street":{"id":985092,"name":"On or near Petrol Station"},"longitude":"-0.159054"},"context":"","outcome_status":{"category":"Investigation complete; no suspect identified","date":"2016-05"},"persistent_id":"f9ae6d686624e3cbd963f9d1ace210d87c6ed015885f7988c3347e0b23e5fbfd","id":48898588,"location_subtype":"","month":"2016-05"},{"category":"other-theft","location_type":"Force","location":{"latitude":"51.629525","street":{"id":985092,"name":"On or near Petrol Station"},"longitude":"-0.159054"},"context":"","outcome_status":{"category":"Investigation complete; no suspect identified","date":"2016-06"},"persistent_id":"fc9db8da0b0d411fa876ff7b83dd1aed9c9932ad188db68d31ad13858462ba78","id":48884385,"location_subtype":"","month":"2016-05"},{"category":"other-theft","location_type":"Force","location":{"latitude":"51.623227","street":{"id":984106,"name":"On or near Turners Close"},"longitude":"-0.154223"},"context":"","outcome_status":{"category":"Investigation complete; no suspect identified","date":"2016-07"},"persistent_id":"4f695a3a65facb8bd69aa41b70fbc4365894649f4654c950735101ad035c6198","id":48887126,"location_subtype":"","month":"2016-05"},{"category":"other-theft","location_type":"Force","location":{"latitude":"51.646958","street":{"id":986659,"name":"On or near Petrol Station"},"longitude":"-0.188919"},"context":"","outcome_status":{"category":"Investigation complete; no suspect identified","date":"2016-06"},"persistent_id":"1bcaa9c6e2c30c8cfac2e14eaf76a262fdd6f292dff3f0152120c257cec8970c","id":48860377,"location_subtype":"","month":"2016-05"},{"category":"public-order","location_type":"Force","location":{"latitude":"51.630517","street":{"id":984936,"name":"On or near Shrublands Close"},"longitude":"-0.167250"},"context":"","outcome_status":{"category":"Investigation complete; no suspect identified","date":"2016-10"},"persistent_id":"bbda9529cddc0c4c1619e9b161f53c3b0466bd6edbe346fc95912078fcff101c","id":48878661,"location_subtype":"","month":"2016-05"},{"category":"public-order","location_type":"Force","location":{"latitude":"51.639689","street":{"id":986492,"name":"On or near Walfield Avenue"},"longitude":"-0.181158"},"context":"","outcome_status":{"category":"Investigation complete; no suspect identified","date":"2016-07"},"persistent_id":"83d649fd77ac10a9fdd6b84eb970ad6ed176b5c41d7db07b1833a040d9d4757b","id":48888035,"location_subtype":"","month":"2016-05"},{"category":"public-order","location_type":"Force","location":{"latitude":"51.636271","street":{"id":984968,"name":"On or near Langton Avenue"},"longitude":"-0.172986"},"context":"","outcome_status":{"category":"Investigation complete; no suspect identified","date":"2016-10"},"persistent_id":"e65535b9143e0bb577795a38dd3ab59fc93b7fb0f87a5eb543211b9183f72d86","id":48876731,"location_subtype":"","month":"2016-05"},{"category":"public-order","location_type":"Force","location":{"latitude":"51.627730","street":{"id":985072,"name":"On or near Oakleigh Road North"},"longitude":"-0.162103"},"context":"","outcome_status":{"category":"Investigation complete; no suspect identified","date":"2016-06"},"persistent_id":"5f6827b3d9cc48ffa71d281b384545f979e5ab85250f5fa75def61ebb53da7e8","id":48896392,"location_subtype":"","month":"2016-05"},{"category":"public-order","location_type":"Force","location":{"latitude":"51.636271","street":{"id":984968,"name":"On or near Langton Avenue"},"longitude":"-0.172986"},"context":"","outcome_status":{"category":"Investigation complete; no suspect identified","date":"2016-08"},"persistent_id":"959646c839a16a9cd131d20ade1d26179b86c45175501310003c5f160af91b09","id":48875935,"location_subtype":"","month":"2016-05"},{"category":"public-order","location_type":"Force","location":{"latitude":"51.645029","street":{"id":986598,"name":"On or near Dinsdale Gardens"},"longitude":"-0.183373"},"context":"","outcome_status":{"category":"Investigation complete; no suspect identified","date":"2016-09"},"persistent_id":"ede8c38634f13b9a82eff8bb8a8d36d8843137706e04f179ac992765f86749b7","id":48876428,"location_subtype":"","month":"2016-05"},{"category":"public-order","location_type":"Force","location":{"latitude":"51.645029","street":{"id":986598,"name":"On or near Dinsdale Gardens"},"longitude":"-0.183373"},"context":"","outcome_status":{"category":"Investigation complete; no suspect identified","date":"2016-07"},"persistent_id":"2081cd1704d2c91d41324976744f4db3999f044d51eaa1b81d97324039de4e96","id":48878505,"location_subtype":"","month":"2016-05"},{"category":"robbery","location_type":"Force","location":{"latitude":"51.628535","street":{"id":985070,"name":"On or near Russell Lane"},"longitude":"-0.160148"},"context":"","outcome_status":{"category":"Status update unavailable","date":"2016-09"},"persistent_id":"17c2d8d971d4469cf4096b7ef794434197bdd5e3469589edcd1c87e79c4611ba","id":48851178,"location_subtype":"","month":"2016-05"},{"category":"shoplifting","location_type":"Force","location":{"latitude":"51.649470","street":{"id":986547,"name":"On or near Parking Area"},"longitude":"-0.171703"},"context":"","outcome_status":{"category":"Investigation complete; no suspect identified","date":"2016-07"},"persistent_id":"a7eb86d6862c76b5a4b636f144d2170b5a4d9d0859365665d00a126635ff434e","id":48859350,"location_subtype":"","month":"2016-05"},{"category":"shoplifting","location_type":"Force","location":{"latitude":"51.649470","street":{"id":986547,"name":"On or near Parking Area"},"longitude":"-0.171703"},"context":"","outcome_status":{"category":"Court result unavailable","date":"2017-01"},"persistent_id":"c6b0a0ab504052cb1d2ff57ebb108759399f2455527f6fcba222f05d89b958d0","id":48884688,"location_subtype":"","month":"2016-05"},{"category":"shoplifting","location_type":"Force","location":{"latitude":"51.649470","street":{"id":986547,"name":"On or near Parking Area"},"longitude":"-0.171703"},"context":"","outcome_status":{"category":"Investigation complete; no suspect identified","date":"2016-07"},"persistent_id":"f8783c36cc508af937edf7ceae1ede70922074c6412a36f05fb7e49f5ee1b8dd","id":48843878,"location_subtype":"","month":"2016-05"},{"category":"shoplifting","location_type":"Force","location":{"latitude":"51.646958","street":{"id":986659,"name":"On or near Petrol Station"},"longitude":"-0.188919"},"context":"","outcome_status":{"category":"Investigation complete; no suspect identified","date":"2016-07"},"persistent_id":"10e4d8dc39c875d9d5b634abb247667b54304d5ab12da66d86443102d70d145b","id":48865162,"location_subtype":"","month":"2016-05"},{"category":"theft-from-the-person","location_type":"Force","location":{"latitude":"51.639133","street":{"id":986594,"name":"On or near Holland Close"},"longitude":"-0.169691"},"context":"","outcome_status":{"category":"Status update unavailable","date":"2016-09"},"persistent_id":"29ec6bd3e5c73f7a28ffff192d4ccde0593d10ed552a21984255248281e5a853","id":48874016,"location_subtype":"","month":"2016-05"},{"category":"theft-from-the-person","location_type":"Force","location":{"latitude":"51.646795","street":{"id":986643,"name":"On or near Station Road"},"longitude":"-0.187075"},"context":"","outcome_status":{"category":"Investigation complete; no suspect identified","date":"2016-07"},"persistent_id":"6c47c6eaf414c2b1ea9491b740de5c5d74cd8e94a0528efdd9a2af765effa555","id":48898861,"location_subtype":"","month":"2016-05"},{"category":"vehicle-crime","location_type":"Force","location":{"latitude":"51.630273","street":{"id":985067,"name":"On or near Simmons Close"},"longitude":"-0.159688"},"context":"","outcome_status":{"category":"Investigation complete; no suspect identified","date":"2016-07"},"persistent_id":"efd515c82ef03a1bb6e1ace8d4448f4fdd310ee8e5f1243e96e5cc3db350c1fe","id":48862202,"location_subtype":"","month":"2016-05"},{"category":"vehicle-crime","location_type":"Force","location":{"latitude":"51.630273","street":{"id":985067,"name":"On or near Simmons Close"},"longitude":"-0.159688"},"context":"","outcome_status":{"category":"Investigation complete; no suspect identified","date":"2016-07"},"persistent_id":"7cdf8645a521b14b746f30d54ff84ca62f44cd30311ad10d061e192cbe22dd7a","id":48889927,"location_subtype":"","month":"2016-05"},{"category":"vehicle-crime","location_type":"Force","location":{"latitude":"51.649470","street":{"id":986547,"name":"On or near Parking Area"},"longitude":"-0.171703"},"context":"","outcome_status":{"category":"Status update unavailable","date":"2016-09"},"persistent_id":"f5d2a0608d4052a450937a532530e1a5c64efca79ba54c0f65b3b27a60d71649","id":48871442,"location_subtype":"","month":"2016-05"},{"category":"vehicle-crime","location_type":"Force","location":{"latitude":"51.626614","street":{"id":984938,"name":"On or near Queens Avenue"},"longitude":"-0.167811"},"context":"","outcome_status":{"category":"Status update unavailable","date":"2016-09"},"persistent_id":"ad1b8dba652935e4236d6d07c1f4596a42e8f3557983f8618a26e8501d5c2962","id":48895299,"location_subtype":"","month":"2016-05"},{"category":"vehicle-crime","location_type":"Force","location":{"latitude":"51.636271","street":{"id":984968,"name":"On or near Langton Avenue"},"longitude":"-0.172986"},"context":"","outcome_status":{"category":"Status update unavailable","date":"2016-09"},"persistent_id":"46e099bce42da5c716d52c50c921e12fe175148497a5eb8e393b6c4c0d095dec","id":48903099,"location_subtype":"","month":"2016-05"},{"category":"vehicle-crime","location_type":"Force","location":{"latitude":"51.636271","street":{"id":984968,"name":"On or near Langton Avenue"},"longitude":"-0.172986"},"context":"","outcome_status":{"category":"Status update unavailable","date":"2016-09"},"persistent_id":"38c0b7ffb8215cf21ffb52b68dc6fdee62ab73fd4b8d9b33a5e080fd0e610aeb","id":48892456,"location_subtype":"","month":"2016-05"},{"category":"vehicle-crime","location_type":"Force","location":{"latitude":"51.627364","street":{"id":985088,"name":"On or near Barfield Avenue"},"longitude":"-0.158852"},"context":"","outcome_status":{"category":"Status update unavailable","date":"2016-09"},"persistent_id":"8e6b08557a6929caaa2cf9ee914774dec8ac02ffd47d586afe0155c41053e07a","id":48872250,"location_subtype":"","month":"2016-05"},{"category":"violent-crime","location_type":"Force","location":{"latitude":"51.628750","street":{"id":984953,"name":"On or near Cameron Close"},"longitude":"-0.166396"},"context":"","outcome_status":{"category":"Investigation complete; no suspect identified","date":"2017-01"},"persistent_id":"f3c0e8f672ab6bb85eec607197a07a93c0a6be492f312aed46c1b8aa1c075a2a","id":48909421,"location_subtype":"","month":"2016-05"},{"category":"violent-crime","location_type":"Force","location":{"latitude":"51.646365","street":{"id":986637,"name":"On or near Western Parade"},"longitude":"-0.187164"},"context":"","outcome_status":{"category":"Investigation complete; no suspect identified","date":"2016-06"},"persistent_id":"1976a69467bb0ebc68e4a2036893be7d41c2a5cd5605f9609d5def7fb2015c15","id":48909339,"location_subtype":"","month":"2016-05"},{"category":"violent-crime","location_type":"Force","location":{"latitude":"51.645029","street":{"id":986598,"name":"On or near Dinsdale Gardens"},"longitude":"-0.183373"},"context":"","outcome_status":{"category":"Investigation complete; no suspect identified","date":"2016-06"},"persistent_id":"13fb8a683381ba158172392f86f4a2aa6f40c482854a8ba4d94f56fb904c85de","id":48870514,"location_subtype":"","month":"2016-05"},{"category":"violent-crime","location_type":"Force","location":{"latitude":"51.623184","street":{"id":984109,"name":"On or near St James Avenue"},"longitude":"-0.163529"},"context":"","outcome_status":{"category":"Investigation complete; no suspect identified","date":"2016-09"},"persistent_id":"aa5784a43eb0cfe9fe621cbf6fc9caa8ad944cd0170af47f72e3ddaf58393b0e","id":48871315,"location_subtype":"","month":"2016-05"},{"category":"violent-crime","location_type":"Force","location":{"latitude":"51.645052","street":{"id":986645,"name":"On or near Raydean Road"},"longitude":"-0.187202"},"context":"","outcome_status":{"category":"Offender given suspended prison sentence","date":"2016-08"},"persistent_id":"cab40e66222c08331289dcc081b160ae81b4f0c24ee51acf2216783484531d37","id":48896131,"location_subtype":"","month":"2016-05"},{"category":"violent-crime","location_type":"Force","location":{"latitude":"51.641844","street":{"id":986650,"name":"On or near Hillier Close"},"longitude":"-0.184411"},"context":"","outcome_status":{"category":"Court result unavailable","date":"2017-01"},"persistent_id":"b7bc882e97d26cdf6e369e70bec8f0571ee87135975eeb943789b453c5e41c91","id":48874992,"location_subtype":"","month":"2016-05"},{"category":"violent-crime","location_type":"Force","location":{"latitude":"51.630259","street":{"id":984984,"name":"On or near High Road"},"longitude":"-0.174947"},"context":"","outcome_status":{"category":"Court result unavailable","date":"2016-12"},"persistent_id":"880e807645463f6a9abbf0e70e37184e324fbba28f42deda3e3ef19794951ddd","id":48912841,"location_subtype":"","month":"2016-05"},{"category":"violent-crime","location_type":"Force","location":{"latitude":"51.640293","street":{"id":986523,"name":"On or near Carpenters Close"},"longitude":"-0.181250"},"context":"","outcome_status":{"category":"Investigation complete; no suspect identified","date":"2016-09"},"persistent_id":"a5b3130732fdaae47e4ca7f46381f172ea816fde6a595f808235ca44e7d5bbf4","id":48885917,"location_subtype":"","month":"2016-05"},{"category":"violent-crime","location_type":"Force","location":{"latitude":"51.636578","street":{"id":984998,"name":"On or near Thatcham Gardens"},"longitude":"-0.176500"},"context":"","outcome_status":{"category":"Offender given a caution","date":"2016-05"},"persistent_id":"13ce4f31791f304929b0b0c156a8c51a8dadb760f2246370461fe0db1a10cc93","id":48886356,"location_subtype":"","month":"2016-05"},{"category":"violent-crime","location_type":"Force","location":{"latitude":"51.642026","street":{"id":986515,"name":"On or near Great North Road"},"longitude":"-0.181643"},"context":"","outcome_status":{"category":"Investigation complete; no suspect identified","date":"2016-07"},"persistent_id":"d227ff8604951510135a763b776f489f6ebfcec6a60d5e9a57dd8212951456ca","id":48889407,"location_subtype":"","month":"2016-05"},{"category":"violent-crime","location_type":"Force","location":{"latitude":"51.632708","street":{"id":984988,"name":"On or near Grangeview Road"},"longitude":"-0.174545"},"context":"","outcome_status":{"category":"Investigation complete; no suspect identified","date":"2016-07"},"persistent_id":"a567b78be3da8bc0d41db62d26ddae35ad6271006dddf8d1ce9f3e18822a133d","id":48890473,"location_subtype":"","month":"2016-05"},{"category":"violent-crime","location_type":"Force","location":{"latitude":"51.626614","street":{"id":984938,"name":"On or near Queens Avenue"},"longitude":"-0.167811"},"context":"","outcome_status":{"category":"Investigation complete; no suspect identified","date":"2016-09"},"persistent_id":"d5d6fd32efd24a6b0328a3d638e5f65086dc27dbaf9eaf717f4b078851100033","id":48890402,"location_subtype":"","month":"2016-05"},{"category":"violent-crime","location_type":"Force","location":{"latitude":"51.646018","street":{"id":986507,"name":"On or near Lyonsdown Road"},"longitude":"-0.176959"},"context":"","outcome_status":{"category":"Investigation complete; no suspect identified","date":"2016-10"},"persistent_id":"6edcbab1e0c93eab6909daf76d90a9edbaf2d147c06f27fc558b37083c5d3929","id":48892168,"location_subtype":"","month":"2016-05"},{"category":"violent-crime","location_type":"Force","location":{"latitude":"51.625303","street":{"id":985104,"name":"On or near Deodora Close"},"longitude":"-0.159297"},"context":"","outcome_status":{"category":"Investigation complete; no suspect identified","date":"2016-07"},"persistent_id":"1e2457775a2e09f68879bd1e434e62e898c5cb7af4a56cdc89b106df647cb285","id":48893408,"location_subtype":"","month":"2016-05"},{"category":"violent-crime","location_type":"Force","location":{"latitude":"51.641662","street":{"id":986578,"name":"On or near Dalmeny Road"},"longitude":"-0.173289"},"context":"","outcome_status":{"category":"Investigation complete; no suspect identified","date":"2016-08"},"persistent_id":"a73b7966a2968e9edc8023be7e78ba6f4994ca3524381485ab2c542785c21753","id":48895300,"location_subtype":"","month":"2016-05"},{"category":"violent-crime","location_type":"Force","location":{"latitude":"51.639424","street":{"id":986557,"name":"On or near Stevenson Close"},"longitude":"-0.168119"},"context":"","outcome_status":{"category":"Investigation complete; no suspect identified","date":"2016-07"},"persistent_id":"9b476d2c561c9c0d0cc5ef8a3232db3036559d84bb373bd424de6361623d74e0","id":48883951,"location_subtype":"","month":"2016-05"},{"category":"violent-crime","location_type":"Force","location":{"latitude":"51.628535","street":{"id":985070,"name":"On or near Russell Lane"},"longitude":"-0.160148"},"context":"","outcome_status":{"category":"Investigation complete; no suspect identified","date":"2016-05"},"persistent_id":"98d9b3070ffcef050f3d8d5f52d9a1ac880498433b7fcef59bc1958c5441d9df","id":48900083,"location_subtype":"","month":"2016-05"},{"category":"violent-crime","location_type":"Force","location":{"latitude":"51.625303","street":{"id":985104,"name":"On or near Deodora Close"},"longitude":"-0.159297"},"context":"","outcome_status":{"category":"Investigation complete; no suspect identified","date":"2017-03"},"persistent_id":"61c3f669e222c88d2c63b71c4ec9083ddf7f1a2253d2ac0efeae1c27acb7b988","id":48866541,"location_subtype":"","month":"2016-05"},{"category":"violent-crime","location_type":"Force","location":{"latitude":"51.626133","street":{"id":985073,"name":"On or near Oakleigh Crescent"},"longitude":"-0.161199"},"context":"","outcome_status":{"category":"Investigation complete; no suspect identified","date":"2016-06"},"persistent_id":"de38bc78868677c25b4ca511939baee5d28b23bdb19ab68caf7b19ea26064294","id":48908286,"location_subtype":"","month":"2016-05"}]