[{"category":"anti-social-behaviour","location_type":"Force","location":{"latitude":"51.458239","street":{"id":941757,"name":"On or near Bankwell Road"},"longitude":"0.004769"},"context":"","outcome_status":null,"persistent_id":"","id":62620450,"location_subtype":"","month":"2018-01"},{"category":"anti-social-behaviour","location_type":"Force","location":{"latitude":"51.458239","street":{"id":941757,"name":"On or near Bankwell Road"},"longitude":"0.004769"},"context":"","outcome_status":null,"persistent_id":"","id":62620451,"location_subtype":"","month":"2018-01"},{"category":"anti-social-behaviour","location_type":"Force","location":{"latitude":"51.455935","street":{"id":941719,"name":"On or near Wolfram Close"},"longitude":"0.001717"},"context":"","outcome_status":null,"persistent_id":"","id":62620459,"location_subtype":"","month":"2018-01"},{"category":"anti-social-behaviour","location_type":"Force","location":{"latitude":"51.458356","street":{"id":941740,"name":"On or near Hamlet Close"},"longitude":"0.003680"},"context":"","outcome_status":null,"persistent_id":"","id":62620465,"location_subtype":"","month":"2018-01"},{"category":"anti-social-behaviour","location_type":"Force","location":{"latitude":"51.456486","street":{"id":941926,"name":"On or near Dermody Road"},"longitude":"-0.005298"},"context":"","outcome_status":null,"persistent_id":"","id":62620515,"location_subtype":"","month":"2018-01"},{"category":"anti-social-behaviour","location_type":"Force","location":{"latitude":"51.455110","street":{"id":941907,"name":"On or near Pascoe Road"},"longitude":"-0.004725"},"context":"","outcome_status":null,"persistent_id":"","id":62620507,"location_subtype":"","month":"2018-01"},{"category":"anti-social-behaviour","location_type":"Force","location":{"latitude":"51.458356","street":{"id":941740,"name":"On or near Hamlet Close"},"longitude":"0.003680"},"context":"","outcome_status":null,"persistent_id":"","id":62620464,"location_subtype":"","month":"2018-01"},{"category":"anti-social-behaviour","location_type":"Force","location":{"latitude":"51.457177","street":{"id":941929,"name":"On or near College Park Close"},"longitude":"-0.007326"},"context":"","outcome_status":null,"persistent_id":"","id":62620527,"location_subtype":"","month":"2018-01"},{"category":"anti-social-behaviour","location_type":"Force","location":{"latitude":"51.453856","street":{"id":941952,"name":"On or near Orchid Close"},"longitude":"-0.002390"},"context":"","outcome_status":null,"persistent_id":"","id":62620498,"location_subtype":"","month":"2018-01"},{"category":"anti-social-behaviour","location_type":"Force","location":{"latitude":"51.453273","street":{"id":941833,"name":"On or near Leahurst Road"},"longitude":"-0.000890"},"context":"","outcome_status":null,"persistent_id":"","id":62620497,"location_subtype":"","month":"2018-01"},{"category":"anti-social-behaviour","location_type":"Force","location":{"latitude":"51.453273","street":{"id":941833,"name":"On or near Leahurst Road"},"longitude":"-0.000890"},"context":"","outcome_status":null,"persistent_id":"","id":62620488,"location_subtype":"","month":"2018-01"},{"category":"anti-social-behaviour","location_type":"Force","location":{"latitude":"51.454838","street":{"id":941729,"name":"On or near Manor Park"},"longitude":"-0.000418"},"context":"","outcome_status":null,"persistent_id":"","id":62620487,"location_subtype":"","month":"2018-01"},{"category":"anti-social-behaviour","location_type":"Force","location":{"latitude":"51.457404","street":{"id":941727,"name":"On or near Murillo Road"},"longitude":"0.000457"},"context":"","outcome_status":null,"persistent_id":"","id":62620484,"location_subtype":"","month":"2018-01"},{"category":"anti-social-behaviour","location_type":"Force","location":{"latitude":"51.451637","street":{"id":941834,"name":"On or near Fernbrook Road"},"longitude":"0.002205"},"context":"","outcome_status":null,"persistent_id":"","id":62620478,"location_subtype":"","month":"2018-01"},{"category":"anti-social-behaviour","location_type":"Force","location":{"latitude":"51.458356","street":{"id":941740,"name":"On or near Hamlet Close"},"longitude":"0.003680"},"context":"","outcome_status":null,"persistent_id":"","id":62620466,"location_subtype":"","month":"2018-01"},{"category":"anti-social-behaviour","location_type":"Force","location":{"latitude":"51.455350","street":{"id":941798,"name":"On or near Supermarket"},"longitude":"0.012242"},"context":"","outcome_status":null,"persistent_id":"","id":62620438,"location_subtype":"","month":"2018-01"},{"category":"anti-social-behaviour","location_type":"Force","location":{"latitude":"51.453506","street":{"id":941822,"name":"On or near Burnt Ash Road"},"longitude":"0.011772"},"context":"","outcome_status":null,"persistent_id":"","id":62620440,"location_subtype":"","month":"2018-01"},{"category":"anti-social-behaviour","location_type":"Force","location":{"latitude":"51.446619","street":{"id":940464,"name":"On or near Birch Grove"},"longitude":"0.010621"},"context":"","outcome_status":null,"persistent_id":"","id":62620441,"location_subtype":"","month":"2018-01"},{"category":"anti-social-behaviour","location_type":"Force","location":{"latitude":"51.446619","street":{"id":940464,"name":"On or near Birch Grove"},"longitude":"0.010621"},"context":"","outcome_status":null,"persistent_id":"","id":62620442,"location_subtype":"","month":"2018-01"},{"category":"anti-social-behaviour","location_type":"Force","location":{"latitude":"51.456861","street":{"id":941783,"name":"On or near Lampmead Road"},"longitude":"0.007515"},"context":"","outcome_status":null,"persistent_id":"","id":62620449,"location_subtype":"","month":"2018-01"},{"category":"anti-social-behaviour","location_type":"Force","location":{"latitude":"51.457150","street":{"id":941902,"name":"On or near Trinity Close"},"longitude":"-0.005744"},"context":"","outcome_status":null,"persistent_id":"","id":62620522,"location_subtype":"","month":"2018-01"},{"category":"bicycle-theft","location_type":"BTP","location":{"latitude":"51.452623","street":{"id":1490143,"name":"Hither Green (station)"},"longitude":"-0.001220"},"context":"","outcome_status":{"category":"Status update unavailable","date":"2018-05"},"persistent_id":"","id":66320375,"location_subtype":"STATION","month":"2018-01"},{"category":"bicycle-theft","location_type":"Force","location":{"latitude":"51.456399","street":{"id":941730,"name":"On or near Manor Lane Terrace"},"longitude":"0.001953"},"context":"","outcome_status":{"category":"Status update unavailable","date":"2018-05"},"persistent_id":"faffd4708321a6b501c46a7b9ddad91fa6aa94466b67f80c7e6553835d1fdd13","id":62685342,"location_subtype":"","month":"2018-01"},{"category":"bicycle-theft","location_type":"BTP","location":{"latitude":"51.452623","street":{"id":1490143,"name":"Hither Green (station)"},"longitude":"-0.001220"},"context":"","outcome_status":{"category":"Status update unavailable","date":"2018-05"},"persistent_id":"","id":66320376,"location_subtype":"STATION","month":"2018-01"},{"category":"bicycle-theft","location_type":"Force","location":{"latitude":"51.456075","street":{"id":941795,"name":"On or near Brightfield Road"},"longitude":"0.007754"},"context":"","outcome_status":{"category":"Status update unavailable","date":"2018-05"},"persistent_id":"c6d01ab401472d427aab5b7bf91c4fc63f7f5453b2dc28e7be602108002a9166","id":62642435,"location_subtype":"","month":"2018-01"},{"category":"bicycle-theft","location_type":"Force","location":{"latitude":"51.452277","street":{"id":941944,"name":"On or near Pedestrian Subway"},"longitude":"-0.001538"},"context":"","outcome_status":{"category":"Status update unavailable","date":"2018-05"},"persistent_id":"a2691d00aa7511678721f43144d5319f459a792b040ac44ef32585061ea1576d","id":62670593,"location_subtype":"","month":"2018-01"},{"category":"burglary","location_type":"Force","location":{"latitude":"51.446450","street":{"id":940449,"name":"On or near Parkcroft Road"},"longitude":"0.008411"},"context":"","outcome_status":{"category":"Status update unavailable","date":"2018-05"},"persistent_id":"65e303e7f82f5ec28e3c5bf33a43404936f66ad938f05658f61b8aa0cc009379","id":62690809,"location_subtype":"","month":"2018-01"},{"category":"burglary","location_type":"Force","location":{"latitude":"51.452111","street":{"id":941816,"name":"On or near Micheldever Road"},"longitude":"0.008688"},"context":"","outcome_status":{"category":"Status update unavailable","date":"2018-05"},"persistent_id":"e456d69f2eaf0aad06a07616798011c9e5af59f2cd1a053707c64340e5c61a48","id":62646228,"location_subtype":"","month":"2018-01"},{"category":"burglary","location_type":"Force","location":{"latitude":"51.451768","street":{"id":941831,"name":"On or near Manor Lane"},"longitude":"0.005579"},"context":"","outcome_status":{"category":"Status update unavailable","date":"2018-05"},"persistent_id":"55682fab0b6bd673b8a403437a9b1e6a3fd17a801d8ee30ef6b4a75fbf61c54c","id":62690743,"location_subtype":"","month":"2018-01"},{"category":"burglary","location_type":"Force","location":{"latitude":"51.457706","street":{"id":941779,"name":"On or near Lenham Road"},"longitude":"0.007034"},"context":"","outcome_status":{"category":"Status update unavailable","date":"2018-05"},"persistent_id":"10f57676d7347c5ea51b4b9dcc4543ee06ca763dc2c3d8d4c2f948e086d962ec","id":62690904,"location_subtype":"","month":"2018-01"},{"category":"burglary","location_type":"Force","location":{"latitude":"51.449139","street":{"id":940460,"name":"On or near Holme Lacey Road"},"longitude":"0.009465"},"context":"","outcome_status":{"category":"Investigation complete; no suspect identified","date":"2018-03"},"persistent_id":"1cf16b2e95da79bbcb8612b244db6f6b881583924ea537e29e9068068ef6abb8","id":62695204,"location_subtype":"","month":"2018-01"},{"category":"burglary","location_type":"Force","location":{"latitude":"51.454504","street":{"id":941765,"name":"On or near Wimborne Close"},"longitude":"0.009686"},"context":"","outcome_status":{"category":"Status update unavailable","date":"2018-05"},"persistent_id":"c79b1b2afaee1603c46d1c551236b057f597f761ca03f47754178d58e3d334fe","id":62693034,"location_subtype":"","month":"2018-01"},{"category":"burglary","location_type":"Force","location":{"latitude":"51.451024","street":{"id":941811,"name":"On or near Southbrook Road"},"longitude":"0.009145"},"context":"","outcome_status":{"category":"Status update unavailable","date":"2018-05"},"persistent_id":"4ffa5ae98295e1689414336db3591fa7b81732168678a7b963a425d28f8bf35d","id":62692289,"location_subtype":"","month":"2018-01"},{"category":"burglary","location_type":"Force","location":{"latitude":"51.448407","street":{"id":940462,"name":"On or near Dallinger Road"},"longitude":"0.009116"},"context":"","outcome_status":{"category":"Status update unavailable","date":"2018-05"},"persistent_id":"77a82cbd4b965032f26d8112103b60346fc72b84f9dca85607785cffb587e37c","id":62638809,"location_subtype":"","month":"2018-01"},{"category":"burglary","location_type":"Force","location":{"latitude":"51.456161","street":{"id":923972,"name":"On or near Supermarket"},"longitude":"0.010075"},"context":"","outcome_status":{"category":"Status update unavailable","date":"2018-05"},"persistent_id":"704f9727f77cfad827ff3b5016fb9d2e54162ddaf9da1ec44db0ac48d09341ba","id":62660304,"location_subtype":"","month":"2018-01"},{"category":"burglary","location_type":"Force","location":{"latitude":"51.456861","street":{"id":941783,"name":"On or near Lampmead Road"},"longitude":"0.007515"},"context":"","outcome_status":{"category":"Status update unavailable","date":"2018-05"},"persistent_id":"92d2882c53cfe9f5624b2789a857ddbc6380896068bc07c1c181a498af7801fa","id":62659244,"location_subtype":"","month":"2018-01"},{"category":"burglary","location_type":"Force","location":{"latitude":"51.456161","street":{"id":923972,"name":"On or near Supermarket"},"longitude":"0.010075"},"context":"","outcome_status":{"category":"Status update unavailable","date":"2018-05"},"persistent_id":"eaa65157104ef88c3e06db0c5d1a7e58527c60211ca4b49979c368490ad37707","id":62634691,"location_subtype":"","month":"2018-01"},{"category":"criminal-damage-arson","location_type":"Force","location":{"latitude":"51.453506","street":{"id":941822,"name":"On or near Burnt Ash Road"},"longitude":"0.011772"},"context":"","outcome_status":{"category":"Status update unavailable","date":"2018-05"},"persistent_id":"df37828ff67c4232c69b3419ce6cbbd26742b641becb57d27a43f8916fb09df1","id":62652548,"location_subtype":"","month":"2018-01"},{"category":"criminal-damage-arson","location_type":"Force","location":{"latitude":"51.453073","street":{"id":941832,"name":"On or near Longhurst Road"},"longitude":"0.001333"},"context":"","outcome_status":{"category":"Status update unavailable","date":"2018-05"},"persistent_id":"847f9d9827ca443f893978b0be89ef251fffb01b9a7cb76af6082cc0eae959b8","id":62667654,"location_subtype":"","month":"2018-01"},{"category":"criminal-damage-arson","location_type":"Force","location":{"latitude":"51.455218","street":{"id":941790,"name":"On or near Falmouth Close"},"longitude":"0.010509"},"context":"","outcome_status":{"category":"Investigation complete; no suspect identified","date":"2018-01"},"persistent_id":"72e18f6ea83699fdddf48bf0b15cf8d05a9d646d04662d18624ec20824d39d35","id":62678164,"location_subtype":"","month":"2018-01"},{"category":"criminal-damage-arson","location_type":"Force","location":{"latitude":"51.453314","street":{"id":941817,"name":"On or near Leyland Road"},"longitude":"0.014009"},"context":"","outcome_status":{"category":"Status update unavailable","date":"2018-05"},"persistent_id":"1a1560a3a5f1a5bf47e0c77615d368d406fe09e2e47ea513ae5a7c76ebba9035","id":62666477,"location_subtype":"","month":"2018-01"},{"category":"criminal-damage-arson","location_type":"Force","location":{"latitude":"51.454838","street":{"id":941729,"name":"On or near Manor Park"},"longitude":"-0.000418"},"context":"","outcome_status":{"category":"Investigation complete; no suspect identified","date":"2018-01"},"persistent_id":"ea9324afba5d297fa2d745f9e804663eaecc5cea5e99867076ec67c1c555b407","id":62688739,"location_subtype":"","month":"2018-01"},{"category":"criminal-damage-arson","location_type":"Force","location":{"latitude":"51.446619","street":{"id":940464,"name":"On or near Birch Grove"},"longitude":"0.010621"},"context":"","outcome_status":{"category":"Status update unavailable","date":"2018-05"},"persistent_id":"53a67e4e35e0e8d3f939a90c1c7a5334ca61ce9cb292b608aead4fd8cfe34040","id":62688743,"location_subtype":"","month":"2018-01"},{"category":"criminal-damage-arson","location_type":"Force","location":{"latitude":"51.453073","street":{"id":941832,"name":"On or near Longhurst Road"},"longitude":"0.001333"},"context":"","outcome_status":{"category":"Status update unavailable","date":"2018-05"},"persistent_id":"77f6f3e3d7148805ccaddc44cffc9cd8d9036522b167a783f32479acd3aa8888","id":62667356,"location_subtype":"","month":"2018-01"},{"category":"drugs","location_type":"Force","location":{"latitude":"51.453856","street":{"id":941952,"name":"On or near Orchid Close"},"longitude":"-0.002390"},"context":"","outcome_status":{"category":"Investigation complete; no suspect identified","date":"2018-02"},"persistent_id":"855db12d4a74596289e6cce925ae06abbe1f0ef28c7de4f5b8bf6866e36e8544","id":62672736,"location_subtype":"","month":"2018-01"},{"category":"drugs","location_type":"Force","location":{"latitude":"51.451059","street":{"id":941824,"name":"On or near Buckden Close"},"longitude":"0.013363"},"context":"","outcome_status":{"category":"Offender given a caution","date":"2018-03"},"persistent_id":"849b089d966d5b6e506d646c13854cb381ce55d5d7f4b070f57f6ef9b68a5f73","id":62692165,"location_subtype":"","month":"2018-01"},{"category":"drugs","location_type":"Force","location":{"latitude":"51.455350","street":{"id":941798,"name":"On or near Supermarket"},"longitude":"0.012242"},"context":"","outcome_status":{"category":"Offender given a drugs possession warning","date":"2018-01"},"persistent_id":"609789800200af101443e018ac55407d8d00047dc2f143acb168e04a0b2141a8","id":62692554,"location_subtype":"","month":"2018-01"},{"category":"drugs","location_type":"Force","location":{"latitude":"51.458356","street":{"id":941740,"name":"On or near Hamlet Close"},"longitude":"0.003680"},"context":"","outcome_status":{"category":"Offender sent to prison","date":"2018-02"},"persistent_id":"7b84da47acf61de1edcddc5a46f502a9944f0cce6eacac325af703c627087047","id":62676957,"location_subtype":"","month":"2018-01"},{"category":"drugs","location_type":"Force","location":{"latitude":"51.448284","street":{"id":940463,"name":"On or near Burnt Ash Hill"},"longitude":"0.013169"},"context":"","outcome_status":{"category":"Offender given penalty notice","date":"2018-01"},"persistent_id":"9fc44a3f661b91d1eef39bb8164215c0445da37b6102d25bc898346697e2aa45","id":62688813,"location_subtype":"","month":"2018-01"},{"category":"drugs","location_type":"Force","location":{"latitude":"51.455350","street":{"id":941798,"name":"On or near Supermarket"},"longitude":"0.012242"},"context":"","outcome_status":{"category":"Offender given a drugs possession warning","date":"2018-01"},"persistent_id":"0b04aa56439453c39c494d2258b169e3958fb51eee499a6d203b2577763d9910","id":62692016,"location_subtype":"","month":"2018-01"},{"category":"other-theft","location_type":"Force","location":{"latitude":"51.451768","street":{"id":941831,"name":"On or near Manor Lane"},"longitude":"0.005579"},"context":"","outcome_status":{"category":"Status update unavailable","date":"2018-05"},"persistent_id":"a1708f9db9adb5c52edfc15626e599a20d3244048674211382c70122c45ff410","id":62654277,"location_subtype":"","month":"2018-01"},{"category":"other-theft","location_type":"Force","location":{"latitude":"51.456486","street":{"id":941926,"name":"On or near Dermody Road"},"longitude":"-0.005298"},"context":"","outcome_status":{"category":"Investigation complete; no suspect identified","date":"2018-05"},"persistent_id":"de8fd49cfc1794130b5b4af9c56408807bef360e1e3b41d4ced86f2ddf3345ae","id":62672070,"location_subtype":"","month":"2018-01"},{"category":"other-theft","location_type":"Force","location":{"latitude":"51.457960","street":{"id":941732,"name":"On or near Lochaber Road"},"longitude":"0.002151"},"context":"","outcome_status":{"category":"Status update unavailable","date":"2018-05"},"persistent_id":"62e4eecde47aa3b25ad18150a1c0ec61da65544d27204b6a8ccfd63e38efa408","id":62655236,"location_subtype":"","month":"2018-01"},{"category":"other-theft","location_type":"Force","location":{"latitude":"51.455218","street":{"id":941790,"name":"On or near Falmouth Close"},"longitude":"0.010509"},"context":"","outcome_status":{"category":"Investigation complete; no suspect identified","date":"2018-01"},"persistent_id":"a5126f1f59cdd0aeba8b4b09637a131ba48f303ba1988336f1b96c4b68cee4a6","id":62671529,"location_subtype":"","month":"2018-01"},{"category":"other-theft","location_type":"Force","location":{"latitude":"51.447221","street":{"id":940456,"name":"On or near Newstead Road"},"longitude":"0.008013"},"context":"","outcome_status":{"category":"Status update unavailable","date":"2018-05"},"persistent_id":"e8cf512bb7316eb81a66575c38d274fc1525632b85e8aa5446df9792869c9566","id":62642327,"location_subtype":"","month":"2018-01"},{"category":"other-theft","location_type":"Force","location":{"latitude":"51.456161","street":{"id":923972,"name":"On or near Supermarket"},"longitude":"0.010075"},"context":"","outcome_status":{"category":"Status update unavailable","date":"2018-05"},"persistent_id":"2a092e3f268e6e78db00aef442b832cc7fd37814a4ebd1b7252651e7505f3f48","id":62666304,"location_subtype":"","month":"2018-01"},{"category":"other-theft","location_type":"Force","location":{"latitude":"51.455350","street":{"id":941798,"name":"On or near Supermarket"},"longitude":"0.012242"},"context":"","outcome_status":{"category":"Status update unavailable","date":"2018-05"},"persistent_id":"2ffcc08b2f48d70bed3fde2dc8faf3a5c85aa45eab468b769f00fe714b0c6bda","id":62665701,"location_subtype":"","month":"2018-01"},{"category":"other-theft","location_type":"Force","location":{"latitude":"51.456050","street":{"id":941927,"name":"On or near Dermody Gardens"},"longitude":"-0.006109"},"context":"","outcome_status":{"category":"Status update unavailable","date":"2018-05"},"persistent_id":"a0fa38e8f3e21b8136b2f9b09fc7ca8053b7cddea9b43f3e4fd05857bb1c32c2","id":62635747,"location_subtype":"","month":"2018-01"},{"category":"other-theft","location_type":"Force","location":{"latitude":"51.457344","street":{"id":941758,"name":"On or near Aislibie Road"},"longitude":"0.006097"},"context":"","outcome_status":{"category":"Investigation complete; no suspect identified","date":"2018-02"},"persistent_id":"ba8d9155cc3837c78d9c380c9fce51e9e04219a610bc390be13261978fb0d1d3","id":62665950,"location_subtype":"","month":"2018-01"},{"category":"other-theft","location_type":"BTP","location":{"latitude":"51.452623","street":{"id":1490143,"name":"Hither Green (station)"},"longitude":"-0.001220"},"context":"","outcome_status":{"category":"Status update unavailable","date":"2018-05"},"persistent_id":"","id":66320372,"location_subtype":"STATION","month":"2018-01"},{"category":"other-theft","location_type":"Force","location":{"latitude":"51.453999","street":{"id":941792,"name":"On or near Effingham Road"},"longitude":"0.008152"},"context":"","outcome_status":{"category":"Status update unavailable","date":"2018-05"},"persistent_id":"30ecf5ded40b1df22f4adee8e249326564cbf179e7ec6e65bb091cac75fb0e6a","id":62683472,"location_subtype":"","month":"2018-01"},{"category":"possession-of-weapons","location_type":"Force","location":{"latitude":"51.456161","street":{"id":923972,"name":"On or near Supermarket"},"longitude":"0.010075"},"context":"","outcome_status":{"category":"Investigation complete; no suspect identified","date":"2018-02"},"persistent_id":"3a5f8bf35559a5440473070606a4e499f55b5d9907ad1e6a07713e24e9c1f85a","id":62647140,"location_subtype":"","month":"2018-01"},{"category":"possession-of-weapons","location_type":"Force","location":{"latitude":"51.458356","street":{"id":941740,"name":"On or near Hamlet Close"},"longitude":"0.003680"},"context":"","outcome_status":{"category":"Awaiting court outcome","date":"2018-02"},"persistent_id":"3813ea601e6ef0738de58fb016a6350a166ba6b0a5e3daa90a8d7c67a05bb765","id":62686349,"location_subtype":"","month":"2018-01"},{"category":"public-order","location_type":"BTP","location":{"latitude":"51.452623","street":{"id":1490143,"name":"Hither Green (station)"},"longitude":"-0.001220"},"context":"","outcome_status":{"category":"Status update unavailable","date":"2018-05"},"persistent_id":"","id":66320373,"location_subtype":"STATION","month":"2018-01"},{"category":"public-order","location_type":"BTP","location":{"latitude":"51.452623","street":{"id":1490143,"name":"Hither Green (station)"},"longitude":"-0.001220"},"context":"","outcome_status":{"category":"Status update unavailable","date":"2018-05"},"persistent_id":"","id":66320374,"location_subtype":"STATION","month":"2018-01"},{"category":"public-order","location_type":"Force","location":{"latitude":"51.447221","street":{"id":940456,"name":"On or near Newstead Road"},"longitude":"0.008013"},"context":"","outcome_status":{"category":"Investigation complete; no suspect identified","date":"2018-05"},"persistent_id":"8eb31c91b172d03a115b2991b0b1a332b2cead295c596e9173e379e7d8789e65","id":62662444,"location_subtype":"","month":"2018-01"},{"category":"robbery","location_type":"Force","location":{"latitude":"51.455196","street":{"id":941737,"name":"On or near Kellerton Road"},"longitude":"0.001828"},"context":"","outcome_status":{"category":"Investigation complete; no suspect identified","date":"2018-02"},"persistent_id":"6efa4e6c58c55b83ba48ab3d671b5772dd581ee5b0304cfc4b765ffb190f2fed","id":62638445,"location_subtype":"","month":"2018-01"},{"category":"robbery","location_type":"Force","location":{"latitude":"51.455660","street":{"id":941784,"name":"On or near Hedgley Street"},"longitude":"0.008873"},"context":"","outcome_status":{"category":"Investigation complete; no suspect identified","date":"2018-02"},"persistent_id":"988dc73a82a1ec52a2a2c7a08859a69cba0433b40212fa7092dff01140bf3130","id":62660655,"location_subtype":"","month":"2018-01"},{"category":"robbery","location_type":"Force","location":{"latitude":"51.455018","street":{"id":941762,"name":"On or near Parking Area"},"longitude":"0.012731"},"context":"","outcome_status":{"category":"Awaiting court outcome","date":"2018-04"},"persistent_id":"e221e5dac59a5ac85723f5e5b6fc42b2b4e942674856bc46d2fcfdcce88ae98f","id":62666786,"location_subtype":"","month":"2018-01"},{"category":"robbery","location_type":"Force","location":{"latitude":"51.455660","street":{"id":941784,"name":"On or near Hedgley Street"},"longitude":"0.008873"},"context":"","outcome_status":{"category":"Status update unavailable","date":"2018-05"},"persistent_id":"988dc73a82a1ec52a2a2c7a08859a69cba0433b40212fa7092dff01140bf3130","id":62660654,"location_subtype":"","month":"2018-01"},{"category":"robbery","location_type":"Force","location":{"latitude":"51.447048","street":{"id":940465,"name":"On or near Anne Compton Mews"},"longitude":"0.010755"},"context":"","outcome_status":{"category":"Status update unavailable","date":"2018-05"},"persistent_id":"cf49ed9b82192d95da35ae975eb1e74681c9f81d50c5bc667862568c93be762c","id":62672655,"location_subtype":"","month":"2018-01"},{"category":"robbery","location_type":"Force","location":{"latitude":"51.454699","street":{"id":941718,"name":"On or near Chalcroft Road"},"longitude":"0.002454"},"context":"","outcome_status":{"category":"Investigation complete; no suspect identified","date":"2018-03"},"persistent_id":"0bfe67af13e2503610f8a25d60a5e912e4543d9b2348bc2ce8800658b645e613","id":62666287,"location_subtype":"","month":"2018-01"},{"category":"shoplifting","location_type":"Force","location":{"latitude":"51.456161","street":{"id":923972,"name":"On or near Supermarket"},"longitude":"0.010075"},"context":"","outcome_status":{"category":"Status update unavailable","date":"2018-05"},"persistent_id":"516952a7086eacc4cb833116ae725c05675ac537463f7d500b97376627255886","id":62667853,"location_subtype":"","month":"2018-01"},{"category":"shoplifting","location_type":"Force","location":{"latitude":"51.456161","street":{"id":923972,"name":"On or near Supermarket"},"longitude":"0.010075"},"context":"","outcome_status":{"category":"Investigation complete; no suspect identified","date":"2018-03"},"persistent_id":"546abad24230231f0cfe9a55e9c9b881db04712a1ef7dc93c92ac170252d0006","id":62663973,"location_subtype":"","month":"2018-01"},{"category":"shoplifting","location_type":"Force","location":{"latitude":"51.448284","street":{"id":940463,"name":"On or near Burnt Ash Hill"},"longitude":"0.013169"},"context":"","outcome_status":{"category":"Status update unavailable","date":"2018-05"},"persistent_id":"08f9d17689614b318665562631929965a7164cd0ab80418d669299d6f1c46385","id":62651848,"location_subtype":"","month":"2018-01"},{"category":"shoplifting","location_type":"Force","location":{"latitude":"51.456161","street":{"id":923972,"name":"On or near Supermarket"},"longitude":"0.010075"},"context":"","outcome_status":{"category":"Investigation complete; no suspect identified","date":"2018-02"},"persistent_id":"7eec482fa21164cae2f4e70f01a0938fa84ca88e25350f1ad955feaef36c56b9","id":62645637,"location_subtype":"","month":"2018-01"},{"category":"vehicle-crime","location_type":"Force","location":{"latitude":"51.455646","street":{"id":941791,"name":"On or near Eltham Road"},"longitude":"0.014385"},"context":"","outcome_status":{"category":"Status update unavailable","date":"2018-05"},"persistent_id":"350e6bb5e5c3f39a4c572b84d9fd15142702c34d1ab9f0cedf7e7f0430d4ce8b","id":62672839,"location_subtype":"","month":"2018-01"},{"category":"vehicle-crime","location_type":"Force","location":{"latitude":"51.455350","street":{"id":941798,"name":"On or near Supermarket"},"longitude":"0.012242"},"context":"","outcome_status":{"category":"Status update unavailable","date":"2018-05"},"persistent_id":"568534039c2461ad61f27538b310f09ac79adfc87875006bcca7e9ff4e950b25","id":62652422,"location_subtype":"","month":"2018-01"},{"category":"vehicle-crime","location_type":"Force","location":{"latitude":"51.457960","street":{"id":941732,"name":"On or near Lochaber Road"},"longitude":"0.002151"},"context":"","outcome_status":{"category":"Status update unavailable","date":"2018-05"},"persistent_id":"7db9f631938443d501a3c9401b38ed7fd54317a0861653c8479e6a9424d6379d","id":62636763,"location_subtype":"","month":"2018-01"},{"category":"vehicle-crime","location_type":"Force","location":{"latitude":"51.455935","street":{"id":941719,"name":"On or near Wolfram Close"},"longitude":"0.001717"},"context":"","outcome_status":{"category":"Status update unavailable","date":"2018-05"},"persistent_id":"3e2e1aea6dc42643c09c23c6ae5c523b59d5e8dc46a148b395d5809e7ce67eb3","id":62684623,"location_subtype":"","month":"2018-01"},{"category":"vehicle-crime","location_type":"Force","location":{"latitude":"51.457952","street":{"id":941722,"name":"On or near Rembrandt Road"},"longitude":"-0.000009"},"context":"","outcome_status":{"category":"Status update unavailable","date":"2018-05"},"persistent_id":"bb1a8e4669b7158c0f193c489e1b8b66efccd66d70eecab2827f3a435d48fdb3","id":62682048,"location_subtype":"","month":"2018-01"},{"category":"vehicle-crime","location_type":"Force","location":{"latitude":"51.457960","street":{"id":941732,"name":"On or near Lochaber Road"},"longitude":"0.002151"},"context":"","outcome_status":{"category":"Status update unavailable","date":"2018-05"},"persistent_id":"739f1a36d595fd22e75ae9df71df15d2116e8ee88cf04251ecf09bb8301d3302","id":62682744,"location_subtype":"","month":"2018-01"},{"category":"vehicle-crime","location_type":"Force","location":{"latitude":"51.450805","street":{"id":941810,"name":"On or near Upwood Road"},"longitude":"0.016115"},"context":"","outcome_status":{"category":"Status update unavailable","date":"2018-05"},"persistent_id":"5ca1864644fb9b6999fce7cb86002966de42a39b0fc18321bca8fdb2c11c8e97","id":62656498,"location_subtype":"","month":"2018-01"},{"category":"vehicle-crime","location_type":"Force","location":{"latitude":"51.452979","street":{"id":941819,"name":"On or near Handen Road"},"longitude":"0.008410"},"context":"","outcome_status":{"category":"Status update unavailable","date":"2018-05"},"persistent_id":"b879bf44a9eec454a62ffacbd54eeeeb0324dfc37fa0bab3bb4e4a287f089e21","id":62632757,"location_subtype":"","month":"2018-01"},{"category":"vehicle-crime","location_type":"Force","location":{"latitude":"51.453073","street":{"id":941832,"name":"On or near Longhurst Road"},"longitude":"0.001333"},"context":"","outcome_status":{"category":"Status update unavailable","date":"2018-05"},"persistent_id":"24b88d3e5f2ddab2156752f89a73861183ce64a4a9426bf606a5d2f205398822","id":62663524,"location_subtype":"","month":"2018-01"},{"category":"vehicle-crime","location_type":"Force","location":{"latitude":"51.455196","street":{"id":941737,"name":"On or near Kellerton Road"},"longitude":"0.001828"},"context":"","outcome_status":{"category":"Status update unavailable","date":"2018-05"},"persistent_id":"afe09e057eddd6c7d177c2cbebda76590714f8bc92ecfe3d4897879c79e46be0","id":62631324,"location_subtype":"","month":"2018-01"},{"category":"vehicle-crime","location_type":"Force","location":{"latitude":"51.453073","street":{"id":941832,"name":"On or near Longhurst Road"},"longitude":"0.001333"},"context":"","outcome_status":{"category":"Status update unavailable","date":"2018-05"},"persistent_id":"a18dba702276aed03326c2970746e47c43ab51c72ce245e4d7ad18420e90940f","id":62676596,"location_subtype":"","month":"2018-01"},{"category":"vehicle-crime","location_type":"Force","location":{"latitude":"51.446124","street":{"id":940480,"name":"On or near Petrol Station"},"longitude":"0.004367"},"context":"","outcome_status":{"category":"Status update unavailable","date":"2018-05"},"persistent_id":"4f64832faf8df7f8635e49f428ff8857928fbe11218e6589fa8db70b1bc95503","id":62630695,"location_subtype":"","month":"2018-01"},{"category":"vehicle-crime","location_type":"Force","location":{"latitude":"51.455110","street":{"id":941907,"name":"On or near Pascoe Road"},"longitude":"-0.004725"},"context":"","outcome_status":{"category":"Status update unavailable","date":"2018-05"},"persistent_id":"245f1e0d8ed0b401ebccf92cd9de5ee328f63b4596d70180473f6abf02710b57","id":62679467,"location_subtype":"","month":"2018-01"},{"category":"vehicle-crime","location_type":"Force","location":{"latitude":"51.454699","street":{"id":941718,"name":"On or near Chalcroft Road"},"longitude":"0.002454"},"context":"","outcome_status":{"category":"Status update unavailable","date":"2018-05"},"persistent_id":"b93da74ddd201178f748f8fd6473936bddb8e6788ca0a57d6f80323c5f685c9a","id":62666833,"location_subtype":"","month":"2018-01"},{"category":"vehicle-crime","location_type":"Force","location":{"latitude":"51.456399","street":{"id":941730,"name":"On or near Manor Lane Terrace"},"longitude":"0.001953"},"context":"","outcome_status":{"category":"Investigation complete; no suspect identified","date":"2018-01"},"persistent_id":"506248dabf5a72194dfe5f13f8bafdc67f4e68026b0a2fb7c3e92eb21f566c4a","id":62669879,"location_subtype":"","month":"2018-01"},{"category":"vehicle-crime","location_type":"Force","location":{"latitude":"51.455196","street":{"id":941737,"name":"On or near Kellerton Road"},"longitude":"0.001828"},"context":"","outcome_status":{"category":"Status update unavailable","date":"2018-05"},"persistent_id":"9febeacda01ecace9b630767aba2a324a17c65d1c50a9765c583a8c6ebc3aeae","id":62670242,"location_subtype":"","month":"2018-01"},{"category":"vehicle-crime","location_type":"Force","location":{"latitude":"51.446808","street":{"id":940455,"name":"On or near Stoneycroft Close"},"longitude":"0.012169"},"context":"","outcome_status":{"category":"Status update unavailable","date":"2018-05"},"persistent_id":"dbbf162c9a193530623ceb0e31c067e4c112ffc5c5b99479e215bd987ecdbd4c","id":62685900,"location_subtype":"","month":"2018-01"},{"category":"vehicle-crime","location_type":"Force","location":{"latitude":"51.454699","street":{"id":941718,"name":"On or near Chalcroft Road"},"longitude":"0.002454"},"context":"","outcome_status":{"category":"Status update unavailable","date":"2018-05"},"persistent_id":"1d5f9cb876321dca384314283e10a6a2401259b280c5617a2541380e32eff54b","id":62672246,"location_subtype":"","month":"2018-01"},{"category":"vehicle-crime","location_type":"Force","location":{"latitude":"51.453490","street":{"id":941815,"name":"On or near Millbank Way"},"longitude":"0.015327"},"context":"","outcome_status":{"category":"Status update unavailable","date":"2018-05"},"persistent_id":"6cda9102c66ccf2e2ad2f3a7ce69d77d6dcc8e7b6123a770820d10fc001267ac","id":62687304,"location_subtype":"","month":"2018-01"},{"category":"vehicle-crime","location_type":"Force","location":{"latitude":"51.451926","street":{"id":941825,"name":"On or near Alanthus Close"},"longitude":"0.013704"},"context":"","outcome_status":{"category":"Status update unavailable","date":"2018-05"},"persistent_id":"ee6dec8f0251373329318b73248f98d29327d108e2c34be327bcc7f7f40c53d5","id":62643826,"location_subtype":"","month":"2018-01"},{"category":"vehicle-crime","location_type":"Force","location":{"latitude":"51.449139","street":{"id":940460,"name":"On or near Holme Lacey Road"},"longitude":"0.009465"},"context":"","outcome_status":{"category":"Status update unavailable","date":"2018-05"},"persistent_id":"b309fd6aa7d0027bf759b5d522301223e044a3e280b205a026cdc0cc5f4718f3","id":62643511,"location_subtype":"","month":"2018-01"},{"category":"vehicle-crime","location_type":"Force","location":{"latitude":"51.454237","street":{"id":941923,"name":"On or near Ennersdale Road"},"longitude":"-0.003122"},"context":"","outcome_status":{"category":"Status update unavailable","date":"2018-05"},"persistent_id":"78eaa88a8422a36726b8ace20f32f1f3bda9f8e6403c014c19f5f355deb5e00e","id":62687825,"location_subtype":"","month":"2018-01"},{"category":"vehicle-crime","location_type":"Force","location":{"latitude":"51.455018","street":{"id":941762,"name":"On or near Parking Area"},"longitude":"0.012731"},"context":"","outcome_status":{"category":"Status update unavailable","date":"2018-05"},"persistent_id":"3b219d23ae0e5dc9b5dcc6c29b9e811e93a032cfe5ed6d85104cf2e4bad9c89c","id":62658104,"location_subtype":"","month":"2018-01"},{"category":"vehicle-crime","location_type":"Force","location":{"latitude":"51.447793","street":{"id":940468,"name":"On or near Pitfold Road"},"longitude":"0.018170"},"context":"","outcome_status":{"category":"Status update unavailable","date":"2018-05"},"persistent_id":"649c485d8cc0ecd256e097810851e0f063eb4d9e6766d6a2bfc6434457366798","id":62631668,"location_subtype":"","month":"2018-01"},{"category":"vehicle-crime","location_type":"Force","location":{"latitude":"51.457344","street":{"id":941758,"name":"On or near Aislibie Road"},"longitude":"0.006097"},"context":"","outcome_status":{"category":"Status update unavailable","date":"2018-05"},"persistent_id":"2d24ff93004b73faa2d1906575698f3742717eb870cecbb79efaed7ea9049298","id":62633111,"location_subtype":"","month":"2018-01"},{"category":"vehicle-crime","location_type":"Force","location":{"latitude":"51.452187","street":{"id":941955,"name":"On or near Maythorne Cottages"},"longitude":"-0.002117"},"context":"","outcome_status":{"category":"Status update unavailable","date":"2018-05"},"persistent_id":"1c191d87b90404206bbda55599f819ce843013517d300d44f98670b72c0ffcc5","id":62666471,"location_subtype":"","month":"2018-01"},{"category":"vehicle-crime","location_type":"Force","location":{"latitude":"51.457706","street":{"id":941779,"name":"On or near Lenham Road"},"longitude":"0.007034"},"context":"","outcome_status":{"category":"Status update unavailable","date":"2018-05"},"persistent_id":"f906f9da813def4432d21d432ec263384c264d4e6220a82a90ae35927686d762","id":62685491,"location_subtype":"","month":"2018-01"},{"category":"vehicle-crime","location_type":"Force","location":{"latitude":"51.455646","street":{"id":941791,"name":"On or near Eltham Road"},"longitude":"0.014385"},"context":"","outcome_status":{"category":"Status update unavailable","date":"2018-05"},"persistent_id":"08f96a30d8c4f13f8295e23b26e01fab56ae77bbd01ab4c6b4ce9d94d88447d9","id":62651237,"location_subtype":"","month":"2018-01"},{"category":"violent-crime","location_type":"Force","location":{"latitude":"51.454838","street":{"id":941729,"name":"On or near Manor Park"},"longitude":"-0.000418"},"context":"","outcome_status":{"category":"Investigation complete; no suspect identified","date":"2018-04"},"persistent_id":"83bef49daf1714bfc26a323b433aacb7c9c916e695dbb4e0ec9595337abb5b8d","id":62672565,"location_subtype":"","month":"2018-01"},{"category":"violent-crime","location_type":"Force","location":{"latitude":"51.455923","street":{"id":941785,"name":"On or near Hedgley Mews"},"longitude":"0.008741"},"context":"","outcome_status":{"category":"Investigation complete; no suspect identified","date":"2018-05"},"persistent_id":"82669ce733b229627b463956fff44fc348adcf93e298393b4e049733b5c561bb","id":62643284,"location_subtype":"","month":"2018-01"},{"category":"violent-crime","location_type":"Force","location":{"latitude":"51.456341","street":{"id":941726,"name":"On or near Northbrook Road"},"longitude":"0.000065"},"context":"","outcome_status":{"category":"Investigation complete; no suspect identified","date":"2018-05"},"persistent_id":"c5d8b20a48d9d7428a77a4e8e120bcc872154e33dbda98bffaf7e3543ab62ce3","id":62630396,"location_subtype":"","month":"2018-01"},{"category":"violent-crime","location_type":"Force","location":{"latitude":"51.455218","street":{"id":941790,"name":"On or near Falmouth Close"},"longitude":"0.010509"},"context":"","outcome_status":{"category":"Investigation complete; no suspect identified","date":"2018-02"},"persistent_id":"0e1d847feb9d29f59089001e8d6e5ce4621e69f44b5a7bfdd0aa2cef846963d3","id":62692984,"location_subtype":"","month":"2018-01"},{"category":"violent-crime","location_type":"Force","location":{"latitude":"51.448914","street":{"id":940485,"name":"On or near Springbank Road"},"longitude":"0.001050"},"context":"","outcome_status":{"category":"Investigation complete; no suspect identified","date":"2018-05"},"persistent_id":"25e1834313a358a9a2831f00f605f323655aa409558c8726b520ac8a15ee8fca","id":62659180,"location_subtype":"","month":"2018-01"},{"category":"violent-crime","location_type":"Force","location":{"latitude":"51.448914","street":{"id":940485,"name":"On or near Springbank Road"},"longitude":"0.001050"},"context":"","outcome_status":{"category":"Status update unavailable","date":"2018-05"},"persistent_id":"25e1834313a358a9a2831f00f605f323655aa409558c8726b520ac8a15ee8fca","id":62658785,"location_subtype":"","month":"2018-01"},{"category":"violent-crime","location_type":"Force","location":{"latitude":"51.449139","street":{"id":940460,"name":"On or near Holme Lacey Road"},"longitude":"0.009465"},"context":"","outcome_status":{"category":"Investigation complete; no suspect identified","date":"2018-01"},"persistent_id":"9a44bf0cf30c91f80e8b352c3d0fd95e553695540c6311f94ffcc4fe074c3398","id":62640245,"location_subtype":"","month":"2018-01"},{"category":"violent-crime","location_type":"Force","location":{"latitude":"51.455218","street":{"id":941790,"name":"On or near Falmouth Close"},"longitude":"0.010509"},"context":"","outcome_status":{"category":"Local resolution","date":"2018-04"},"persistent_id":"61923df91d068db143c1aab9eaf67e0ba58e39d39ae9a55f1f1b22fd210769ea","id":62641726,"location_subtype":"","month":"2018-01"},{"category":"violent-crime","location_type":"Force","location":{"latitude":"51.455218","street":{"id":941790,"name":"On or near Falmouth Close"},"longitude":"0.010509"},"context":"","outcome_status":{"category":"Investigation complete; no suspect identified","date":"2018-03"},"persistent_id":"2578c81f10031963ac2988158845320d99be2ccdf61982737bb9a08bef01989f","id":62647682,"location_subtype":"","month":"2018-01"},{"category":"violent-crime","location_type":"Force","location":{"latitude":"51.455110","street":{"id":941907,"name":"On or near Pascoe Road"},"longitude":"-0.004725"},"context":"","outcome_status":{"category":"Awaiting court outcome","date":"2018-01"},"persistent_id":"d7dc665518933005396b3730fd03eb3dc5a9cd7fc40d1741cdc857e062ec9c02","id":62674402,"location_subtype":"","month":"2018-01"},{"category":"violent-crime","location_type":"Force","location":{"latitude":"51.456486","street":{"id":941926,"name":"On or near Dermody Road"},"longitude":"-0.005298"},"context":"","outcome_status":{"category":"Status update unavailable","date":"2018-05"},"persistent_id":"ef6f1d23b9b9d41ec6024952b24f26cd2f521a9f7c40978b4d5ad756cc5e6377","id":62674632,"location_subtype":"","month":"2018-01"},{"category":"violent-crime","location_type":"Force","location":{"latitude":"51.454838","street":{"id":941729,"name":"On or near Manor Park"},"longitude":"-0.000418"},"context":"","outcome_status":{"category":"Status update unavailable","date":"2018-05"},"persistent_id":"ea9324afba5d297fa2d745f9e804663eaecc5cea5e99867076ec67c1c555b407","id":62644402,"location_subtype":"","month":"2018-01"},{"category":"violent-crime","location_type":"Force","location":{"latitude":"51.454562","street":{"id":941799,"name":"On or near Woodville Close"},"longitude":"0.016756"},"context":"","outcome_status":{"category":"Investigation complete; no suspect identified","date":"2018-04"},"persistent_id":"7a4360dcb7d6b09fe76476b77916c69f62d4d1ef224692c199259ca4b553f9fe","id":62690259,"location_subtype":"","month":"2018-01"},{"category":"violent-crime","location_type":"Force","location":{"latitude":"51.456399","street":{"id":941730,"name":"On or near Manor Lane Terrace"},"longitude":"0.001953"},"context":"","outcome_status":{"category":"Investigation complete; no suspect identified","date":"2018-02"},"persistent_id":"6cd2cb02d8b0377779bf60c98fb97ce6e7ef7e7b485d1e3a02491ee92673c5ad","id":62672949,"location_subtype":"","month":"2018-01"},{"category":"violent-crime","location_type":"Force","location":{"latitude":"51.453438","street":{"id":941830,"name":"On or near Staplehurst Road"},"longitude":"-0.000019"},"context":"","outcome_status":{"category":"Investigation complete; no suspect identified","date":"2018-02"},"persistent_id":"c6ca58aef0bf1bf52ab7edfde048cab7448a7cc86dd4300f5accc0e70f49cc06","id":62679288,"location_subtype":"","month":"2018-01"},{"category":"violent-crime","location_type":"Force","location":{"latitude":"51.455218","street":{"id":941790,"name":"On or near Falmouth Close"},"longitude":"0.010509"},"context":"","outcome_status":{"category":"Investigation complete; no suspect identified","date":"2018-01"},"persistent_id":"30dc997dd3fec38c19f09c958fc1d0f32f931913520822870934a781a7baaf8e","id":62679558,"location_subtype":"","month":"2018-01"},{"category":"violent-crime","location_type":"Force","location":{"latitude":"51.454231","street":{"id":941721,"name":"On or near Thornwood Road"},"longitude":"0.003010"},"context":"","outcome_status":{"category":"Status update unavailable","date":"2018-05"},"persistent_id":"58fdb484e3e5c8a5318f206e92396c9e44ad79a0709e208b3357a2263fc19f94","id":62646071,"location_subtype":"","month":"2018-01"},{"category":"violent-crime","location_type":"Force","location":{"latitude":"51.455955","street":{"id":941747,"name":"On or near Cordwell Road"},"longitude":"-0.000010"},"context":"","outcome_status":{"category":"Investigation complete; no suspect identified","date":"2018-02"},"persistent_id":"225d12477933935725ca84da69396d07c0ad7fd0ba0f584b48f9b038e6d1445d","id":62646113,"location_subtype":"","month":"2018-01"},{"category":"violent-crime","location_type":"Force","location":{"latitude":"51.455218","street":{"id":941790,"name":"On or near Falmouth Close"},"longitude":"0.010509"},"context":"","outcome_status":{"category":"Status update unavailable","date":"2018-05"},"persistent_id":"0e1d847feb9d29f59089001e8d6e5ce4621e69f44b5a7bfdd0aa2cef846963d3","id":62644337,"location_subtype":"","month":"2018-01"},{"category":"violent-crime","location_type":"Force","location":{"latitude":"51.456161","street":{"id":923972,"name":"On or near Supermarket"},"longitude":"0.010075"},"context":"","outcome_status":{"category":"Investigation complete; no suspect identified","date":"2018-02"},"persistent_id":"957dc805e555bc257bf385dd6bbca37d64245144524ff42e58cdae6767ce5b07","id":62636750,"location_subtype":"","month":"2018-01"},{"category":"violent-crime","location_type":"Force","location":{"latitude":"51.451768","street":{"id":941831,"name":"On or near Manor Lane"},"longitude":"0.005579"},"context":"","outcome_status":{"category":"Investigation complete; no suspect identified","date":"2018-05"},"persistent_id":"8ab8f1984247f211f787c05a0a1093c64dfcafe3b3461ff583954460e218f37c","id":62665709,"location_subtype":"","month":"2018-01"},{"category":"violent-crime","location_type":"Force","location":{"latitude":"51.453129","street":{"id":941828,"name":"On or near Cambridge Drive"},"longitude":"0.016966"},"context":"","outcome_status":{"category":"Investigation complete; no suspect identified","date":"2018-01"},"persistent_id":"723310044ea1f3f8551dc3b66e1c3d311c04e95ecf60591d47974f2d884db0c0","id":62655310,"location_subtype":"","month":"2018-01"},{"category":"violent-crime","location_type":"Force","location":{"latitude":"51.448407","street":{"id":940462,"name":"On or near Dallinger Road"},"longitude":"0.009116"},"context":"","outcome_status":{"category":"Investigation complete; no suspect identified","date":"2018-01"},"persistent_id":"25b982496388568b87f067713f75bccc71b22f26e63c98f9c8d04bea72d5d0a5","id":62684847,"location_subtype":"","month":"2018-01"},{"category":"violent-crime","location_type":"Force","location":{"latitude":"51.456161","street":{"id":923972,"name":"On or near Supermarket"},"longitude":"0.010075"},"context":"","outcome_status":{"category":"Investigation complete; no suspect identified","date":"2018-02"},"persistent_id":"1e6ad18a0624901e6ae86e0b9057eb7b5e08fdf25e287e7146584dab49373d98","id":62634152,"location_subtype":"","month":"2018-01"},{"category":"violent-crime","location_type":"Force","location":{"latitude":"51.448914","street":{"id":940485,"name":"On or near Springbank Road"},"longitude":"0.001050"},"context":"","outcome_status":{"category":"Status update unavailable","date":"2018-05"},"persistent_id":"25e1834313a358a9a2831f00f605f323655aa409558c8726b520ac8a15ee8fca","id":62658538,"location_subtype":"","month":"2018-01"},{"category":"violent-crime","location_type":"Force","location":{"latitude":"51.450805","street":{"id":941810,"name":"On or near Upwood Road"},"longitude":"0.016115"},"context":"","outcome_status":{"category":"Investigation complete; no suspect identified","date":"2018-01"},"persistent_id":"5a87c0db32efda3e991692ca698f6cb4a41ea387548c4e59a8d4abfc60d4eb91","id":62694106,"location_subtype":"","month":"2018-01"},{"category":"violent-crime","location_type":"Force","location":{"latitude":"51.451059","street":{"id":941824,"name":"On or near Buckden Close"},"longitude":"0.013363"},"context":"","outcome_status":{"category":"Investigation complete; no suspect identified","date":"2018-02"},"persistent_id":"dc9e57599eaffb1f53d9c5ca034de28c745a08cb1ebfc31a4e3ba47d660519cc","id":62654582,"location_subtype":"","month":"2018-01"},{"category":"violent-crime","location_type":"Force","location":{"latitude":"51.457706","street":{"id":941779,"name":"On or near Lenham Road"},"longitude":"0.007034"},"context":"","outcome_status":{"category":"Investigation complete; no suspect identified","date":"2018-01"},"persistent_id":"29e0f05fdc9fe6e732b7868b6c8e2b9cfff3ee05ba0cb722d0c312a5c5f93c6a","id":62659984,"location_subtype":"","month":"2018-01"},{"category":"violent-crime","location_type":"Force","location":{"latitude":"51.453438","street":{"id":941830,"name":"On or near Staplehurst Road"},"longitude":"-0.000019"},"context":"","outcome_status":{"category":"Investigation complete; no suspect identified","date":"2018-01"},"persistent_id":"02af936598d046a127b6792870b27947701bd1fd62de6d9bd709bbc6b00b43e0","id":62661645,"location_subtype":"","month":"2018-01"},{"category":"violent-crime","location_type":"Force","location":{"latitude":"51.456486","street":{"id":941926,"name":"On or near Dermody Road"},"longitude":"-0.005298"},"context":"","outcome_status":{"category":"Offender ordered to pay compensation","date":"2018-03"},"persistent_id":"ef6f1d23b9b9d41ec6024952b24f26cd2f521a9f7c40978b4d5ad756cc5e6377","id":62674633,"location_subtype":"","month":"2018-01"},{"category":"violent-crime","location_type":"Force","location":{"latitude":"51.455646","street":{"id":941791,"name":"On or near Eltham Road"},"longitude":"0.014385"},"context":"","outcome_status":{"category":"Investigation complete; no suspect identified","date":"2018-01"},"persistent_id":"df7f656ec3488971681f5ba2cd819884f858e8d6f1f1f939b7cf0fd9a30ec7db","id":62676194,"location_subtype":"","month":"2018-01"},{"category":"violent-crime","location_type":"Force","location":{"latitude":"51.454838","street":{"id":941729,"name":"On or near Manor Park"},"longitude":"-0.000418"},"context":"","outcome_status":{"category":"Investigation complete; no suspect identified","date":"2018-01"},"persistent_id":"0c31f227b65bd3387fe1c9cc85e8653dffe04cce9b76ff2b31a803b03bb55d3c","id":62688628,"location_subtype":"","month":"2018-01"},{"category":"violent-crime","location_type":"Force","location":{"latitude":"51.456341","street":{"id":941726,"name":"On or near Northbrook Road"},"longitude":"0.000065"},"context":"","outcome_status":{"category":"Status update unavailable","date":"2018-05"},"persistent_id":"c5d8b20a48d9d7428a77a4e8e120bcc872154e33dbda98bffaf7e3543ab62ce3","id":62630395,"location_subtype":"","month":"2018-01"},{"category":"violent-crime","location_type":"Force","location":{"latitude":"51.454231","street":{"id":941721,"name":"On or near Thornwood Road"},"longitude":"0.003010"},"context":"","outcome_status":{"category":"Investigation complete; no suspect identified","date":"2018-02"},"persistent_id":"65e2cb0a1fab8f5793c99468367d7631ce765469eff172473e9d0a9f7a435f67","id":62661678,"location_subtype":"","month":"2018-01"},{"category":"violent-crime","location_type":"Force","location":{"latitude":"51.457380","street":{"id":941900,"name":"On or near Wisteria Road"},"longitude":"-0.005532"},"context":"","outcome_status":{"category":"Investigation complete; no suspect identified","date":"2018-03"},"persistent_id":"b14fed5a32b11754d2db52035da3f063e6c0233c331df36f09d15816f31a29c0","id":62682222,"location_subtype":"","month":"2018-01"},{"category":"violent-crime","location_type":"Force","location":{"latitude":"51.446808","street":{"id":940455,"name":"On or near Stoneycroft Close"},"longitude":"0.012169"},"context":"","outcome_status":{"category":"Investigation complete; no suspect identified","date":"2018-04"},"persistent_id":"b4ea8af757d3e13a00f71d7437479400f3f9791a33ef4737294dd3461263d51d","id":62657437,"location_subtype":"","month":"2018-01"},{"category":"violent-crime","location_type":"Force","location":{"latitude":"51.456161","street":{"id":923972,"name":"On or near Supermarket"},"longitude":"0.010075"},"context":"","outcome_status":{"category":"Awaiting court outcome","date":"2018-06"},"persistent_id":"f3500444b50854584705ea5803c19734bdb022826d86e469a352ce8a3983f0e0","id":62679358,"location_subtype":"","month":"2018-01"}]