[{"category":"anti-social-behaviour","location_type":"Force","location":{"latitude":"51.565247","street":{"id":970569,"name":"On or near Franmil Road"},"longitude":"0.193037"},"context":"","outcome_status":null,"persistent_id":"","id":62626815,"location_subtype":"","month":"2018-01"},{"category":"anti-social-behaviour","location_type":"Force","location":{"latitude":"51.566899","street":{"id":976511,"name":"On or near Park Lane"},"longitude":"0.194170"},"context":"","outcome_status":null,"persistent_id":"","id":62626811,"location_subtype":"","month":"2018-01"},{"category":"anti-social-behaviour","location_type":"Force","location":{"latitude":"51.562378","street":{"id":970499,"name":"On or near Napier Close"},"longitude":"0.203591"},"context":"","outcome_status":null,"persistent_id":"","id":62626780,"location_subtype":"","month":"2018-01"},{"category":"anti-social-behaviour","location_type":"Force","location":{"latitude":"51.561043","street":{"id":970442,"name":"On or near Albany Road"},"longitude":"0.195677"},"context":"","outcome_status":null,"persistent_id":"","id":62626805,"location_subtype":"","month":"2018-01"},{"category":"anti-social-behaviour","location_type":"Force","location":{"latitude":"51.565247","street":{"id":970569,"name":"On or near Franmil Road"},"longitude":"0.193037"},"context":"","outcome_status":null,"persistent_id":"","id":62626813,"location_subtype":"","month":"2018-01"},{"category":"anti-social-behaviour","location_type":"Force","location":{"latitude":"51.565247","street":{"id":970569,"name":"On or near Franmil Road"},"longitude":"0.193037"},"context":"","outcome_status":null,"persistent_id":"","id":62626814,"location_subtype":"","month":"2018-01"},{"category":"anti-social-behaviour","location_type":"Force","location":{"latitude":"51.566371","street":{"id":976512,"name":"On or near Maygreen Crescent"},"longitude":"0.193063"},"context":"","outcome_status":null,"persistent_id":"","id":62626823,"location_subtype":"","month":"2018-01"},{"category":"anti-social-behaviour","location_type":"Force","location":{"latitude":"51.566371","street":{"id":976512,"name":"On or near Maygreen Crescent"},"longitude":"0.193063"},"context":"","outcome_status":null,"persistent_id":"","id":62626824,"location_subtype":"","month":"2018-01"},{"category":"anti-social-behaviour","location_type":"Force","location":{"latitude":"51.561038","street":{"id":970441,"name":"On or near Aldwych Close"},"longitude":"0.198332"},"context":"","outcome_status":null,"persistent_id":"","id":62626800,"location_subtype":"","month":"2018-01"},{"category":"burglary","location_type":"Force","location":{"latitude":"51.562056","street":{"id":970571,"name":"On or near Edison Avenue"},"longitude":"0.184746"},"context":"","outcome_status":{"category":"Status update unavailable","date":"2018-05"},"persistent_id":"fef182e48574bd4b68b08aafa21fe7d137cc2149c03e66067e1beea652c92510","id":62696637,"location_subtype":"","month":"2018-01"},{"category":"burglary","location_type":"Force","location":{"latitude":"51.571200","street":{"id":976543,"name":"On or near Osborne Road"},"longitude":"0.206471"},"context":"","outcome_status":{"category":"Investigation complete; no suspect identified","date":"2018-02"},"persistent_id":"c21b2e0725add93318e09d2a08450de970c11656b1eef5f5cf74a503e21b6265","id":62696456,"location_subtype":"","month":"2018-01"},{"category":"burglary","location_type":"Force","location":{"latitude":"51.559416","street":{"id":970443,"name":"On or near Adelphi Crescent"},"longitude":"0.197547"},"context":"","outcome_status":{"category":"Status update unavailable","date":"2018-05"},"persistent_id":"59cbe1f73d3b03eaa666d9ff7927d85256903f0651b094d4b31c14e8ad9ad9d3","id":62687797,"location_subtype":"","month":"2018-01"},{"category":"burglary","location_type":"Force","location":{"latitude":"51.566512","street":{"id":976610,"name":"On or near Southdown Road"},"longitude":"0.199924"},"context":"","outcome_status":{"category":"Awaiting court outcome","date":"2018-04"},"persistent_id":"cffe5127809b919287fb3ea3b0f99dac7d966015c3ad31cd62c36a9971794181","id":62697146,"location_subtype":"","month":"2018-01"},{"category":"burglary","location_type":"Force","location":{"latitude":"51.574266","street":{"id":976571,"name":"On or near Brentwood Road"},"longitude":"0.200745"},"context":"","outcome_status":{"category":"Status update unavailable","date":"2018-05"},"persistent_id":"cb30bd1c5f2bf3bad1ada63e08c3d87aed55bbe63fd015c4a54df0cfb4c081b3","id":62659275,"location_subtype":"","month":"2018-01"},{"category":"burglary","location_type":"Force","location":{"latitude":"51.565627","street":{"id":970572,"name":"On or near Supermarket"},"longitude":"0.191974"},"context":"","outcome_status":{"category":"Status update unavailable","date":"2018-05"},"persistent_id":"5a563b3aad86de1a9c303b39d3f869e70ed7397fea98db2b4a0b5fc4c71a14af","id":62647541,"location_subtype":"","month":"2018-01"},{"category":"burglary","location_type":"Force","location":{"latitude":"51.556899","street":{"id":970556,"name":"On or near Petrol Station"},"longitude":"0.188380"},"context":"","outcome_status":{"category":"Investigation complete; no suspect identified","date":"2018-02"},"persistent_id":"a82a0d57961122628e62049925d93af14ce9ec57fee7214d4676bc19563b9a69","id":62695983,"location_subtype":"","month":"2018-01"},{"category":"burglary","location_type":"Force","location":{"latitude":"51.567796","street":{"id":976558,"name":"On or near Harrow Drive"},"longitude":"0.206248"},"context":"","outcome_status":{"category":"Status update unavailable","date":"2018-05"},"persistent_id":"895e7952a996f4640b24f3682e50e66442c087b60fc156b017a16428ada36384","id":62689724,"location_subtype":"","month":"2018-01"},{"category":"burglary","location_type":"Force","location":{"latitude":"51.565046","street":{"id":970506,"name":"On or near Petrol Station"},"longitude":"0.203792"},"context":"","outcome_status":{"category":"Status update unavailable","date":"2018-05"},"persistent_id":"9dafa3ad37d76c6a07c858184daeaa667ec5104298852f0d0ac4d1a554319679","id":62634618,"location_subtype":"","month":"2018-01"},{"category":"burglary","location_type":"Force","location":{"latitude":"51.567207","street":{"id":976617,"name":"On or near Elmhurst Drive"},"longitude":"0.207922"},"context":"","outcome_status":{"category":"Status update unavailable","date":"2018-05"},"persistent_id":"f9db9a7c7cfaa572c513b707ba5043f3b855d8b6f1b7bb12f2e70cc98702f0c4","id":62689698,"location_subtype":"","month":"2018-01"},{"category":"burglary","location_type":"Force","location":{"latitude":"51.567647","street":{"id":976614,"name":"On or near Hyland Way"},"longitude":"0.202706"},"context":"","outcome_status":{"category":"Status update unavailable","date":"2018-05"},"persistent_id":"cf53ad8dde01ba7370e7793f618ae59e0c21e1b35406f4dcfcdbc062e7ab384f","id":62696777,"location_subtype":"","month":"2018-01"},{"category":"burglary","location_type":"Force","location":{"latitude":"51.572841","street":{"id":976537,"name":"On or near Thorncroft"},"longitude":"0.203390"},"context":"","outcome_status":{"category":"Status update unavailable","date":"2018-05"},"persistent_id":"4386e0ee63e907935227850fcf4d3061ff49a04de1c45b879292fd51be6cbefd","id":62695873,"location_subtype":"","month":"2018-01"},{"category":"burglary","location_type":"Force","location":{"latitude":"51.566505","street":{"id":976612,"name":"On or near Northdown Road"},"longitude":"0.201251"},"context":"","outcome_status":{"category":"Status update unavailable","date":"2018-05"},"persistent_id":"d8bb24ed352a902622776ae6102d0962d0c837f4b7eca465a271a5f0b2079679","id":62695412,"location_subtype":"","month":"2018-01"},{"category":"burglary","location_type":"Force","location":{"latitude":"51.568501","street":{"id":976561,"name":"On or near Elms Close"},"longitude":"0.203180"},"context":"","outcome_status":{"category":"Status update unavailable","date":"2018-05"},"persistent_id":"5890ede1e88ab8cf68c31c72a7b98d16f64894c0400efc2b7d401f00d9469476","id":62643446,"location_subtype":"","month":"2018-01"},{"category":"burglary","location_type":"Force","location":{"latitude":"51.567985","street":{"id":976545,"name":"On or near Norman Road"},"longitude":"0.199562"},"context":"","outcome_status":{"category":"Status update unavailable","date":"2018-05"},"persistent_id":"e351e6f28b12e8b0e0e9d53b2bc015346e098817cc112426f9470ee666cf3076","id":62637817,"location_subtype":"","month":"2018-01"},{"category":"burglary","location_type":"Force","location":{"latitude":"51.560022","street":{"id":970467,"name":"On or near Apollo Close"},"longitude":"0.199293"},"context":"","outcome_status":{"category":"Status update unavailable","date":"2018-05"},"persistent_id":"49534f1deb2fc9514b7a2ab2282a792053f726d06a58319307ee1516a3590987","id":62695046,"location_subtype":"","month":"2018-01"},{"category":"criminal-damage-arson","location_type":"Force","location":{"latitude":"51.560116","street":{"id":970461,"name":"On or near Parish Close"},"longitude":"0.200495"},"context":"","outcome_status":{"category":"Status update unavailable","date":"2018-05"},"persistent_id":"7872d9984f2ae5dbfae48057c53c7390800858d82120da7388cfe1fd53a732b3","id":62687612,"location_subtype":"","month":"2018-01"},{"category":"criminal-damage-arson","location_type":"Force","location":{"latitude":"51.566727","street":{"id":976615,"name":"On or near Hyland Close"},"longitude":"0.204306"},"context":"","outcome_status":{"category":"Investigation complete; no suspect identified","date":"2018-04"},"persistent_id":"babe6ab37c882cbcd4700d11f93c69806defaa00d67f7e2bce16d9001e620197","id":62644455,"location_subtype":"","month":"2018-01"},{"category":"drugs","location_type":"Force","location":{"latitude":"51.563759","street":{"id":970493,"name":"On or near Torrance Close"},"longitude":"0.206240"},"context":"","outcome_status":{"category":"Status update unavailable","date":"2018-05"},"persistent_id":"d62f6735b95d41c93ca8607bba68677543c596950cc437617cbf942764957da8","id":62693295,"location_subtype":"","month":"2018-01"},{"category":"drugs","location_type":"Force","location":{"latitude":"51.565466","street":{"id":970562,"name":"On or near Roneo Corner"},"longitude":"0.187579"},"context":"","outcome_status":{"category":"Awaiting court outcome","date":"2018-04"},"persistent_id":"fcaccc1a172e5182908913620a8748b95f4aef31a9fbe0785439a718b72bb128","id":62694850,"location_subtype":"","month":"2018-01"},{"category":"drugs","location_type":"Force","location":{"latitude":"51.563759","street":{"id":970493,"name":"On or near Torrance Close"},"longitude":"0.206240"},"context":"","outcome_status":{"category":"Investigation complete; no suspect identified","date":"2018-02"},"persistent_id":"d62f6735b95d41c93ca8607bba68677543c596950cc437617cbf942764957da8","id":62693296,"location_subtype":"","month":"2018-01"},{"category":"drugs","location_type":"Force","location":{"latitude":"51.565046","street":{"id":970506,"name":"On or near Petrol Station"},"longitude":"0.203792"},"context":"","outcome_status":{"category":"Offender given a caution","date":"2018-01"},"persistent_id":"9e0014fc00f5a9c5f2adff1d4cf6e9494552cc622e4662b1c23806d044805c5d","id":62690132,"location_subtype":"","month":"2018-01"},{"category":"drugs","location_type":"Force","location":{"latitude":"51.564283","street":{"id":970567,"name":"On or near Hayburn Way"},"longitude":"0.189788"},"context":"","outcome_status":{"category":"Offender deprived of property","date":"2018-01"},"persistent_id":"df464e44e387c390b2c40ea12138f28a85a32324ffffadec9f563c6db937fc27","id":62693446,"location_subtype":"","month":"2018-01"},{"category":"drugs","location_type":"Force","location":{"latitude":"51.563679","street":{"id":970565,"name":"On or near Rainsford Way"},"longitude":"0.192226"},"context":"","outcome_status":{"category":"Offender given a caution","date":"2018-04"},"persistent_id":"30b8cf56cad3ed091b32b734ab99096ba082a5090305a9976fad4ded6d0bde78","id":62694697,"location_subtype":"","month":"2018-01"},{"category":"other-theft","location_type":"Force","location":{"latitude":"51.556686","street":{"id":970550,"name":"On or near Laburnum Avenue"},"longitude":"0.192063"},"context":"","outcome_status":{"category":"Investigation complete; no suspect identified","date":"2018-05"},"persistent_id":"6f5946d8a4f23499e222df0558a96e04ad38ecc396f10b283c0c4ba6dd23378f","id":62636054,"location_subtype":"","month":"2018-01"},{"category":"other-theft","location_type":"Force","location":{"latitude":"51.565627","street":{"id":970572,"name":"On or near Supermarket"},"longitude":"0.191974"},"context":"","outcome_status":{"category":"Status update unavailable","date":"2018-05"},"persistent_id":"06af9545d63fdcf2c236c82b476015517fd0efc01eef3ae24ee5c50c6a966b2d","id":62637369,"location_subtype":"","month":"2018-01"},{"category":"other-theft","location_type":"Force","location":{"latitude":"51.565046","street":{"id":970506,"name":"On or near Petrol Station"},"longitude":"0.203792"},"context":"","outcome_status":{"category":"Status update unavailable","date":"2018-05"},"persistent_id":"4a5f682932508d9cad0acaeb944211ad53b97d1ece81d398bf56efb17ed161ed","id":62640211,"location_subtype":"","month":"2018-01"},{"category":"other-theft","location_type":"Force","location":{"latitude":"51.565627","street":{"id":970572,"name":"On or near Supermarket"},"longitude":"0.191974"},"context":"","outcome_status":{"category":"Status update unavailable","date":"2018-05"},"persistent_id":"310b640366b0835c6e9f928de16395d3709b604953850b3cd2f768513de636b9","id":62633277,"location_subtype":"","month":"2018-01"},{"category":"other-theft","location_type":"Force","location":{"latitude":"51.565627","street":{"id":970572,"name":"On or near Supermarket"},"longitude":"0.191974"},"context":"","outcome_status":{"category":"Investigation complete; no suspect identified","date":"2018-02"},"persistent_id":"83be457485e1af028b7679c63f7224303085ffba6931d45ca9547a235156496f","id":62651461,"location_subtype":"","month":"2018-01"},{"category":"other-theft","location_type":"Force","location":{"latitude":"51.565046","street":{"id":970506,"name":"On or near Petrol Station"},"longitude":"0.203792"},"context":"","outcome_status":{"category":"Status update unavailable","date":"2018-05"},"persistent_id":"51233ad3e935ebc3f31e08c78bb912d68d99426ffa3f1eb79a6522a540eae490","id":62655868,"location_subtype":"","month":"2018-01"},{"category":"other-theft","location_type":"Force","location":{"latitude":"51.565019","street":{"id":970559,"name":"On or near Upper Rainham Road"},"longitude":"0.188380"},"context":"","outcome_status":{"category":"Status update unavailable","date":"2018-05"},"persistent_id":"022cdfa8b6acfd46f34ef7fcfb3f9fe170b06b7a4d0fe7410d6f55ca56f032ee","id":62678853,"location_subtype":"","month":"2018-01"},{"category":"other-theft","location_type":"Force","location":{"latitude":"51.565627","street":{"id":970572,"name":"On or near Supermarket"},"longitude":"0.191974"},"context":"","outcome_status":{"category":"Status update unavailable","date":"2018-05"},"persistent_id":"89089e52abf045894c9f5b20b196227a4b49fef6322a7eb1a0913e55d779a309","id":62684443,"location_subtype":"","month":"2018-01"},{"category":"other-theft","location_type":"Force","location":{"latitude":"51.556443","street":{"id":970557,"name":"On or near Sports\/recreation Area"},"longitude":"0.188199"},"context":"","outcome_status":{"category":"Investigation complete; no suspect identified","date":"2018-02"},"persistent_id":"88309c345ba64a544a6058d9623e5828d5ab665e5ea8ec6d2c43dd292c3cf216","id":62665008,"location_subtype":"","month":"2018-01"},{"category":"other-theft","location_type":"Force","location":{"latitude":"51.572841","street":{"id":976537,"name":"On or near Thorncroft"},"longitude":"0.203390"},"context":"","outcome_status":{"category":"Status update unavailable","date":"2018-05"},"persistent_id":"9efeddb8a20d61d60d9db8d687bdf1bd098c0f02ad718f9753acaf080b81c9dd","id":62686281,"location_subtype":"","month":"2018-01"},{"category":"possession-of-weapons","location_type":"Force","location":{"latitude":"51.564283","street":{"id":970567,"name":"On or near Hayburn Way"},"longitude":"0.189788"},"context":"","outcome_status":{"category":"Status update unavailable","date":"2018-05"},"persistent_id":"df464e44e387c390b2c40ea12138f28a85a32324ffffadec9f563c6db937fc27","id":62650290,"location_subtype":"","month":"2018-01"},{"category":"public-order","location_type":"Force","location":{"latitude":"51.561612","street":{"id":970507,"name":"On or near Sports\/recreation Area"},"longitude":"0.205617"},"context":"","outcome_status":{"category":"Status update unavailable","date":"2018-05"},"persistent_id":"98ac12278933812196c71194b44d5a2c0da3a50639be047c6ded0b63324d9b12","id":62645095,"location_subtype":"","month":"2018-01"},{"category":"public-order","location_type":"Force","location":{"latitude":"51.565430","street":{"id":970446,"name":"On or near Hornchurch Road"},"longitude":"0.196726"},"context":"","outcome_status":{"category":"Status update unavailable","date":"2018-05"},"persistent_id":"4581504f3ff879b7c4dda2595f0308df3a433054a92dedc3478cad8a4e2d3d07","id":62641544,"location_subtype":"","month":"2018-01"},{"category":"robbery","location_type":"Force","location":{"latitude":"51.561612","street":{"id":970507,"name":"On or near Sports\/recreation Area"},"longitude":"0.205617"},"context":"","outcome_status":{"category":"Status update unavailable","date":"2018-05"},"persistent_id":"429470a10f265889e9229e53a6c9c7f13c012bbd5363623f5d29a5c3d3383772","id":62658159,"location_subtype":"","month":"2018-01"},{"category":"shoplifting","location_type":"Force","location":{"latitude":"51.565627","street":{"id":970572,"name":"On or near Supermarket"},"longitude":"0.191974"},"context":"","outcome_status":{"category":"Status update unavailable","date":"2018-05"},"persistent_id":"371d2e7f0d7466d69c8256d264982f22815f6dc525893b80d0a1a20b95dcc914","id":62678626,"location_subtype":"","month":"2018-01"},{"category":"shoplifting","location_type":"Force","location":{"latitude":"51.565627","street":{"id":970572,"name":"On or near Supermarket"},"longitude":"0.191974"},"context":"","outcome_status":{"category":"Investigation complete; no suspect identified","date":"2018-01"},"persistent_id":"684b8ac0ce8d533fa18f50f8ac7db0c23dc147cf5b6658a6063be52007d6c751","id":62642649,"location_subtype":"","month":"2018-01"},{"category":"shoplifting","location_type":"Force","location":{"latitude":"51.565627","street":{"id":970572,"name":"On or near Supermarket"},"longitude":"0.191974"},"context":"","outcome_status":{"category":"Investigation complete; no suspect identified","date":"2018-01"},"persistent_id":"0408b65eced1644851957964789468050c37ed230cfa2bdfcd11664c5a7d10dc","id":62681318,"location_subtype":"","month":"2018-01"},{"category":"shoplifting","location_type":"Force","location":{"latitude":"51.565627","street":{"id":970572,"name":"On or near Supermarket"},"longitude":"0.191974"},"context":"","outcome_status":{"category":"Status update unavailable","date":"2018-05"},"persistent_id":"ef194d103e917df2582ed6a0ab7874f0ba5ae2cb0690ea150c6e5479a47b576b","id":62631037,"location_subtype":"","month":"2018-01"},{"category":"theft-from-the-person","location_type":"Force","location":{"latitude":"51.559416","street":{"id":970443,"name":"On or near Adelphi Crescent"},"longitude":"0.197547"},"context":"","outcome_status":{"category":"Status update unavailable","date":"2018-05"},"persistent_id":"9fb247e9b84b98b60811fef2c60f3097207b196dd845facf5c1d9c929632af99","id":62642829,"location_subtype":"","month":"2018-01"},{"category":"vehicle-crime","location_type":"Force","location":{"latitude":"51.565430","street":{"id":970446,"name":"On or near Hornchurch Road"},"longitude":"0.196726"},"context":"","outcome_status":{"category":"Awaiting court outcome","date":"2018-06"},"persistent_id":"519212b118cfdb9ffc2cca7857ac5687cfc70c079795cee18e0960feaa452b9a","id":62643824,"location_subtype":"","month":"2018-01"},{"category":"vehicle-crime","location_type":"Force","location":{"latitude":"51.566483","street":{"id":976604,"name":"On or near Purbeck Road"},"longitude":"0.198609"},"context":"","outcome_status":{"category":"Investigation complete; no suspect identified","date":"2018-01"},"persistent_id":"15fc64d876251ab5fb6782a446d0a465fc31eadcf68ceff86c6ac511f30155ac","id":62681833,"location_subtype":"","month":"2018-01"},{"category":"vehicle-crime","location_type":"Force","location":{"latitude":"51.566858","street":{"id":976616,"name":"On or near Grosvenor Drive"},"longitude":"0.209276"},"context":"","outcome_status":{"category":"Status update unavailable","date":"2018-05"},"persistent_id":"99e5ced44271c176e1758b09d274926e09903d427d8ab5e5e0f4c1c165f0d1e8","id":62643202,"location_subtype":"","month":"2018-01"},{"category":"vehicle-crime","location_type":"Force","location":{"latitude":"51.561043","street":{"id":970442,"name":"On or near Albany Road"},"longitude":"0.195677"},"context":"","outcome_status":{"category":"Status update unavailable","date":"2018-05"},"persistent_id":"1d85692b861170f9e2439d80b722b6dfd8d6cce4f84f044d07a7b98e05c208f7","id":62682241,"location_subtype":"","month":"2018-01"},{"category":"vehicle-crime","location_type":"Force","location":{"latitude":"51.566354","street":{"id":976613,"name":"On or near Lyndhurst Drive"},"longitude":"0.211185"},"context":"","outcome_status":{"category":"Status update unavailable","date":"2018-05"},"persistent_id":"a71c0892a7687854a902ab87019c983842a5db859a0fdab3b98175969f596139","id":62665068,"location_subtype":"","month":"2018-01"},{"category":"vehicle-crime","location_type":"Force","location":{"latitude":"51.561647","street":{"id":970497,"name":"On or near Rural Close"},"longitude":"0.201810"},"context":"","outcome_status":{"category":"Status update unavailable","date":"2018-05"},"persistent_id":"85f92c3b7dbba06568869cf206103b45775dae0aaac615ba135c4d14d94a1676","id":62669082,"location_subtype":"","month":"2018-01"},{"category":"vehicle-crime","location_type":"Force","location":{"latitude":"51.564936","street":{"id":970501,"name":"On or near Hornchurch Road"},"longitude":"0.200035"},"context":"","outcome_status":{"category":"Status update unavailable","date":"2018-05"},"persistent_id":"d324395caa3ebb8c7663f55749330a1237b2e7d8d51bc6bab081320a080dd4fd","id":62631313,"location_subtype":"","month":"2018-01"},{"category":"violent-crime","location_type":"Force","location":{"latitude":"51.565046","street":{"id":970506,"name":"On or near Petrol Station"},"longitude":"0.203792"},"context":"","outcome_status":{"category":"Status update unavailable","date":"2018-05"},"persistent_id":"c869e450de20b1ffdc7d6b472a146e6234b463cc3dc878b4dc5a3617af13641a","id":62675266,"location_subtype":"","month":"2018-01"},{"category":"violent-crime","location_type":"Force","location":{"latitude":"51.568769","street":{"id":976596,"name":"On or near Globe Road"},"longitude":"0.197522"},"context":"","outcome_status":{"category":"Investigation complete; no suspect identified","date":"2018-01"},"persistent_id":"210ef42333e2a01dd6f31db691b7502ac166caf453fe16647699d389c47aff69","id":62674433,"location_subtype":"","month":"2018-01"},{"category":"violent-crime","location_type":"Force","location":{"latitude":"51.565247","street":{"id":970569,"name":"On or near Franmil Road"},"longitude":"0.193037"},"context":"","outcome_status":{"category":"Status update unavailable","date":"2018-05"},"persistent_id":"b02a600e79f5ce5f7242d09e113b7928eede5a4e5482090ab39dc4a29e1bec43","id":62678386,"location_subtype":"","month":"2018-01"},{"category":"violent-crime","location_type":"Force","location":{"latitude":"51.561038","street":{"id":970441,"name":"On or near Aldwych Close"},"longitude":"0.198332"},"context":"","outcome_status":{"category":"Investigation complete; no suspect identified","date":"2018-04"},"persistent_id":"9960642fe117de1b71cdaf27072e77980e7faa3e962e2242c31cb840724718ef","id":62647458,"location_subtype":"","month":"2018-01"},{"category":"violent-crime","location_type":"Force","location":{"latitude":"51.559423","street":{"id":970437,"name":"On or near Saunton Road"},"longitude":"0.194301"},"context":"","outcome_status":{"category":"Investigation complete; no suspect identified","date":"2018-02"},"persistent_id":"260510d54321e8d3b0271c900cca8d6aa38247dbb6e2e22851c799c3b3512ebc","id":62642721,"location_subtype":"","month":"2018-01"},{"category":"violent-crime","location_type":"Force","location":{"latitude":"51.564936","street":{"id":970501,"name":"On or near Hornchurch Road"},"longitude":"0.200035"},"context":"","outcome_status":{"category":"Investigation complete; no suspect identified","date":"2018-02"},"persistent_id":"0f5e23665304734cc290afa810a79298ef6e28bf965a85058d2e9bddb0d9707e","id":62636262,"location_subtype":"","month":"2018-01"},{"category":"violent-crime","location_type":"Force","location":{"latitude":"51.561212","street":{"id":970582,"name":"On or near Gordon Avenue"},"longitude":"0.187101"},"context":"","outcome_status":{"category":"Investigation complete; no suspect identified","date":"2018-04"},"persistent_id":"853fd400ac71f0e774f7bf9533e59dd5a4e3dc1be50a3c1575b66ac5e28e5d17","id":62655498,"location_subtype":"","month":"2018-01"},{"category":"violent-crime","location_type":"Force","location":{"latitude":"51.557764","street":{"id":970438,"name":"On or near Hartland Road"},"longitude":"0.196457"},"context":"","outcome_status":{"category":"Status update unavailable","date":"2018-05"},"persistent_id":"9f470beb4c245ed8591e5529188dbf261ecb25444321e0323498aaefaf2ded95","id":62688717,"location_subtype":"","month":"2018-01"},{"category":"violent-crime","location_type":"Force","location":{"latitude":"51.568501","street":{"id":976561,"name":"On or near Elms Close"},"longitude":"0.203180"},"context":"","outcome_status":{"category":"Investigation complete; no suspect identified","date":"2018-03"},"persistent_id":"34f3cb1241710b811e574f867559feb28d17525e4c4d53ee9f4939d591bee440","id":62649731,"location_subtype":"","month":"2018-01"},{"category":"violent-crime","location_type":"Force","location":{"latitude":"51.565247","street":{"id":970569,"name":"On or near Franmil Road"},"longitude":"0.193037"},"context":"","outcome_status":{"category":"Status update unavailable","date":"2018-05"},"persistent_id":"1f4588bdca5aa1da177517729453141a25d305c6905db251576a28872785bbcb","id":62676951,"location_subtype":"","month":"2018-01"},{"category":"violent-crime","location_type":"Force","location":{"latitude":"51.560319","street":{"id":970551,"name":"On or near Crescent Avenue"},"longitude":"0.186784"},"context":"","outcome_status":{"category":"Status update unavailable","date":"2018-05"},"persistent_id":"1b787937ec0a4999fad412ea05e0942cbaecfc6b333e23feddde535284bf9b47","id":62670113,"location_subtype":"","month":"2018-01"},{"category":"violent-crime","location_type":"Force","location":{"latitude":"51.569428","street":{"id":976581,"name":"On or near Hillcrest Road"},"longitude":"0.197856"},"context":"","outcome_status":{"category":"Status update unavailable","date":"2018-05"},"persistent_id":"b4cb7eb14da338fe006ba8ddbb4286ea5a51e1e059c1923f6b615f0e82d10403","id":62654402,"location_subtype":"","month":"2018-01"},{"category":"violent-crime","location_type":"Force","location":{"latitude":"51.561612","street":{"id":970507,"name":"On or near Sports\/recreation Area"},"longitude":"0.205617"},"context":"","outcome_status":{"category":"Investigation complete; no suspect identified","date":"2018-01"},"persistent_id":"32cb05978be42be9ebfb66a92bf578be591cffd79a6ae71b9f8e899c1b2df6cd","id":62638437,"location_subtype":"","month":"2018-01"},{"category":"violent-crime","location_type":"Force","location":{"latitude":"51.568769","street":{"id":976596,"name":"On or near Globe Road"},"longitude":"0.197522"},"context":"","outcome_status":{"category":"Investigation complete; no suspect identified","date":"2018-03"},"persistent_id":"bd4d3d417fad3a23ec11009c553a66adb71df61d53bbe3f35fd79221835ec898","id":62677524,"location_subtype":"","month":"2018-01"},{"category":"violent-crime","location_type":"Force","location":{"latitude":"51.560022","street":{"id":970467,"name":"On or near Apollo Close"},"longitude":"0.199293"},"context":"","outcome_status":{"category":"Status update unavailable","date":"2018-05"},"persistent_id":"bbc4e1fdccff29f546b60555c2bb64388465aa59e898e48c4723ec450199d924","id":62642228,"location_subtype":"","month":"2018-01"},{"category":"violent-crime","location_type":"Force","location":{"latitude":"51.565046","street":{"id":970506,"name":"On or near Petrol Station"},"longitude":"0.203792"},"context":"","outcome_status":{"category":"Investigation complete; no suspect identified","date":"2018-04"},"persistent_id":"487eb37aa7d7e01dd512f9d805b2fecfc5e8a1aa6f19c45fb412b9a49009aabb","id":62675001,"location_subtype":"","month":"2018-01"},{"category":"violent-crime","location_type":"Force","location":{"latitude":"51.565046","street":{"id":970506,"name":"On or near Petrol Station"},"longitude":"0.203792"},"context":"","outcome_status":{"category":"Status update unavailable","date":"2018-05"},"persistent_id":"487eb37aa7d7e01dd512f9d805b2fecfc5e8a1aa6f19c45fb412b9a49009aabb","id":62674428,"location_subtype":"","month":"2018-01"}]