[{"category":"anti-social-behaviour","location_type":"Force","location":{"latitude":"51.447237","street":{"id":938714,"name":"On or near Bedfont Lane"},"longitude":"-0.410235"},"context":"","outcome_status":null,"persistent_id":"","id":52673159,"location_subtype":"","month":"2016-10"},{"category":"anti-social-behaviour","location_type":"Force","location":{"latitude":"51.436379","street":{"id":938462,"name":"On or near Pinkcoat Close"},"longitude":"-0.410641"},"context":"","outcome_status":null,"persistent_id":"","id":52673162,"location_subtype":"","month":"2016-10"},{"category":"anti-social-behaviour","location_type":"Force","location":{"latitude":"51.435384","street":{"id":938334,"name":"On or near Petrol Station"},"longitude":"-0.392361"},"context":"","outcome_status":null,"persistent_id":"","id":52672680,"location_subtype":"","month":"2016-10"},{"category":"anti-social-behaviour","location_type":"Force","location":{"latitude":"51.444825","street":{"id":938747,"name":"On or near Westbury Road"},"longitude":"-0.390360"},"context":"","outcome_status":null,"persistent_id":"","id":52672677,"location_subtype":"","month":"2016-10"},{"category":"anti-social-behaviour","location_type":"Force","location":{"latitude":"51.442778","street":{"id":938469,"name":"On or near Browell's Lane"},"longitude":"-0.406361"},"context":"","outcome_status":null,"persistent_id":"","id":52672772,"location_subtype":"","month":"2016-10"},{"category":"anti-social-behaviour","location_type":"Force","location":{"latitude":"51.439885","street":{"id":938458,"name":"On or near Sandalwood Road"},"longitude":"-0.407253"},"context":"","outcome_status":null,"persistent_id":"","id":52672785,"location_subtype":"","month":"2016-10"},{"category":"anti-social-behaviour","location_type":"Force","location":{"latitude":"51.439885","street":{"id":938458,"name":"On or near Sandalwood Road"},"longitude":"-0.407253"},"context":"","outcome_status":null,"persistent_id":"","id":52672784,"location_subtype":"","month":"2016-10"},{"category":"anti-social-behaviour","location_type":"Force","location":{"latitude":"51.444385","street":{"id":938710,"name":"On or near Mono Lane"},"longitude":"-0.407500"},"context":"","outcome_status":null,"persistent_id":"","id":52672780,"location_subtype":"","month":"2016-10"},{"category":"anti-social-behaviour","location_type":"Force","location":{"latitude":"51.444385","street":{"id":938710,"name":"On or near Mono Lane"},"longitude":"-0.407500"},"context":"","outcome_status":null,"persistent_id":"","id":52672779,"location_subtype":"","month":"2016-10"},{"category":"anti-social-behaviour","location_type":"Force","location":{"latitude":"51.440860","street":{"id":938472,"name":"On or near Sports\/recreation Area"},"longitude":"-0.404169"},"context":"","outcome_status":null,"persistent_id":"","id":52672756,"location_subtype":"","month":"2016-10"},{"category":"anti-social-behaviour","location_type":"Force","location":{"latitude":"51.446426","street":{"id":938752,"name":"On or near Leigh Place"},"longitude":"-0.402234"},"context":"","outcome_status":null,"persistent_id":"","id":52672747,"location_subtype":"","month":"2016-10"},{"category":"anti-social-behaviour","location_type":"Force","location":{"latitude":"51.436893","street":{"id":938337,"name":"On or near Clifton Avenue"},"longitude":"-0.403444"},"context":"","outcome_status":null,"persistent_id":"","id":52672745,"location_subtype":"","month":"2016-10"},{"category":"anti-social-behaviour","location_type":"Force","location":{"latitude":"51.436893","street":{"id":938337,"name":"On or near Clifton Avenue"},"longitude":"-0.403444"},"context":"","outcome_status":null,"persistent_id":"","id":52672744,"location_subtype":"","month":"2016-10"},{"category":"anti-social-behaviour","location_type":"Force","location":{"latitude":"51.434956","street":{"id":938331,"name":"On or near Park Road"},"longitude":"-0.393268"},"context":"","outcome_status":null,"persistent_id":"","id":52672712,"location_subtype":"","month":"2016-10"},{"category":"anti-social-behaviour","location_type":"Force","location":{"latitude":"51.445938","street":{"id":938745,"name":"On or near Wyatt Close"},"longitude":"-0.396768"},"context":"","outcome_status":null,"persistent_id":"","id":52672700,"location_subtype":"","month":"2016-10"},{"category":"anti-social-behaviour","location_type":"Force","location":{"latitude":"51.434956","street":{"id":938331,"name":"On or near Park Road"},"longitude":"-0.393268"},"context":"","outcome_status":null,"persistent_id":"","id":52672696,"location_subtype":"","month":"2016-10"},{"category":"anti-social-behaviour","location_type":"Force","location":{"latitude":"51.434956","street":{"id":938331,"name":"On or near Park Road"},"longitude":"-0.393268"},"context":"","outcome_status":null,"persistent_id":"","id":52672695,"location_subtype":"","month":"2016-10"},{"category":"anti-social-behaviour","location_type":"Force","location":{"latitude":"51.446426","street":{"id":938752,"name":"On or near Leigh Place"},"longitude":"-0.402234"},"context":"","outcome_status":null,"persistent_id":"","id":52672748,"location_subtype":"","month":"2016-10"},{"category":"anti-social-behaviour","location_type":"Force","location":{"latitude":"51.445424","street":{"id":938746,"name":"On or near Wigley Road"},"longitude":"-0.392066"},"context":"","outcome_status":null,"persistent_id":"","id":52672676,"location_subtype":"","month":"2016-10"},{"category":"anti-social-behaviour","location_type":"Force","location":{"latitude":"51.434956","street":{"id":938331,"name":"On or near Park Road"},"longitude":"-0.393268"},"context":"","outcome_status":null,"persistent_id":"","id":52672711,"location_subtype":"","month":"2016-10"},{"category":"anti-social-behaviour","location_type":"Force","location":{"latitude":"51.442778","street":{"id":938469,"name":"On or near Browell's Lane"},"longitude":"-0.406361"},"context":"","outcome_status":null,"persistent_id":"","id":52672771,"location_subtype":"","month":"2016-10"},{"category":"anti-social-behaviour","location_type":"Force","location":{"latitude":"51.448499","street":{"id":938598,"name":"On or near Queen's Road"},"longitude":"-0.404550"},"context":"","outcome_status":null,"persistent_id":"","id":52672777,"location_subtype":"","month":"2016-10"},{"category":"anti-social-behaviour","location_type":"Force","location":{"latitude":"51.447237","street":{"id":938714,"name":"On or near Bedfont Lane"},"longitude":"-0.410235"},"context":"","outcome_status":null,"persistent_id":"","id":52673160,"location_subtype":"","month":"2016-10"},{"category":"bicycle-theft","location_type":"BTP","location":{"latitude":"51.447900","street":{"id":1487961,"name":"Feltham (station)"},"longitude":"-0.409131"},"context":"","outcome_status":{"category":"Status update unavailable","date":"2017-02"},"persistent_id":"","id":66310577,"location_subtype":"STATION","month":"2016-10"},{"category":"bicycle-theft","location_type":"Force","location":{"latitude":"51.447807","street":{"id":938596,"name":"On or near Parking Area"},"longitude":"-0.409179"},"context":"","outcome_status":{"category":"Status update unavailable","date":"2017-02"},"persistent_id":"a7c4c449346daa190391abb0ae6e6927af28471d9d0802dd2f1dc100b5e44900","id":52760739,"location_subtype":"","month":"2016-10"},{"category":"bicycle-theft","location_type":"BTP","location":{"latitude":"51.447900","street":{"id":1487961,"name":"Feltham (station)"},"longitude":"-0.409131"},"context":"","outcome_status":{"category":"Status update unavailable","date":"2017-02"},"persistent_id":"","id":66310578,"location_subtype":"STATION","month":"2016-10"},{"category":"bicycle-theft","location_type":"Force","location":{"latitude":"51.445144","street":{"id":938708,"name":"On or near Danesbury Road"},"longitude":"-0.404494"},"context":"","outcome_status":{"category":"Status update unavailable","date":"2017-02"},"persistent_id":"76ca609eb96dbfee6c51a8035157ef6056d0bf5d918d6d4788e4de7abe68f8fc","id":52776447,"location_subtype":"","month":"2016-10"},{"category":"bicycle-theft","location_type":"Force","location":{"latitude":"51.447237","street":{"id":938714,"name":"On or near Bedfont Lane"},"longitude":"-0.410235"},"context":"","outcome_status":{"category":"Investigation complete; no suspect identified","date":"2016-11"},"persistent_id":"cd87c6649ccdedb65ad55facabc1d77e562cf6d61e042bc6373e0f4a453a3b44","id":52754818,"location_subtype":"","month":"2016-10"},{"category":"burglary","location_type":"Force","location":{"latitude":"51.443618","street":{"id":938751,"name":"On or near Marlborough Road"},"longitude":"-0.392820"},"context":"","outcome_status":{"category":"Investigation complete; no suspect identified","date":"2016-10"},"persistent_id":"de72efad39714837ad2f62aae57342de708768d2f39f2817bc8706b55ec1dfd1","id":52696056,"location_subtype":"","month":"2016-10"},{"category":"burglary","location_type":"Force","location":{"latitude":"51.439452","street":{"id":938463,"name":"On or near Pinewood Road"},"longitude":"-0.405772"},"context":"","outcome_status":{"category":"Status update unavailable","date":"2017-02"},"persistent_id":"76388e6da1198ae798a2a3882f52ed0a47e25a25d2c974cd659c995fa266ad14","id":52758190,"location_subtype":"","month":"2016-10"},{"category":"burglary","location_type":"Force","location":{"latitude":"51.435955","street":{"id":938452,"name":"On or near Roebuck Close"},"longitude":"-0.408555"},"context":"","outcome_status":{"category":"Status update unavailable","date":"2017-02"},"persistent_id":"79a9c4fd427d1d857c7ecf09244750548afcda2e6c4d3a912654f2ced9d5f20f","id":52715829,"location_subtype":"","month":"2016-10"},{"category":"burglary","location_type":"Force","location":{"latitude":"51.435560","street":{"id":923993,"name":"On or near Park Road"},"longitude":"-0.392067"},"context":"","outcome_status":{"category":"Status update unavailable","date":"2017-02"},"persistent_id":"e08f8c36d2f004b76db16722a4053b0ce75955b11c6b09210e9fcb4dd3ed5d15","id":52758749,"location_subtype":"","month":"2016-10"},{"category":"burglary","location_type":"Force","location":{"latitude":"51.445144","street":{"id":938708,"name":"On or near Danesbury Road"},"longitude":"-0.404494"},"context":"","outcome_status":{"category":"Status update unavailable","date":"2017-02"},"persistent_id":"88567f66087020ba8edc5dafe272a45fb61a7723518e06e1286f3583756de7e8","id":52752014,"location_subtype":"","month":"2016-10"},{"category":"burglary","location_type":"Force","location":{"latitude":"51.435560","street":{"id":923993,"name":"On or near Park Road"},"longitude":"-0.392067"},"context":"","outcome_status":{"category":"Status update unavailable","date":"2017-02"},"persistent_id":"6478736a2ad828efae0564c57ccbed42509aeccb8ef2e850a7d50906a246827a","id":52750578,"location_subtype":"","month":"2016-10"},{"category":"burglary","location_type":"Force","location":{"latitude":"51.448499","street":{"id":938598,"name":"On or near Queen's Road"},"longitude":"-0.404550"},"context":"","outcome_status":{"category":"Investigation complete; no suspect identified","date":"2017-02"},"persistent_id":"e1d6a293947916feab382298d38a1c0647f46423971c37d3e1bcc9a9e21a50a0","id":52766660,"location_subtype":"","month":"2016-10"},{"category":"burglary","location_type":"Force","location":{"latitude":"51.447346","street":{"id":938732,"name":"On or near Harlington Road East"},"longitude":"-0.401741"},"context":"","outcome_status":{"category":"Investigation complete; no suspect identified","date":"2016-11"},"persistent_id":"69cc669fabb456066227829c8a8f0d5cf99f55106a3eef2d4fe51d82b41f3861","id":52765423,"location_subtype":"","month":"2016-10"},{"category":"burglary","location_type":"Force","location":{"latitude":"51.433205","street":{"id":938395,"name":"On or near Moat Side"},"longitude":"-0.403357"},"context":"","outcome_status":{"category":"Investigation complete; no suspect identified","date":"2016-12"},"persistent_id":"700e9de881b708087d5261a8785f43585769485e789a2c2db2f442d656d713a2","id":52755995,"location_subtype":"","month":"2016-10"},{"category":"criminal-damage-arson","location_type":"Force","location":{"latitude":"51.448218","street":{"id":938729,"name":"On or near Norfolk Road"},"longitude":"-0.399753"},"context":"","outcome_status":{"category":"Status update unavailable","date":"2017-02"},"persistent_id":"d7dade4eea7b3f7bf4c46075ec4c3ffc116c82a54ef861f65c72eac5f16270b9","id":52738722,"location_subtype":"","month":"2016-10"},{"category":"criminal-damage-arson","location_type":"Force","location":{"latitude":"51.445144","street":{"id":938708,"name":"On or near Danesbury Road"},"longitude":"-0.404494"},"context":"","outcome_status":{"category":"Investigation complete; no suspect identified","date":"2016-11"},"persistent_id":"1c5f7e584b8048d35715cb8f2cfd5adf4110bb85363ac74f0ad3f227d7917c29","id":52681645,"location_subtype":"","month":"2016-10"},{"category":"criminal-damage-arson","location_type":"Force","location":{"latitude":"51.434956","street":{"id":938331,"name":"On or near Park Road"},"longitude":"-0.393268"},"context":"","outcome_status":{"category":"Status update unavailable","date":"2017-02"},"persistent_id":"595abf7f69000d5c6a36c03c132eab0404adffe274bd5ef28c39c3ca449efcb0","id":52679084,"location_subtype":"","month":"2016-10"},{"category":"criminal-damage-arson","location_type":"BTP","location":{"latitude":"51.447900","street":{"id":1487961,"name":"Feltham (station)"},"longitude":"-0.409131"},"context":"","outcome_status":{"category":"Status update unavailable","date":"2017-02"},"persistent_id":"","id":66310575,"location_subtype":"STATION","month":"2016-10"},{"category":"criminal-damage-arson","location_type":"Force","location":{"latitude":"51.446745","street":{"id":938715,"name":"On or near Beauclerk Close"},"longitude":"-0.405791"},"context":"","outcome_status":{"category":"Investigation complete; no suspect identified","date":"2016-10"},"persistent_id":"ff5304345edbde190bf463d8446098f307c0b93a2cc23fb79bedf7f9a4d47371","id":52702898,"location_subtype":"","month":"2016-10"},{"category":"criminal-damage-arson","location_type":"Force","location":{"latitude":"51.444385","street":{"id":938710,"name":"On or near Mono Lane"},"longitude":"-0.407500"},"context":"","outcome_status":{"category":"Status update unavailable","date":"2017-02"},"persistent_id":"62f2464afbcfc5ca87c89ebb6a3f231c97dd3d3f9e10af6bc9f54714c7bf422b","id":52753939,"location_subtype":"","month":"2016-10"},{"category":"criminal-damage-arson","location_type":"Force","location":{"latitude":"51.442658","street":{"id":938335,"name":"On or near Woodlawn Drive"},"longitude":"-0.390379"},"context":"","outcome_status":{"category":"Investigation complete; no suspect identified","date":"2016-12"},"persistent_id":"21bb7020badede09e131150a9bf4ae903723ed0fb1ab2d4a3abc1dee80b5d350","id":52751576,"location_subtype":"","month":"2016-10"},{"category":"criminal-damage-arson","location_type":"Force","location":{"latitude":"51.437542","street":{"id":938427,"name":"On or near Craigwell Avenue"},"longitude":"-0.416816"},"context":"","outcome_status":{"category":"Offender given suspended prison sentence","date":"2018-02"},"persistent_id":"61c02d21962c3108e25769ddcf8ea51ee056659be52a84ec99884ce21ef87843","id":52751098,"location_subtype":"","month":"2016-10"},{"category":"criminal-damage-arson","location_type":"Force","location":{"latitude":"51.434956","street":{"id":938331,"name":"On or near Park Road"},"longitude":"-0.393268"},"context":"","outcome_status":{"category":"Offender given community sentence","date":"2016-11"},"persistent_id":"1288ad0e3092424ccd2baf4c9571997a8e55a617be339a458579d7785b18ca10","id":52752932,"location_subtype":"","month":"2016-10"},{"category":"criminal-damage-arson","location_type":"Force","location":{"latitude":"51.444385","street":{"id":938710,"name":"On or near Mono Lane"},"longitude":"-0.407500"},"context":"","outcome_status":{"category":"Investigation complete; no suspect identified","date":"2017-06"},"persistent_id":"6840684c6ec22e562606f73ce9befb10ee87ba1b5648ce01f42dc1c38788aed9","id":52778227,"location_subtype":"","month":"2016-10"},{"category":"drugs","location_type":"Force","location":{"latitude":"51.445144","street":{"id":938708,"name":"On or near Danesbury Road"},"longitude":"-0.404494"},"context":"","outcome_status":{"category":"Offender given a drugs possession warning","date":"2016-10"},"persistent_id":"06db37071c4343ceab7013d308ca6c743d59705602f8c6ceaa6e73c2839667fa","id":52685550,"location_subtype":"","month":"2016-10"},{"category":"drugs","location_type":"Force","location":{"latitude":"51.447807","street":{"id":938596,"name":"On or near Parking Area"},"longitude":"-0.409179"},"context":"","outcome_status":{"category":"Investigation complete; no suspect identified","date":"2016-11"},"persistent_id":"a34d9a3f3b294f2e293799f5a061e29cb099da9469f44d91b7b25e3ae92cb3b3","id":52775024,"location_subtype":"","month":"2016-10"},{"category":"drugs","location_type":"Force","location":{"latitude":"51.442778","street":{"id":938469,"name":"On or near Browell's Lane"},"longitude":"-0.406361"},"context":"","outcome_status":{"category":"Offender given community sentence","date":"2016-11"},"persistent_id":"ed9fb3a84d659a7565fbb913fc55017ce977f8cf257787f36e71af50ecec7217","id":52689639,"location_subtype":"","month":"2016-10"},{"category":"drugs","location_type":"Force","location":{"latitude":"51.446632","street":{"id":938750,"name":"On or near Salisbury Road"},"longitude":"-0.399521"},"context":"","outcome_status":{"category":"Offender given a drugs possession warning","date":"2016-10"},"persistent_id":"345bcdd33cc227e752484ba009f4cb6e43a9821d7a745fc2df287a74ac9a415e","id":52741532,"location_subtype":"","month":"2016-10"},{"category":"drugs","location_type":"Force","location":{"latitude":"51.434956","street":{"id":938331,"name":"On or near Park Road"},"longitude":"-0.393268"},"context":"","outcome_status":{"category":"Offender given a drugs possession warning","date":"2016-10"},"persistent_id":"1f19783f988fa5f37af798fa8fa1d08761a7e17e055d8424d9a95c484597fe97","id":52741534,"location_subtype":"","month":"2016-10"},{"category":"drugs","location_type":"Force","location":{"latitude":"51.442778","street":{"id":938469,"name":"On or near Browell's Lane"},"longitude":"-0.406361"},"context":"","outcome_status":{"category":"Offender fined","date":"2016-10"},"persistent_id":"0555a0465642b86503f42686e668c5a9b520543455575524733f74c4f178635a","id":52752189,"location_subtype":"","month":"2016-10"},{"category":"drugs","location_type":"Force","location":{"latitude":"51.434956","street":{"id":938331,"name":"On or near Park Road"},"longitude":"-0.393268"},"context":"","outcome_status":{"category":"Offender given a drugs possession warning","date":"2016-10"},"persistent_id":"0eca41e9123adc6679487f98e8b3fc96e49ceb5954c15f12d4f4b0ec1da04f24","id":52736290,"location_subtype":"","month":"2016-10"},{"category":"drugs","location_type":"Force","location":{"latitude":"51.433690","street":{"id":938401,"name":"On or near Castle Way"},"longitude":"-0.399340"},"context":"","outcome_status":{"category":"Offender given a drugs possession warning","date":"2016-10"},"persistent_id":"3af1ddf81926b210bc1b2d93345be027d4f6f6ed6be60972749334538f529d8e","id":52739719,"location_subtype":"","month":"2016-10"},{"category":"drugs","location_type":"Force","location":{"latitude":"51.447237","street":{"id":938714,"name":"On or near Bedfont Lane"},"longitude":"-0.410235"},"context":"","outcome_status":{"category":"Offender given a drugs possession warning","date":"2016-10"},"persistent_id":"b4eca8e1cdb1196ad160bbaa3b5f6018cb9a0d208d2d622f13a097123bb19264","id":52692496,"location_subtype":"","month":"2016-10"},{"category":"drugs","location_type":"Force","location":{"latitude":"51.444385","street":{"id":938710,"name":"On or near Mono Lane"},"longitude":"-0.407500"},"context":"","outcome_status":{"category":"Offender given a drugs possession warning","date":"2016-10"},"persistent_id":"99791108e46008ea62907a75d97e460828df2ec69b574a43f047d2b7410644c6","id":52696833,"location_subtype":"","month":"2016-10"},{"category":"drugs","location_type":"Force","location":{"latitude":"51.445144","street":{"id":938708,"name":"On or near Danesbury Road"},"longitude":"-0.404494"},"context":"","outcome_status":{"category":"Offender given penalty notice","date":"2016-10"},"persistent_id":"f43167a8da4531fe202671c1cdcc80febd7c9e832a40f80a6db2245f22f9db97","id":52682082,"location_subtype":"","month":"2016-10"},{"category":"drugs","location_type":"Force","location":{"latitude":"51.439885","street":{"id":938458,"name":"On or near Sandalwood Road"},"longitude":"-0.407253"},"context":"","outcome_status":{"category":"Offender given penalty notice","date":"2016-10"},"persistent_id":"e6af17e127513ffaa770e441dddc6078acef885c488fe04d3619ffbfd2f95901","id":52751505,"location_subtype":"","month":"2016-10"},{"category":"drugs","location_type":"Force","location":{"latitude":"51.445010","street":{"id":938753,"name":"On or near Lafone Avenue"},"longitude":"-0.401261"},"context":"","outcome_status":{"category":"Offender given a caution","date":"2016-12"},"persistent_id":"e65726e181a11235081b643c4637a102529e5544a0b52cc06d5f9002ce042d85","id":52721812,"location_subtype":"","month":"2016-10"},{"category":"drugs","location_type":"Force","location":{"latitude":"51.439885","street":{"id":938458,"name":"On or near Sandalwood Road"},"longitude":"-0.407253"},"context":"","outcome_status":{"category":"Offender given a drugs possession warning","date":"2016-10"},"persistent_id":"afbf7366779fa00b7fcb0e3e295ddd330bff5a961955c02e7f5f16ff52de74d0","id":52748878,"location_subtype":"","month":"2016-10"},{"category":"drugs","location_type":"Force","location":{"latitude":"51.446632","street":{"id":938750,"name":"On or near Salisbury Road"},"longitude":"-0.399521"},"context":"","outcome_status":{"category":"Court case unable to proceed","date":"2016-11"},"persistent_id":"b16ae92a33acbe5194c852ef3c3f19e58e145273bc2068ac672f296fc03756ae","id":52750212,"location_subtype":"","month":"2016-10"},{"category":"drugs","location_type":"Force","location":{"latitude":"51.445010","street":{"id":938753,"name":"On or near Lafone Avenue"},"longitude":"-0.401261"},"context":"","outcome_status":{"category":"Local resolution","date":"2016-12"},"persistent_id":"7d5dc43a50e8181bc311f33f32e87c1beca67cbf6796fced427d2d539780a785","id":52751492,"location_subtype":"","month":"2016-10"},{"category":"other-theft","location_type":"Force","location":{"latitude":"51.435384","street":{"id":938334,"name":"On or near Petrol Station"},"longitude":"-0.392361"},"context":"","outcome_status":{"category":"Investigation complete; no suspect identified","date":"2017-10"},"persistent_id":"65b629918ee28799492262061267ff01ebf3bdd6337c638307edb5d3b74f732c","id":52735498,"location_subtype":"","month":"2016-10"},{"category":"other-theft","location_type":"Force","location":{"latitude":"51.444385","street":{"id":938710,"name":"On or near Mono Lane"},"longitude":"-0.407500"},"context":"","outcome_status":{"category":"Investigation complete; no suspect identified","date":"2016-11"},"persistent_id":"1c56409df7f544ca412fd8ec43a2d2d7a43642ac415c66c6ca360757923d2735","id":52779173,"location_subtype":"","month":"2016-10"},{"category":"other-theft","location_type":"Force","location":{"latitude":"51.440332","street":{"id":938410,"name":"On or near Vineyard Road"},"longitude":"-0.414360"},"context":"","outcome_status":{"category":"Investigation complete; no suspect identified","date":"2016-10"},"persistent_id":"870feaa3d07df3ae38e458c1ca636b29bfe635d1b6abe78cfdcba9b65212a3b7","id":52707017,"location_subtype":"","month":"2016-10"},{"category":"other-theft","location_type":"Force","location":{"latitude":"51.446601","street":{"id":938713,"name":"On or near Cardinal Road"},"longitude":"-0.407120"},"context":"","outcome_status":{"category":"Status update unavailable","date":"2017-02"},"persistent_id":"cb494a8fc110032f0874e5327adca884279edc6dd930831dc2b85e09e082a840","id":52754850,"location_subtype":"","month":"2016-10"},{"category":"other-theft","location_type":"Force","location":{"latitude":"51.444177","street":{"id":938709,"name":"On or near The Green"},"longitude":"-0.410039"},"context":"","outcome_status":{"category":"Investigation complete; no suspect identified","date":"2016-11"},"persistent_id":"8591c79db73c87f542e6aa107aaae625d5d89720adbd6f19cafe75e7cc16afde","id":52696182,"location_subtype":"","month":"2016-10"},{"category":"other-theft","location_type":"Force","location":{"latitude":"51.431743","street":{"id":938473,"name":"On or near Felthamhill Road"},"longitude":"-0.410212"},"context":"","outcome_status":{"category":"Investigation complete; no suspect identified","date":"2016-11"},"persistent_id":"53eef33efdf71c87a6ae318dde418351ce6e99b353cb19ea092f39bb14ee1727","id":52752676,"location_subtype":"","month":"2016-10"},{"category":"other-theft","location_type":"Force","location":{"latitude":"51.445144","street":{"id":938708,"name":"On or near Danesbury Road"},"longitude":"-0.404494"},"context":"","outcome_status":{"category":"Status update unavailable","date":"2017-02"},"persistent_id":"9267ea7a1cf4a4c5975f568808877e7be0d98b5db74b3cb80d5d0fdc6f266f89","id":52698812,"location_subtype":"","month":"2016-10"},{"category":"other-theft","location_type":"Force","location":{"latitude":"51.445144","street":{"id":938708,"name":"On or near Danesbury Road"},"longitude":"-0.404494"},"context":"","outcome_status":{"category":"Status update unavailable","date":"2017-02"},"persistent_id":"92f50c045bfe2d6581874e0de66f2415a35b98b76dfd541334661024d6dad721","id":52767103,"location_subtype":"","month":"2016-10"},{"category":"other-theft","location_type":"Force","location":{"latitude":"51.435384","street":{"id":938334,"name":"On or near Petrol Station"},"longitude":"-0.392361"},"context":"","outcome_status":{"category":"Investigation complete; no suspect identified","date":"2016-10"},"persistent_id":"532eef7d912917dce9286d3227abb4965125edea985f00c2df5ef922b616921d","id":52691554,"location_subtype":"","month":"2016-10"},{"category":"other-theft","location_type":"Force","location":{"latitude":"51.444982","street":{"id":938762,"name":"On or near Pevensey Road"},"longitude":"-0.387347"},"context":"","outcome_status":{"category":"Investigation complete; no suspect identified","date":"2016-10"},"persistent_id":"6cf16527f2b7ac7f524600b935d6348b658420ccc2263fb434c57a691fb92fc1","id":52752493,"location_subtype":"","month":"2016-10"},{"category":"other-theft","location_type":"Force","location":{"latitude":"51.442778","street":{"id":938469,"name":"On or near Browell's Lane"},"longitude":"-0.406361"},"context":"","outcome_status":{"category":"Status update unavailable","date":"2017-02"},"persistent_id":"614ea666751b1be68cea23e0251a0c72f71a0a27375322130594666eced81e01","id":52753127,"location_subtype":"","month":"2016-10"},{"category":"other-theft","location_type":"Force","location":{"latitude":"51.446601","street":{"id":938713,"name":"On or near Cardinal Road"},"longitude":"-0.407120"},"context":"","outcome_status":{"category":"Investigation complete; no suspect identified","date":"2017-03"},"persistent_id":"bd1cda1aad86749bd8fa31273be13c2e847a3f007d3d5330abbbf5211b2b1160","id":52749445,"location_subtype":"","month":"2016-10"},{"category":"other-theft","location_type":"Force","location":{"latitude":"51.434956","street":{"id":938331,"name":"On or near Park Road"},"longitude":"-0.393268"},"context":"","outcome_status":{"category":"Investigation complete; no suspect identified","date":"2016-11"},"persistent_id":"b42ea5eb0ee31d234fb4db433c718bd570ca2081b39fb378e2d5babde19f380c","id":52756453,"location_subtype":"","month":"2016-10"},{"category":"other-theft","location_type":"Force","location":{"latitude":"51.445144","street":{"id":938708,"name":"On or near Danesbury Road"},"longitude":"-0.404494"},"context":"","outcome_status":{"category":"Status update unavailable","date":"2017-02"},"persistent_id":"a341d7634ec2e7e482e7dca3999673cf699dbd4513f5b96ca2fb865d32e1046d","id":52749428,"location_subtype":"","month":"2016-10"},{"category":"other-theft","location_type":"Force","location":{"latitude":"51.446745","street":{"id":938715,"name":"On or near Beauclerk Close"},"longitude":"-0.405791"},"context":"","outcome_status":{"category":"Status update unavailable","date":"2017-02"},"persistent_id":"7759c620933b9d7bd7410606ecdf8f6156c7ba260bc8531d7f5f0fc2eb319472","id":52744102,"location_subtype":"","month":"2016-10"},{"category":"other-theft","location_type":"Force","location":{"latitude":"51.442778","street":{"id":938469,"name":"On or near Browell's Lane"},"longitude":"-0.406361"},"context":"","outcome_status":{"category":"Investigation complete; no suspect identified","date":"2016-11"},"persistent_id":"98bd8c124bdc49e6974b67665bb9cbda894e79012d20a09303e275ca67da6dd2","id":52755886,"location_subtype":"","month":"2016-10"},{"category":"possession-of-weapons","location_type":"Force","location":{"latitude":"51.445010","street":{"id":938753,"name":"On or near Lafone Avenue"},"longitude":"-0.401261"},"context":"","outcome_status":{"category":"Offender given a caution","date":"2016-12"},"persistent_id":"c81d13196a3090d2beaecacc7307ef69b4d17d3c15a07f530564aea8fd851c8a","id":52753291,"location_subtype":"","month":"2016-10"},{"category":"public-order","location_type":"Force","location":{"latitude":"51.442658","street":{"id":938335,"name":"On or near Woodlawn Drive"},"longitude":"-0.390379"},"context":"","outcome_status":{"category":"Investigation complete; no suspect identified","date":"2016-12"},"persistent_id":"3754340965604e5a95ac6d7385b8bca85ccf20440e80484b828694b9dcf721e1","id":52710127,"location_subtype":"","month":"2016-10"},{"category":"public-order","location_type":"Force","location":{"latitude":"51.440860","street":{"id":938472,"name":"On or near Sports\/recreation Area"},"longitude":"-0.404169"},"context":"","outcome_status":{"category":"Investigation complete; no suspect identified","date":"2016-10"},"persistent_id":"c5255c4683d5de061d30a75444bd3bfac4cfe913710d0807fb9883cf9e5a9dbe","id":52729393,"location_subtype":"","month":"2016-10"},{"category":"public-order","location_type":"Force","location":{"latitude":"51.446516","street":{"id":938712,"name":"On or near Florence Road"},"longitude":"-0.405511"},"context":"","outcome_status":{"category":"Investigation complete; no suspect identified","date":"2016-11"},"persistent_id":"81e85b87f88b5cf897d5c944934b53a359f768cd49456e7f1d3e9cf965417f26","id":52765185,"location_subtype":"","month":"2016-10"},{"category":"public-order","location_type":"Force","location":{"latitude":"51.444982","street":{"id":938762,"name":"On or near Pevensey Road"},"longitude":"-0.387347"},"context":"","outcome_status":{"category":"Investigation complete; no suspect identified","date":"2017-01"},"persistent_id":"67405bed239509d74000ba24caeee9db4c3e8032a54e376c256cd14d7df23b56","id":52778451,"location_subtype":"","month":"2016-10"},{"category":"public-order","location_type":"BTP","location":{"latitude":"51.447900","street":{"id":1487961,"name":"Feltham (station)"},"longitude":"-0.409131"},"context":"","outcome_status":{"category":"Status update unavailable","date":"2017-02"},"persistent_id":"","id":66310576,"location_subtype":"STATION","month":"2016-10"},{"category":"robbery","location_type":"Force","location":{"latitude":"51.444982","street":{"id":938762,"name":"On or near Pevensey Road"},"longitude":"-0.387347"},"context":"","outcome_status":{"category":"Court result unavailable","date":"2017-05"},"persistent_id":"8a7c68c12b36ba21ab762f2f16c8b6341967c85d5c22ddd834f9df0118a1fd8f","id":52734272,"location_subtype":"","month":"2016-10"},{"category":"robbery","location_type":"Force","location":{"latitude":"51.447237","street":{"id":938714,"name":"On or near Bedfont Lane"},"longitude":"-0.410235"},"context":"","outcome_status":{"category":"Investigation complete; no suspect identified","date":"2016-11"},"persistent_id":"9d142029ec21ef098005c9a5a57fd6f41268ade1b1d6151758460fc1c89a4869","id":52739835,"location_subtype":"","month":"2016-10"},{"category":"robbery","location_type":"Force","location":{"latitude":"51.445010","street":{"id":938753,"name":"On or near Lafone Avenue"},"longitude":"-0.401261"},"context":"","outcome_status":{"category":"Investigation complete; no suspect identified","date":"2016-11"},"persistent_id":"d27d0f081313794b36051694e2c5f7feef291818e0facfaca83f8495cba4bd8c","id":52750537,"location_subtype":"","month":"2016-10"},{"category":"shoplifting","location_type":"Force","location":{"latitude":"51.447807","street":{"id":938596,"name":"On or near Parking Area"},"longitude":"-0.409179"},"context":"","outcome_status":{"category":"Investigation complete; no suspect identified","date":"2016-11"},"persistent_id":"8addc1767c71aa43c0ef1d4537e8bf8b94325bad1b1cecd4725a5aafc39f873b","id":52712443,"location_subtype":"","month":"2016-10"},{"category":"shoplifting","location_type":"Force","location":{"latitude":"51.447807","street":{"id":938596,"name":"On or near Parking Area"},"longitude":"-0.409179"},"context":"","outcome_status":{"category":"Status update unavailable","date":"2017-02"},"persistent_id":"f4a9a715b9161dd31d5411c6c42a4b10085949233af10825fe514ba44436d7dc","id":52764522,"location_subtype":"","month":"2016-10"},{"category":"shoplifting","location_type":"Force","location":{"latitude":"51.445531","street":{"id":938754,"name":"On or near Elthorne Court"},"longitude":"-0.398566"},"context":"","outcome_status":{"category":"Status update unavailable","date":"2017-02"},"persistent_id":"2ebffd748400962b335899a4ff45a16f64fb6590327c3c0527273a6590d57c47","id":52681365,"location_subtype":"","month":"2016-10"},{"category":"shoplifting","location_type":"Force","location":{"latitude":"51.435384","street":{"id":938334,"name":"On or near Petrol Station"},"longitude":"-0.392361"},"context":"","outcome_status":{"category":"Investigation complete; no suspect identified","date":"2016-10"},"persistent_id":"1feb69ebdb2cefeaee6ca5a6a96d592e5c9b425236201895174a632ff97934c5","id":52693992,"location_subtype":"","month":"2016-10"},{"category":"shoplifting","location_type":"Force","location":{"latitude":"51.447807","street":{"id":938596,"name":"On or near Parking Area"},"longitude":"-0.409179"},"context":"","outcome_status":{"category":"Status update unavailable","date":"2017-02"},"persistent_id":"21498566370955af6062fcaf9fa2f0f0175149499facfa48d869ff2c3884c797","id":52757364,"location_subtype":"","month":"2016-10"},{"category":"theft-from-the-person","location_type":"Force","location":{"latitude":"51.445144","street":{"id":938708,"name":"On or near Danesbury Road"},"longitude":"-0.404494"},"context":"","outcome_status":{"category":"Status update unavailable","date":"2017-02"},"persistent_id":"6c40dbc656a65ffc387ba5dabfe3572e0262040deebac2a11d39e02d6c67360c","id":52776804,"location_subtype":"","month":"2016-10"},{"category":"vehicle-crime","location_type":"Force","location":{"latitude":"51.445144","street":{"id":938708,"name":"On or near Danesbury Road"},"longitude":"-0.404494"},"context":"","outcome_status":{"category":"Offender given community sentence","date":"2017-02"},"persistent_id":"129a8367f82a45eafd82cae11d25725ba162eca3a79424241b4c3e964366ecf0","id":52754861,"location_subtype":"","month":"2016-10"},{"category":"vehicle-crime","location_type":"Force","location":{"latitude":"51.444177","street":{"id":938709,"name":"On or near The Green"},"longitude":"-0.410039"},"context":"","outcome_status":{"category":"Investigation complete; no suspect identified","date":"2016-11"},"persistent_id":"b6437820ccc407e7dd3982edd3fb255d2a75bed4dad68c6584f029a8460382c6","id":52756365,"location_subtype":"","month":"2016-10"},{"category":"vehicle-crime","location_type":"Force","location":{"latitude":"51.443618","street":{"id":938751,"name":"On or near Marlborough Road"},"longitude":"-0.392820"},"context":"","outcome_status":{"category":"Investigation complete; no suspect identified","date":"2016-11"},"persistent_id":"998efc473e801ef6adc2aa2dd05bd7fe80a7c619869d89992f5a9df6e5121306","id":52747282,"location_subtype":"","month":"2016-10"},{"category":"vehicle-crime","location_type":"Force","location":{"latitude":"51.442778","street":{"id":938469,"name":"On or near Browell's Lane"},"longitude":"-0.406361"},"context":"","outcome_status":{"category":"Investigation complete; no suspect identified","date":"2016-12"},"persistent_id":"ba1181b36c4f0950b7be5ff1ea86f689cb78f7623abc2e02526f39261ac691b0","id":52764011,"location_subtype":"","month":"2016-10"},{"category":"vehicle-crime","location_type":"Force","location":{"latitude":"51.442658","street":{"id":938335,"name":"On or near Woodlawn Drive"},"longitude":"-0.390379"},"context":"","outcome_status":{"category":"Status update unavailable","date":"2017-02"},"persistent_id":"fa3648b62ae6ecf86ab176471ada36b09d3ece57ff9617d00a8b24d097b8bd8e","id":52730582,"location_subtype":"","month":"2016-10"},{"category":"vehicle-crime","location_type":"Force","location":{"latitude":"51.439452","street":{"id":938463,"name":"On or near Pinewood Road"},"longitude":"-0.405772"},"context":"","outcome_status":{"category":"Status update unavailable","date":"2017-02"},"persistent_id":"bfb31a1fefda689fa309486df557893236e795cbcf533152ad747527bebd9725","id":52750718,"location_subtype":"","month":"2016-10"},{"category":"vehicle-crime","location_type":"Force","location":{"latitude":"51.444385","street":{"id":938710,"name":"On or near Mono Lane"},"longitude":"-0.407500"},"context":"","outcome_status":{"category":"Investigation complete; no suspect identified","date":"2016-10"},"persistent_id":"934122bdf2dd0d899f87516aeb4191d0ba8993dfd3db9186b8cbb1759752ab4a","id":52753841,"location_subtype":"","month":"2016-10"},{"category":"vehicle-crime","location_type":"Force","location":{"latitude":"51.435923","street":{"id":938468,"name":"On or near Camrose Avenue"},"longitude":"-0.404154"},"context":"","outcome_status":{"category":"Status update unavailable","date":"2017-02"},"persistent_id":"6052f04cf21b5bc9e7b4b22c16adb2f66c5961a1785b6c853dddd1d85b204f23","id":52751223,"location_subtype":"","month":"2016-10"},{"category":"vehicle-crime","location_type":"Force","location":{"latitude":"51.440070","street":{"id":938419,"name":"On or near Maple Way"},"longitude":"-0.411549"},"context":"","outcome_status":{"category":"Status update unavailable","date":"2017-02"},"persistent_id":"e463cb4d2fcb9e54c15477a50e62cb8511c0c80c8a27434097fbe13d03a1f942","id":52772776,"location_subtype":"","month":"2016-10"},{"category":"vehicle-crime","location_type":"Force","location":{"latitude":"51.440332","street":{"id":938410,"name":"On or near Vineyard Road"},"longitude":"-0.414360"},"context":"","outcome_status":{"category":"Status update unavailable","date":"2017-02"},"persistent_id":"73db48d7ac2a6da7a0d5f17ccdabfc95556b7b3c6c87d75fb73a4ebe39f5d326","id":52772793,"location_subtype":"","month":"2016-10"},{"category":"violent-crime","location_type":"Force","location":{"latitude":"51.445010","street":{"id":938753,"name":"On or near Lafone Avenue"},"longitude":"-0.401261"},"context":"","outcome_status":{"category":"Local resolution","date":"2017-11"},"persistent_id":"bb7128f5fc29227d9b8140534d1b4ab3d577ffc14468d47baecc668cc98b5eb0","id":52690756,"location_subtype":"","month":"2016-10"},{"category":"violent-crime","location_type":"Force","location":{"latitude":"51.445010","street":{"id":938753,"name":"On or near Lafone Avenue"},"longitude":"-0.401261"},"context":"","outcome_status":{"category":"Investigation complete; no suspect identified","date":"2016-11"},"persistent_id":"c7021e74f7c09768d0c501246480ae8a1eef6d9d0973995d56263d737614be65","id":52735313,"location_subtype":"","month":"2016-10"},{"category":"violent-crime","location_type":"Force","location":{"latitude":"51.445010","street":{"id":938753,"name":"On or near Lafone Avenue"},"longitude":"-0.401261"},"context":"","outcome_status":{"category":"Investigation complete; no suspect identified","date":"2016-10"},"persistent_id":"c6a9a1ef9e85d8af319f64cd6e56ac0344972d96c22ee2f12fa8f98bb8d6c210","id":52735849,"location_subtype":"","month":"2016-10"},{"category":"violent-crime","location_type":"Force","location":{"latitude":"51.445531","street":{"id":938754,"name":"On or near Elthorne Court"},"longitude":"-0.398566"},"context":"","outcome_status":{"category":"Investigation complete; no suspect identified","date":"2016-12"},"persistent_id":"3da2495b60ce3bd1e83e69f62688bdc5677468acbfeab2b3bd55b75d165a6d94","id":52736572,"location_subtype":"","month":"2016-10"},{"category":"violent-crime","location_type":"Force","location":{"latitude":"51.446522","street":{"id":938717,"name":"On or near Police Station"},"longitude":"-0.403986"},"context":"","outcome_status":{"category":"Investigation complete; no suspect identified","date":"2016-11"},"persistent_id":"d78dca652e8c2aa555c402ce11e156d616b24388fabe08d2f192aaeabdd3c105","id":52756979,"location_subtype":"","month":"2016-10"},{"category":"violent-crime","location_type":"Force","location":{"latitude":"51.447237","street":{"id":938714,"name":"On or near Bedfont Lane"},"longitude":"-0.410235"},"context":"","outcome_status":{"category":"Investigation complete; no suspect identified","date":"2016-11"},"persistent_id":"1cc86193b8b91b1457501503327db3255f2d57b5b7f00bc152d91dce535d6f88","id":52687940,"location_subtype":"","month":"2016-10"},{"category":"violent-crime","location_type":"Force","location":{"latitude":"51.436137","street":{"id":938439,"name":"On or near Ryland Close"},"longitude":"-0.421325"},"context":"","outcome_status":{"category":"Investigation complete; no suspect identified","date":"2017-03"},"persistent_id":"dd14d37c6c0280b7aa790fe5ac28411424e40f3eefd2c2f6cf206655204602d8","id":52738642,"location_subtype":"","month":"2016-10"},{"category":"violent-crime","location_type":"Force","location":{"latitude":"51.447237","street":{"id":938714,"name":"On or near Bedfont Lane"},"longitude":"-0.410235"},"context":"","outcome_status":{"category":"Offender given a caution","date":"2017-01"},"persistent_id":"853cad60fd2631938c5c04e76e1d9ba9076e3c8d63b41508e7546a201b252ce7","id":52738912,"location_subtype":"","month":"2016-10"},{"category":"violent-crime","location_type":"Force","location":{"latitude":"51.435955","street":{"id":938452,"name":"On or near Roebuck Close"},"longitude":"-0.408555"},"context":"","outcome_status":{"category":"Offender given a caution","date":"2016-10"},"persistent_id":"2889d49e31dde68780b7dedb43fd419abdc825916eb66adcd293b2eaea4fc139","id":52743796,"location_subtype":"","month":"2016-10"},{"category":"violent-crime","location_type":"Force","location":{"latitude":"51.445938","street":{"id":938745,"name":"On or near Wyatt Close"},"longitude":"-0.396768"},"context":"","outcome_status":{"category":"Investigation complete; no suspect identified","date":"2017-06"},"persistent_id":"7acb220a1a5dc1c7ec1cc6df8f9cfd1884b252091c6e3b8bdff8ca968d9e6d02","id":52753530,"location_subtype":"","month":"2016-10"},{"category":"violent-crime","location_type":"Force","location":{"latitude":"51.430724","street":{"id":938406,"name":"On or near Petrol Station"},"longitude":"-0.403443"},"context":"","outcome_status":{"category":"Investigation complete; no suspect identified","date":"2016-11"},"persistent_id":"db40ce2e5e530e5c0360bf13b2f3f241ed772f36026e5d27d5552a3b3838b5ce","id":52743495,"location_subtype":"","month":"2016-10"},{"category":"violent-crime","location_type":"Force","location":{"latitude":"51.443618","street":{"id":938751,"name":"On or near Marlborough Road"},"longitude":"-0.392820"},"context":"","outcome_status":{"category":"Offender given a caution","date":"2016-10"},"persistent_id":"6b6d855ff1acd21af521807001028126052a12e91a1380bdb26e711ebaa1ff91","id":52747427,"location_subtype":"","month":"2016-10"},{"category":"violent-crime","location_type":"Force","location":{"latitude":"51.444385","street":{"id":938710,"name":"On or near Mono Lane"},"longitude":"-0.407500"},"context":"","outcome_status":{"category":"Status update unavailable","date":"2017-02"},"persistent_id":"6840684c6ec22e562606f73ce9befb10ee87ba1b5648ce01f42dc1c38788aed9","id":52777405,"location_subtype":"","month":"2016-10"},{"category":"violent-crime","location_type":"Force","location":{"latitude":"51.444385","street":{"id":938710,"name":"On or near Mono Lane"},"longitude":"-0.407500"},"context":"","outcome_status":{"category":"Investigation complete; no suspect identified","date":"2016-11"},"persistent_id":"bb83935c6541684b61d524bb481a83b21e95763c5b3a39e91fc7a302e522a936","id":52751674,"location_subtype":"","month":"2016-10"},{"category":"violent-crime","location_type":"Force","location":{"latitude":"51.438456","street":{"id":938413,"name":"On or near Sherringham Avenue"},"longitude":"-0.417231"},"context":"","outcome_status":{"category":"Status update unavailable","date":"2017-02"},"persistent_id":"d76f94d130e5d5ad34eb71b0c51ab28337a827047dffa5a76212811679feccd8","id":52755366,"location_subtype":"","month":"2016-10"},{"category":"violent-crime","location_type":"Force","location":{"latitude":"51.433690","street":{"id":938401,"name":"On or near Castle Way"},"longitude":"-0.399340"},"context":"","outcome_status":{"category":"Investigation complete; no suspect identified","date":"2017-01"},"persistent_id":"dac463225673203108cb0cd518217c866b449a6f55f437b395b7de23b30e2e88","id":52751314,"location_subtype":"","month":"2016-10"},{"category":"violent-crime","location_type":"Force","location":{"latitude":"51.435530","street":{"id":938407,"name":"On or near Sunbury Road"},"longitude":"-0.419619"},"context":"","outcome_status":{"category":"Investigation complete; no suspect identified","date":"2017-03"},"persistent_id":"7c0aa6a2c847419cd08811a83c71154cb8527f1635e045b3d2789177b29ac820","id":52755385,"location_subtype":"","month":"2016-10"},{"category":"violent-crime","location_type":"BTP","location":{"latitude":"51.447900","street":{"id":1487961,"name":"Feltham (station)"},"longitude":"-0.409131"},"context":"","outcome_status":{"category":"Status update unavailable","date":"2017-02"},"persistent_id":"","id":66310573,"location_subtype":"STATION","month":"2016-10"},{"category":"violent-crime","location_type":"Force","location":{"latitude":"51.447237","street":{"id":938714,"name":"On or near Bedfont Lane"},"longitude":"-0.410235"},"context":"","outcome_status":{"category":"Investigation complete; no suspect identified","date":"2016-11"},"persistent_id":"aefb8c305ceb0c8b7d5da07630feaa01cd9eb495bd1bd3a87666819641f7d931","id":52759198,"location_subtype":"","month":"2016-10"},{"category":"violent-crime","location_type":"Force","location":{"latitude":"51.434956","street":{"id":938331,"name":"On or near Park Road"},"longitude":"-0.393268"},"context":"","outcome_status":{"category":"Investigation complete; no suspect identified","date":"2016-10"},"persistent_id":"5c0f29ca54a50668d3d72508f5b111e273365dcf120e6a9a3f6f22c78c364fe5","id":52760003,"location_subtype":"","month":"2016-10"},{"category":"violent-crime","location_type":"Force","location":{"latitude":"51.436893","street":{"id":938337,"name":"On or near Clifton Avenue"},"longitude":"-0.403444"},"context":"","outcome_status":{"category":"Investigation complete; no suspect identified","date":"2016-10"},"persistent_id":"02feb3f0e337adadc6faa5d7975888bb48f91f1ebfa9ce3ddc29dbbecadaa6cc","id":52763759,"location_subtype":"","month":"2016-10"},{"category":"violent-crime","location_type":"Force","location":{"latitude":"51.447237","street":{"id":938714,"name":"On or near Bedfont Lane"},"longitude":"-0.410235"},"context":"","outcome_status":{"category":"Investigation complete; no suspect identified","date":"2017-02"},"persistent_id":"187cf15b20e47bb724f397ec037917b2dad693446b6e98b471706368b8b7b5c5","id":52768347,"location_subtype":"","month":"2016-10"},{"category":"violent-crime","location_type":"Force","location":{"latitude":"51.447237","street":{"id":938714,"name":"On or near Bedfont Lane"},"longitude":"-0.410235"},"context":"","outcome_status":{"category":"Investigation complete; no suspect identified","date":"2016-11"},"persistent_id":"45bbc61f38195701e6ebd249f3ab138bfd2bcf605a70ef67f654e1104b907889","id":52702536,"location_subtype":"","month":"2016-10"},{"category":"violent-crime","location_type":"Force","location":{"latitude":"51.445010","street":{"id":938753,"name":"On or near Lafone Avenue"},"longitude":"-0.401261"},"context":"","outcome_status":{"category":"Status update unavailable","date":"2017-02"},"persistent_id":"3833bbb43f3eea9a83a5307505c50dbcd8ea7ed926d38bb45ed1d40449726b3a","id":52764079,"location_subtype":"","month":"2016-10"},{"category":"violent-crime","location_type":"Force","location":{"latitude":"51.447237","street":{"id":938714,"name":"On or near Bedfont Lane"},"longitude":"-0.410235"},"context":"","outcome_status":{"category":"Investigation complete; no suspect identified","date":"2016-12"},"persistent_id":"e64beaebae6cecb67d15ebf4f5e7b731abf9009835c98bf52174f9b0398c69a1","id":52768200,"location_subtype":"","month":"2016-10"},{"category":"violent-crime","location_type":"Force","location":{"latitude":"51.437243","street":{"id":938412,"name":"On or near Sycamore Close"},"longitude":"-0.411964"},"context":"","outcome_status":{"category":"Investigation complete; no suspect identified","date":"2016-12"},"persistent_id":"eb64a6198eeb773d452e2274eb3b15e24f0dc22f516e8e1e06a4380d7f90d27f","id":52767892,"location_subtype":"","month":"2016-10"},{"category":"violent-crime","location_type":"Force","location":{"latitude":"51.435435","street":{"id":938453,"name":"On or near Huntsmans Close"},"longitude":"-0.409307"},"context":"","outcome_status":{"category":"Investigation complete; no suspect identified","date":"2016-11"},"persistent_id":"a6a4b66ec1ff5512520ca5ee37669122849f13e1e14aae40535fcf512db5142c","id":52770992,"location_subtype":"","month":"2016-10"},{"category":"violent-crime","location_type":"Force","location":{"latitude":"51.435840","street":{"id":938455,"name":"On or near Deerhurst Close"},"longitude":"-0.411278"},"context":"","outcome_status":{"category":"Investigation complete; no suspect identified","date":"2016-11"},"persistent_id":"972a879f1a1aeae8d44eba130eaf46b7676d4d3a2d5656ef1ce2e43ba6e04ae4","id":52692529,"location_subtype":"","month":"2016-10"},{"category":"violent-crime","location_type":"Force","location":{"latitude":"51.444982","street":{"id":938762,"name":"On or near Pevensey Road"},"longitude":"-0.387347"},"context":"","outcome_status":{"category":"Status update unavailable","date":"2017-02"},"persistent_id":"407df03496dd48ef0ba8cdac5700e83b3f91e364550f2f1c52e5a01bf1145851","id":52728696,"location_subtype":"","month":"2016-10"},{"category":"violent-crime","location_type":"BTP","location":{"latitude":"51.447900","street":{"id":1487961,"name":"Feltham (station)"},"longitude":"-0.409131"},"context":"","outcome_status":{"category":"Status update unavailable","date":"2017-02"},"persistent_id":"","id":66310574,"location_subtype":"STATION","month":"2016-10"},{"category":"violent-crime","location_type":"Force","location":{"latitude":"51.447807","street":{"id":938596,"name":"On or near Parking Area"},"longitude":"-0.409179"},"context":"","outcome_status":{"category":"Investigation complete; no suspect identified","date":"2016-10"},"persistent_id":"4d5b508c9efa33672306aad8dee361bbc518204a5b9b356abd66f72ee042e1e5","id":52751785,"location_subtype":"","month":"2016-10"},{"category":"other-crime","location_type":"Force","location":{"latitude":"51.432962","street":{"id":938478,"name":"On or near Hamilton Road"},"longitude":"-0.418586"},"context":"","outcome_status":{"category":"Investigation complete; no suspect identified","date":"2016-10"},"persistent_id":"a92b5f3de2a189fc94dfc40c8a9b66ed4033bb9cf4d1e9c169212a2ccfeaeaf1","id":52773191,"location_subtype":"","month":"2016-10"},{"category":"other-crime","location_type":"Force","location":{"latitude":"51.438263","street":{"id":938436,"name":"On or near Spring Road"},"longitude":"-0.418906"},"context":"","outcome_status":{"category":"Investigation complete; no suspect identified","date":"2016-11"},"persistent_id":"bfb1ff2cbb46e1c2c57a17db6aa49408c20c1bfb64cfa77c292ec0e39642be83","id":52731358,"location_subtype":"","month":"2016-10"}]