[{"category":"anti-social-behaviour","location_type":"Force","location":{"latitude":"51.585933","street":{"id":973979,"name":"On or near Francis Road"},"longitude":"-0.323641"},"context":"","outcome_status":null,"persistent_id":"","id":52667517,"location_subtype":"","month":"2016-10"},{"category":"anti-social-behaviour","location_type":"Force","location":{"latitude":"51.601064","street":{"id":980424,"name":"On or near Kenmore Avenue"},"longitude":"-0.318435"},"context":"","outcome_status":null,"persistent_id":"","id":52667511,"location_subtype":"","month":"2016-10"},{"category":"anti-social-behaviour","location_type":"Force","location":{"latitude":"51.598646","street":{"id":979437,"name":"On or near Elgin Avenue"},"longitude":"-0.319102"},"context":"","outcome_status":null,"persistent_id":"","id":52667513,"location_subtype":"","month":"2016-10"},{"category":"anti-social-behaviour","location_type":"Force","location":{"latitude":"51.593029","street":{"id":979267,"name":"On or near Streatfield Road"},"longitude":"-0.310575"},"context":"","outcome_status":null,"persistent_id":"","id":52667490,"location_subtype":"","month":"2016-10"},{"category":"anti-social-behaviour","location_type":"Force","location":{"latitude":"51.600251","street":{"id":979424,"name":"On or near Parking Area"},"longitude":"-0.316920"},"context":"","outcome_status":null,"persistent_id":"","id":52667502,"location_subtype":"","month":"2016-10"},{"category":"anti-social-behaviour","location_type":"Force","location":{"latitude":"51.598571","street":{"id":979426,"name":"On or near Tenby Avenue"},"longitude":"-0.316390"},"context":"","outcome_status":null,"persistent_id":"","id":52667501,"location_subtype":"","month":"2016-10"},{"category":"anti-social-behaviour","location_type":"Force","location":{"latitude":"51.600251","street":{"id":979424,"name":"On or near Parking Area"},"longitude":"-0.316920"},"context":"","outcome_status":null,"persistent_id":"","id":52667500,"location_subtype":"","month":"2016-10"},{"category":"anti-social-behaviour","location_type":"Force","location":{"latitude":"51.593918","street":{"id":979276,"name":"On or near Larkfield Avenue"},"longitude":"-0.312967"},"context":"","outcome_status":null,"persistent_id":"","id":52667495,"location_subtype":"","month":"2016-10"},{"category":"anti-social-behaviour","location_type":"Force","location":{"latitude":"51.595564","street":{"id":979362,"name":"On or near Kenton Lane"},"longitude":"-0.312415"},"context":"","outcome_status":null,"persistent_id":"","id":52667494,"location_subtype":"","month":"2016-10"},{"category":"anti-social-behaviour","location_type":"Force","location":{"latitude":"51.595564","street":{"id":979362,"name":"On or near Kenton Lane"},"longitude":"-0.312415"},"context":"","outcome_status":null,"persistent_id":"","id":52667493,"location_subtype":"","month":"2016-10"},{"category":"bicycle-theft","location_type":"Force","location":{"latitude":"51.593029","street":{"id":979267,"name":"On or near Streatfield Road"},"longitude":"-0.310575"},"context":"","outcome_status":{"category":"Status update unavailable","date":"2017-02"},"persistent_id":"6f6745a77b7a419b1602d5db03aa682cf703816b39d51c8400b2277404be5199","id":52745815,"location_subtype":"","month":"2016-10"},{"category":"burglary","location_type":"Force","location":{"latitude":"51.588084","street":{"id":979355,"name":"On or near Kenton Park Avenue"},"longitude":"-0.303786"},"context":"","outcome_status":{"category":"Investigation complete; no suspect identified","date":"2016-10"},"persistent_id":"d13816222970a3060f2066bf4b21f9ec3bc3efff668f70ddbbf8d3cea4160479","id":52769041,"location_subtype":"","month":"2016-10"},{"category":"burglary","location_type":"Force","location":{"latitude":"51.589890","street":{"id":979441,"name":"On or near Brampton Grove"},"longitude":"-0.318068"},"context":"","outcome_status":{"category":"Status update unavailable","date":"2017-02"},"persistent_id":"ec89d7c3c8c33f7f50a86b233524ecac5a833a61848fc3cfcaedab81b230c518","id":52695585,"location_subtype":"","month":"2016-10"},{"category":"burglary","location_type":"Force","location":{"latitude":"51.588128","street":{"id":979357,"name":"On or near Alicia Avenue"},"longitude":"-0.311781"},"context":"","outcome_status":{"category":"Status update unavailable","date":"2017-02"},"persistent_id":"095b350c7f4fb65dbfec753415142b7ae85d2462277c08f0ff3e946b008925a8","id":52715636,"location_subtype":"","month":"2016-10"},{"category":"burglary","location_type":"Force","location":{"latitude":"51.586133","street":{"id":974082,"name":"On or near St Leonards Avenue"},"longitude":"-0.311292"},"context":"","outcome_status":{"category":"Status update unavailable","date":"2017-02"},"persistent_id":"16e9e99903094b6375082f1380bb6a38b2947f89f8be2131bab2c90b33ce373d","id":52756167,"location_subtype":"","month":"2016-10"},{"category":"criminal-damage-arson","location_type":"Force","location":{"latitude":"51.585933","street":{"id":973979,"name":"On or near Francis Road"},"longitude":"-0.323641"},"context":"","outcome_status":{"category":"Status update unavailable","date":"2017-02"},"persistent_id":"10dca96200124001cc79ec64b377be6c7a841af890cee6b2b137f807fa6ca31c","id":52727526,"location_subtype":"","month":"2016-10"},{"category":"criminal-damage-arson","location_type":"Force","location":{"latitude":"51.583875","street":{"id":973955,"name":"On or near Carlton Avenue"},"longitude":"-0.318102"},"context":"","outcome_status":{"category":"Status update unavailable","date":"2017-02"},"persistent_id":"9ebca4148fb5c9fcdb6cbc39c6fe5175f3d0919fdcef9f36d848ef1dcd296994","id":52740237,"location_subtype":"","month":"2016-10"},{"category":"other-theft","location_type":"Force","location":{"latitude":"51.601064","street":{"id":980424,"name":"On or near Kenmore Avenue"},"longitude":"-0.318435"},"context":"","outcome_status":{"category":"Status update unavailable","date":"2017-02"},"persistent_id":"21907ebd2335416aa75206463b6fa268306e43bdc91d2ac457da813ecf8bddfa","id":52762655,"location_subtype":"","month":"2016-10"},{"category":"other-theft","location_type":"Force","location":{"latitude":"51.600251","street":{"id":979424,"name":"On or near Parking Area"},"longitude":"-0.316920"},"context":"","outcome_status":{"category":"Investigation complete; no suspect identified","date":"2016-11"},"persistent_id":"2570b59202039aecbcb816968c9e0f4450c40604ba0a5e6ac4b91384b3c4fd45","id":52690023,"location_subtype":"","month":"2016-10"},{"category":"other-theft","location_type":"Force","location":{"latitude":"51.587850","street":{"id":979356,"name":"On or near Alicia Close"},"longitude":"-0.310593"},"context":"","outcome_status":{"category":"Investigation complete; no suspect identified","date":"2016-10"},"persistent_id":"334c5c5a3e1246e734ea953fbd2dcaa751259868762e478e1d040cb0bd355342","id":52775584,"location_subtype":"","month":"2016-10"},{"category":"other-theft","location_type":"Force","location":{"latitude":"51.591525","street":{"id":979414,"name":"On or near Christchurch Gardens"},"longitude":"-0.322930"},"context":"","outcome_status":{"category":"Offender given a caution","date":"2017-04"},"persistent_id":"cc72697e1ba4b69545f7bd4ece63ea6d08d09f43fb5370dc2daeae79f39aac51","id":52753437,"location_subtype":"","month":"2016-10"},{"category":"other-theft","location_type":"Force","location":{"latitude":"51.586185","street":{"id":973956,"name":"On or near Becmead Avenue"},"longitude":"-0.314885"},"context":"","outcome_status":{"category":"Status update unavailable","date":"2017-02"},"persistent_id":"b6008e2e97b2682eac0a34dc491e931fa226c6a74dcd1c3eba03da686cdf08fc","id":52746977,"location_subtype":"","month":"2016-10"},{"category":"public-order","location_type":"Force","location":{"latitude":"51.600978","street":{"id":980427,"name":"On or near Supermarket"},"longitude":"-0.316835"},"context":"","outcome_status":{"category":"Investigation complete; no suspect identified","date":"2016-12"},"persistent_id":"47377a4d18e94ce50c96a35e754453b4f64151d15d76750a122af74156847c30","id":52758302,"location_subtype":"","month":"2016-10"},{"category":"shoplifting","location_type":"Force","location":{"latitude":"51.600978","street":{"id":980427,"name":"On or near Supermarket"},"longitude":"-0.316835"},"context":"","outcome_status":{"category":"Status update unavailable","date":"2017-02"},"persistent_id":"708f885f2b7bbdef2e2ea32e1b6eba0fa848c0bb9d564269a173cf59ebef7930","id":52716851,"location_subtype":"","month":"2016-10"},{"category":"vehicle-crime","location_type":"Force","location":{"latitude":"51.583967","street":{"id":973948,"name":"On or near Mayfield Avenue"},"longitude":"-0.316324"},"context":"","outcome_status":{"category":"Status update unavailable","date":"2017-02"},"persistent_id":"2197bf5a9d69bb4ce923a66c4f4b91833cd57a2067c7d7e99d3b191d141c2e30","id":52732632,"location_subtype":"","month":"2016-10"},{"category":"vehicle-crime","location_type":"Force","location":{"latitude":"51.588455","street":{"id":979450,"name":"On or near Parking Area"},"longitude":"-0.315782"},"context":"","outcome_status":{"category":"Status update unavailable","date":"2017-02"},"persistent_id":"f9cb34b70529d0d4be26263817afbdca7b3c3f93fe3fe5ad3220dce24aa325ef","id":52755691,"location_subtype":"","month":"2016-10"},{"category":"vehicle-crime","location_type":"Force","location":{"latitude":"51.590755","street":{"id":979442,"name":"On or near Bradenham Road"},"longitude":"-0.318772"},"context":"","outcome_status":{"category":"Investigation complete; no suspect identified","date":"2016-10"},"persistent_id":"cce07e8209c6185650dfa4db9185afae30c41be96b23279c92add6b11fcb8324","id":52769022,"location_subtype":"","month":"2016-10"},{"category":"vehicle-crime","location_type":"Force","location":{"latitude":"51.600251","street":{"id":979424,"name":"On or near Parking Area"},"longitude":"-0.316920"},"context":"","outcome_status":{"category":"Investigation complete; no suspect identified","date":"2016-11"},"persistent_id":"9406f0adba97d0f54d2f73595e46574ffff71e05ed1c9d6ff8262255a56a4781","id":52715164,"location_subtype":"","month":"2016-10"},{"category":"vehicle-crime","location_type":"Force","location":{"latitude":"51.598571","street":{"id":979426,"name":"On or near Tenby Avenue"},"longitude":"-0.316390"},"context":"","outcome_status":{"category":"Status update unavailable","date":"2017-02"},"persistent_id":"0be732e552e621bd71786a9f05926b02e89d87c094efb7186e6612e7e564bc67","id":52699766,"location_subtype":"","month":"2016-10"},{"category":"vehicle-crime","location_type":"Force","location":{"latitude":"51.590990","street":{"id":979277,"name":"On or near Kenton Lane"},"longitude":"-0.309510"},"context":"","outcome_status":{"category":"Status update unavailable","date":"2017-02"},"persistent_id":"788abf1906e9ede4bc3903cb2278d9023c8cccf3722a6f8fcae1373922f519ea","id":52689526,"location_subtype":"","month":"2016-10"},{"category":"vehicle-crime","location_type":"Force","location":{"latitude":"51.593459","street":{"id":979445,"name":"On or near Alveston Avenue"},"longitude":"-0.315482"},"context":"","outcome_status":{"category":"Investigation complete; no suspect identified","date":"2016-11"},"persistent_id":"dd22ab943fb4707b63fd84a86640937eb3dbe222dc3959a16a1eee59e80c6b14","id":52692340,"location_subtype":"","month":"2016-10"},{"category":"vehicle-crime","location_type":"Force","location":{"latitude":"51.596928","street":{"id":979446,"name":"On or near Sports\/recreation Area"},"longitude":"-0.314689"},"context":"","outcome_status":{"category":"Status update unavailable","date":"2017-02"},"persistent_id":"acbc085a65af10fd2e99a8608ed7d6d9b2ac91eb98f167b7be8672ed6b09b1d5","id":52731521,"location_subtype":"","month":"2016-10"},{"category":"violent-crime","location_type":"Force","location":{"latitude":"51.588084","street":{"id":979355,"name":"On or near Kenton Park Avenue"},"longitude":"-0.303786"},"context":"","outcome_status":{"category":"Investigation complete; no suspect identified","date":"2016-11"},"persistent_id":"8ea0b52c05c62d4a49ff34200080f9b1f7e5a05e29f5231b338816bb1d74b2ad","id":52696052,"location_subtype":"","month":"2016-10"},{"category":"violent-crime","location_type":"Force","location":{"latitude":"51.595564","street":{"id":979362,"name":"On or near Kenton Lane"},"longitude":"-0.312415"},"context":"","outcome_status":{"category":"Defendant found not guilty","date":"2017-07"},"persistent_id":"067717ef867f09bc1d16d7012f8addbaac9e9b7e0f2d3d393ba175a712a70f32","id":52715710,"location_subtype":"","month":"2016-10"},{"category":"violent-crime","location_type":"Force","location":{"latitude":"51.583967","street":{"id":973948,"name":"On or near Mayfield Avenue"},"longitude":"-0.316324"},"context":"","outcome_status":{"category":"Status update unavailable","date":"2017-02"},"persistent_id":"150d829d2e54f8bfc6983302b6cd3cdcfd2fbb63a48e018f149af1223835dd2f","id":52765621,"location_subtype":"","month":"2016-10"},{"category":"violent-crime","location_type":"Force","location":{"latitude":"51.587850","street":{"id":979356,"name":"On or near Alicia Close"},"longitude":"-0.310593"},"context":"","outcome_status":{"category":"Status update unavailable","date":"2017-02"},"persistent_id":"161f753642c79989220b1b6d91b6de4b41aabb7a29046c4f2637aeec1f81294a","id":52764436,"location_subtype":"","month":"2016-10"},{"category":"violent-crime","location_type":"Force","location":{"latitude":"51.594444","street":{"id":979433,"name":"On or near Kenmore Avenue"},"longitude":"-0.320859"},"context":"","outcome_status":{"category":"Investigation complete; no suspect identified","date":"2016-11"},"persistent_id":"9d1443901a60307693a1ec520a484aed03f2837505c2a9827f8dbf64891938a5","id":52731314,"location_subtype":"","month":"2016-10"},{"category":"violent-crime","location_type":"Force","location":{"latitude":"51.591099","street":{"id":979425,"name":"On or near Wykeham Road"},"longitude":"-0.317042"},"context":"","outcome_status":{"category":"Status update unavailable","date":"2017-02"},"persistent_id":"d81c1d8a183771a1997f4dc203412b11ee3c72644951cd84630528259dd02b89","id":52755274,"location_subtype":"","month":"2016-10"},{"category":"violent-crime","location_type":"Force","location":{"latitude":"51.589469","street":{"id":979295,"name":"On or near Sports\/recreation Area"},"longitude":"-0.306304"},"context":"","outcome_status":{"category":"Status update unavailable","date":"2017-02"},"persistent_id":"1fe64c4a1a186b2766251fb232167127d0fb221ad3e10de754d55ff6e8f4538b","id":52754283,"location_subtype":"","month":"2016-10"},{"category":"violent-crime","location_type":"Force","location":{"latitude":"51.595862","street":{"id":979428,"name":"On or near Pembroke Avenue"},"longitude":"-0.319392"},"context":"","outcome_status":{"category":"Investigation complete; no suspect identified","date":"2017-01"},"persistent_id":"95bb1e50f4faf7e3163c8ddbde796c22b64bd153ee843ced8b270ef07f57b549","id":52775710,"location_subtype":"","month":"2016-10"},{"category":"violent-crime","location_type":"Force","location":{"latitude":"51.600978","street":{"id":980427,"name":"On or near Supermarket"},"longitude":"-0.316835"},"context":"","outcome_status":{"category":"Investigation complete; no suspect identified","date":"2016-11"},"persistent_id":"708f885f2b7bbdef2e2ea32e1b6eba0fa848c0bb9d564269a173cf59ebef7930","id":52717100,"location_subtype":"","month":"2016-10"},{"category":"violent-crime","location_type":"Force","location":{"latitude":"51.595564","street":{"id":979362,"name":"On or near Kenton Lane"},"longitude":"-0.312415"},"context":"","outcome_status":{"category":"Status update unavailable","date":"2017-02"},"persistent_id":"d5badb9d531cbfa955d86bd7e8ebb0d8ce34e98f3af093a1a71d42321b7b3049","id":52769982,"location_subtype":"","month":"2016-10"},{"category":"violent-crime","location_type":"Force","location":{"latitude":"51.587633","street":{"id":979354,"name":"On or near Kenton Park Close"},"longitude":"-0.305564"},"context":"","outcome_status":{"category":"Investigation complete; no suspect identified","date":"2016-11"},"persistent_id":"8ca8dc3ef9da85980182b00591b600fe603bb734845400220e78bb74aeea4a66","id":52686836,"location_subtype":"","month":"2016-10"},{"category":"violent-crime","location_type":"Force","location":{"latitude":"51.594970","street":{"id":979435,"name":"On or near Irvine Avenue"},"longitude":"-0.319266"},"context":"","outcome_status":{"category":"Investigation complete; no suspect identified","date":"2016-12"},"persistent_id":"2f8137c58e41a5af86c25947639c98ef423afc9f025c7431726f4f7524ae99e5","id":52772840,"location_subtype":"","month":"2016-10"},{"category":"violent-crime","location_type":"Force","location":{"latitude":"51.590382","street":{"id":979285,"name":"On or near Elmsleigh Avenue"},"longitude":"-0.312232"},"context":"","outcome_status":{"category":"Investigation complete; no suspect identified","date":"2016-10"},"persistent_id":"f055fd1c3b93dbb8520637d142d30cc7f64dac16ad0d033a01c325679777977a","id":52714930,"location_subtype":"","month":"2016-10"},{"category":"other-crime","location_type":"Force","location":{"latitude":"51.588384","street":{"id":979353,"name":"On or near Kenton Park Road"},"longitude":"-0.306460"},"context":"","outcome_status":{"category":"Investigation complete; no suspect identified","date":"2016-11"},"persistent_id":"9502d126f90b2313e06aa51cc35828ed3452c0ad133bc4064362ed869e6a17a9","id":52697533,"location_subtype":"","month":"2016-10"},{"category":"other-crime","location_type":"Force","location":{"latitude":"51.583875","street":{"id":973955,"name":"On or near Carlton Avenue"},"longitude":"-0.318102"},"context":"","outcome_status":{"category":"Court result unavailable","date":"2017-04"},"persistent_id":"d1d7805e4698b6dccf05ba095b0d6684895bdc400c1f9c2617fb6ede6166790d","id":52739314,"location_subtype":"","month":"2016-10"}]