[{"category":"anti-social-behaviour","location_type":"Force","location":{"latitude":"51.454053","street":{"id":942600,"name":"On or near Dewey Lane"},"longitude":"-0.113629"},"context":"","outcome_status":null,"persistent_id":"","id":52662299,"location_subtype":"","month":"2016-10"},{"category":"anti-social-behaviour","location_type":"Force","location":{"latitude":"51.459217","street":{"id":923967,"name":"On or near St Matthew's Road"},"longitude":"-0.116007"},"context":"","outcome_status":null,"persistent_id":"","id":52662999,"location_subtype":"","month":"2016-10"},{"category":"anti-social-behaviour","location_type":"Force","location":{"latitude":"51.448593","street":{"id":939864,"name":"On or near Craster Road"},"longitude":"-0.117452"},"context":"","outcome_status":null,"persistent_id":"","id":52663034,"location_subtype":"","month":"2016-10"},{"category":"anti-social-behaviour","location_type":"Force","location":{"latitude":"51.448593","street":{"id":939864,"name":"On or near Craster Road"},"longitude":"-0.117452"},"context":"","outcome_status":null,"persistent_id":"","id":52663033,"location_subtype":"","month":"2016-10"},{"category":"anti-social-behaviour","location_type":"Force","location":{"latitude":"51.448593","street":{"id":939864,"name":"On or near Craster Road"},"longitude":"-0.117452"},"context":"","outcome_status":null,"persistent_id":"","id":52663032,"location_subtype":"","month":"2016-10"},{"category":"anti-social-behaviour","location_type":"Force","location":{"latitude":"51.453131","street":{"id":942607,"name":"On or near Arodene Road"},"longitude":"-0.117841"},"context":"","outcome_status":null,"persistent_id":"","id":52663031,"location_subtype":"","month":"2016-10"},{"category":"anti-social-behaviour","location_type":"Force","location":{"latitude":"51.453131","street":{"id":942607,"name":"On or near Arodene Road"},"longitude":"-0.117841"},"context":"","outcome_status":null,"persistent_id":"","id":52663030,"location_subtype":"","month":"2016-10"},{"category":"anti-social-behaviour","location_type":"Force","location":{"latitude":"51.457210","street":{"id":942544,"name":"On or near Hicken Road"},"longitude":"-0.117011"},"context":"","outcome_status":null,"persistent_id":"","id":52663027,"location_subtype":"","month":"2016-10"},{"category":"anti-social-behaviour","location_type":"Force","location":{"latitude":"51.457210","street":{"id":942544,"name":"On or near Hicken Road"},"longitude":"-0.117011"},"context":"","outcome_status":null,"persistent_id":"","id":52663026,"location_subtype":"","month":"2016-10"},{"category":"anti-social-behaviour","location_type":"Force","location":{"latitude":"51.452273","street":{"id":939861,"name":"On or near Helix Road"},"longitude":"-0.116494"},"context":"","outcome_status":null,"persistent_id":"","id":52662996,"location_subtype":"","month":"2016-10"},{"category":"anti-social-behaviour","location_type":"Force","location":{"latitude":"51.456114","street":{"id":942555,"name":"On or near Dray Gardens"},"longitude":"-0.117085"},"context":"","outcome_status":null,"persistent_id":"","id":52662995,"location_subtype":"","month":"2016-10"},{"category":"anti-social-behaviour","location_type":"Force","location":{"latitude":"51.456114","street":{"id":942555,"name":"On or near Dray Gardens"},"longitude":"-0.117085"},"context":"","outcome_status":null,"persistent_id":"","id":52662994,"location_subtype":"","month":"2016-10"},{"category":"anti-social-behaviour","location_type":"Force","location":{"latitude":"51.457210","street":{"id":942544,"name":"On or near Hicken Road"},"longitude":"-0.117011"},"context":"","outcome_status":null,"persistent_id":"","id":52662982,"location_subtype":"","month":"2016-10"},{"category":"anti-social-behaviour","location_type":"Force","location":{"latitude":"51.454372","street":{"id":942597,"name":"On or near Josephine Avenue"},"longitude":"-0.116725"},"context":"","outcome_status":null,"persistent_id":"","id":52662975,"location_subtype":"","month":"2016-10"},{"category":"anti-social-behaviour","location_type":"Force","location":{"latitude":"51.448593","street":{"id":939864,"name":"On or near Craster Road"},"longitude":"-0.117452"},"context":"","outcome_status":null,"persistent_id":"","id":52662972,"location_subtype":"","month":"2016-10"},{"category":"anti-social-behaviour","location_type":"Force","location":{"latitude":"51.448593","street":{"id":939864,"name":"On or near Craster Road"},"longitude":"-0.117452"},"context":"","outcome_status":null,"persistent_id":"","id":52662971,"location_subtype":"","month":"2016-10"},{"category":"anti-social-behaviour","location_type":"Force","location":{"latitude":"51.449533","street":{"id":939858,"name":"On or near Medora Road"},"longitude":"-0.116636"},"context":"","outcome_status":null,"persistent_id":"","id":52662969,"location_subtype":"","month":"2016-10"},{"category":"anti-social-behaviour","location_type":"Force","location":{"latitude":"51.452273","street":{"id":939861,"name":"On or near Helix Road"},"longitude":"-0.116494"},"context":"","outcome_status":null,"persistent_id":"","id":52662968,"location_subtype":"","month":"2016-10"},{"category":"anti-social-behaviour","location_type":"Force","location":{"latitude":"51.444550","street":{"id":939838,"name":"On or near Huggins Place"},"longitude":"-0.117143"},"context":"","outcome_status":null,"persistent_id":"","id":52662966,"location_subtype":"","month":"2016-10"},{"category":"anti-social-behaviour","location_type":"Force","location":{"latitude":"51.455419","street":{"id":942604,"name":"On or near Brixton Water Lane"},"longitude":"-0.116408"},"context":"","outcome_status":null,"persistent_id":"","id":52662962,"location_subtype":"","month":"2016-10"},{"category":"anti-social-behaviour","location_type":"Force","location":{"latitude":"51.447594","street":{"id":939845,"name":"On or near Claverdale Road"},"longitude":"-0.116270"},"context":"","outcome_status":null,"persistent_id":"","id":52662950,"location_subtype":"","month":"2016-10"},{"category":"anti-social-behaviour","location_type":"Force","location":{"latitude":"51.456155","street":{"id":942557,"name":"On or near Crownstone Road"},"longitude":"-0.115198"},"context":"","outcome_status":null,"persistent_id":"","id":52662502,"location_subtype":"","month":"2016-10"},{"category":"anti-social-behaviour","location_type":"Force","location":{"latitude":"51.449533","street":{"id":939858,"name":"On or near Medora Road"},"longitude":"-0.116636"},"context":"","outcome_status":null,"persistent_id":"","id":52662965,"location_subtype":"","month":"2016-10"},{"category":"anti-social-behaviour","location_type":"Force","location":{"latitude":"51.452273","street":{"id":939861,"name":"On or near Helix Road"},"longitude":"-0.116494"},"context":"","outcome_status":null,"persistent_id":"","id":52662997,"location_subtype":"","month":"2016-10"},{"category":"anti-social-behaviour","location_type":"Force","location":{"latitude":"51.442789","street":{"id":939942,"name":"On or near High Trees"},"longitude":"-0.112179"},"context":"","outcome_status":null,"persistent_id":"","id":52661509,"location_subtype":"","month":"2016-10"},{"category":"anti-social-behaviour","location_type":"Force","location":{"latitude":"51.442789","street":{"id":939942,"name":"On or near High Trees"},"longitude":"-0.112179"},"context":"","outcome_status":null,"persistent_id":"","id":52661507,"location_subtype":"","month":"2016-10"},{"category":"anti-social-behaviour","location_type":"Force","location":{"latitude":"51.443069","street":{"id":939850,"name":"On or near Abbots Park"},"longitude":"-0.112815"},"context":"","outcome_status":null,"persistent_id":"","id":52662213,"location_subtype":"","month":"2016-10"},{"category":"anti-social-behaviour","location_type":"Force","location":{"latitude":"51.454053","street":{"id":942600,"name":"On or near Dewey Lane"},"longitude":"-0.113629"},"context":"","outcome_status":null,"persistent_id":"","id":52662385,"location_subtype":"","month":"2016-10"},{"category":"anti-social-behaviour","location_type":"Force","location":{"latitude":"51.448317","street":{"id":939844,"name":"On or near Craignair Road"},"longitude":"-0.114858"},"context":"","outcome_status":null,"persistent_id":"","id":52662392,"location_subtype":"","month":"2016-10"},{"category":"anti-social-behaviour","location_type":"Force","location":{"latitude":"51.447260","street":{"id":939833,"name":"On or near Papworth Way"},"longitude":"-0.112326"},"context":"","outcome_status":null,"persistent_id":"","id":52661501,"location_subtype":"","month":"2016-10"},{"category":"anti-social-behaviour","location_type":"Force","location":{"latitude":"51.448317","street":{"id":939844,"name":"On or near Craignair Road"},"longitude":"-0.114858"},"context":"","outcome_status":null,"persistent_id":"","id":52662389,"location_subtype":"","month":"2016-10"},{"category":"anti-social-behaviour","location_type":"Force","location":{"latitude":"51.454053","street":{"id":942600,"name":"On or near Dewey Lane"},"longitude":"-0.113629"},"context":"","outcome_status":null,"persistent_id":"","id":52662387,"location_subtype":"","month":"2016-10"},{"category":"anti-social-behaviour","location_type":"Force","location":{"latitude":"51.454053","street":{"id":942600,"name":"On or near Dewey Lane"},"longitude":"-0.113629"},"context":"","outcome_status":null,"persistent_id":"","id":52662383,"location_subtype":"","month":"2016-10"},{"category":"anti-social-behaviour","location_type":"Force","location":{"latitude":"51.454053","street":{"id":942600,"name":"On or near Dewey Lane"},"longitude":"-0.113629"},"context":"","outcome_status":null,"persistent_id":"","id":52662381,"location_subtype":"","month":"2016-10"},{"category":"anti-social-behaviour","location_type":"Force","location":{"latitude":"51.454053","street":{"id":942600,"name":"On or near Dewey Lane"},"longitude":"-0.113629"},"context":"","outcome_status":null,"persistent_id":"","id":52662380,"location_subtype":"","month":"2016-10"},{"category":"anti-social-behaviour","location_type":"Force","location":{"latitude":"51.459032","street":{"id":942550,"name":"On or near Effra Road"},"longitude":"-0.115151"},"context":"","outcome_status":null,"persistent_id":"","id":52662506,"location_subtype":"","month":"2016-10"},{"category":"anti-social-behaviour","location_type":"Force","location":{"latitude":"51.456155","street":{"id":942557,"name":"On or near Crownstone Road"},"longitude":"-0.115198"},"context":"","outcome_status":null,"persistent_id":"","id":52662504,"location_subtype":"","month":"2016-10"},{"category":"anti-social-behaviour","location_type":"Force","location":{"latitude":"51.456155","street":{"id":942557,"name":"On or near Crownstone Road"},"longitude":"-0.115198"},"context":"","outcome_status":null,"persistent_id":"","id":52662500,"location_subtype":"","month":"2016-10"},{"category":"anti-social-behaviour","location_type":"Force","location":{"latitude":"51.456155","street":{"id":942557,"name":"On or near Crownstone Road"},"longitude":"-0.115198"},"context":"","outcome_status":null,"persistent_id":"","id":52662499,"location_subtype":"","month":"2016-10"},{"category":"anti-social-behaviour","location_type":"Force","location":{"latitude":"51.445533","street":{"id":939827,"name":"On or near Scotia Road"},"longitude":"-0.115649"},"context":"","outcome_status":null,"persistent_id":"","id":52662490,"location_subtype":"","month":"2016-10"},{"category":"anti-social-behaviour","location_type":"Force","location":{"latitude":"51.448317","street":{"id":939844,"name":"On or near Craignair Road"},"longitude":"-0.114858"},"context":"","outcome_status":null,"persistent_id":"","id":52662461,"location_subtype":"","month":"2016-10"},{"category":"anti-social-behaviour","location_type":"Force","location":{"latitude":"51.454052","street":{"id":942609,"name":"On or near Appach Road"},"longitude":"-0.115227"},"context":"","outcome_status":null,"persistent_id":"","id":52662418,"location_subtype":"","month":"2016-10"},{"category":"anti-social-behaviour","location_type":"Force","location":{"latitude":"51.451830","street":{"id":939859,"name":"On or near Leander Road"},"longitude":"-0.115779"},"context":"","outcome_status":null,"persistent_id":"","id":52662342,"location_subtype":"","month":"2016-10"},{"category":"anti-social-behaviour","location_type":"Force","location":{"latitude":"51.451830","street":{"id":939859,"name":"On or near Leander Road"},"longitude":"-0.115779"},"context":"","outcome_status":null,"persistent_id":"","id":52662341,"location_subtype":"","month":"2016-10"},{"category":"anti-social-behaviour","location_type":"Force","location":{"latitude":"51.451830","street":{"id":939859,"name":"On or near Leander Road"},"longitude":"-0.115779"},"context":"","outcome_status":null,"persistent_id":"","id":52662339,"location_subtype":"","month":"2016-10"},{"category":"anti-social-behaviour","location_type":"Force","location":{"latitude":"51.451830","street":{"id":939859,"name":"On or near Leander Road"},"longitude":"-0.115779"},"context":"","outcome_status":null,"persistent_id":"","id":52662337,"location_subtype":"","month":"2016-10"},{"category":"anti-social-behaviour","location_type":"Force","location":{"latitude":"51.451830","street":{"id":939859,"name":"On or near Leander Road"},"longitude":"-0.115779"},"context":"","outcome_status":null,"persistent_id":"","id":52662335,"location_subtype":"","month":"2016-10"},{"category":"anti-social-behaviour","location_type":"Force","location":{"latitude":"51.450690","street":{"id":939866,"name":"On or near Bristowe Close"},"longitude":"-0.112544"},"context":"","outcome_status":null,"persistent_id":"","id":52662304,"location_subtype":"","month":"2016-10"},{"category":"anti-social-behaviour","location_type":"Force","location":{"latitude":"51.454329","street":{"id":942601,"name":"On or near Cossar Mews"},"longitude":"-0.113474"},"context":"","outcome_status":null,"persistent_id":"","id":52662302,"location_subtype":"","month":"2016-10"},{"category":"anti-social-behaviour","location_type":"Force","location":{"latitude":"51.454329","street":{"id":942601,"name":"On or near Cossar Mews"},"longitude":"-0.113474"},"context":"","outcome_status":null,"persistent_id":"","id":52662300,"location_subtype":"","month":"2016-10"},{"category":"anti-social-behaviour","location_type":"Force","location":{"latitude":"51.453890","street":{"id":942608,"name":"On or near Arlingford Road"},"longitude":"-0.112470"},"context":"","outcome_status":null,"persistent_id":"","id":52662260,"location_subtype":"","month":"2016-10"},{"category":"anti-social-behaviour","location_type":"Force","location":{"latitude":"51.453890","street":{"id":942608,"name":"On or near Arlingford Road"},"longitude":"-0.112470"},"context":"","outcome_status":null,"persistent_id":"","id":52662241,"location_subtype":"","month":"2016-10"},{"category":"anti-social-behaviour","location_type":"Force","location":{"latitude":"51.450690","street":{"id":939866,"name":"On or near Bristowe Close"},"longitude":"-0.112544"},"context":"","outcome_status":null,"persistent_id":"","id":52662236,"location_subtype":"","month":"2016-10"},{"category":"anti-social-behaviour","location_type":"Force","location":{"latitude":"51.450045","street":{"id":939860,"name":"On or near Herbert Mews"},"longitude":"-0.112110"},"context":"","outcome_status":null,"persistent_id":"","id":52662196,"location_subtype":"","month":"2016-10"},{"category":"anti-social-behaviour","location_type":"Force","location":{"latitude":"51.442789","street":{"id":939942,"name":"On or near High Trees"},"longitude":"-0.112179"},"context":"","outcome_status":null,"persistent_id":"","id":52661506,"location_subtype":"","month":"2016-10"},{"category":"anti-social-behaviour","location_type":"Force","location":{"latitude":"51.447260","street":{"id":939833,"name":"On or near Papworth Way"},"longitude":"-0.112326"},"context":"","outcome_status":null,"persistent_id":"","id":52661499,"location_subtype":"","month":"2016-10"},{"category":"anti-social-behaviour","location_type":"Force","location":{"latitude":"51.447260","street":{"id":939833,"name":"On or near Papworth Way"},"longitude":"-0.112326"},"context":"","outcome_status":null,"persistent_id":"","id":52661497,"location_subtype":"","month":"2016-10"},{"category":"anti-social-behaviour","location_type":"Force","location":{"latitude":"51.447260","street":{"id":939833,"name":"On or near Papworth Way"},"longitude":"-0.112326"},"context":"","outcome_status":null,"persistent_id":"","id":52661495,"location_subtype":"","month":"2016-10"},{"category":"anti-social-behaviour","location_type":"Force","location":{"latitude":"51.447260","street":{"id":939833,"name":"On or near Papworth Way"},"longitude":"-0.112326"},"context":"","outcome_status":null,"persistent_id":"","id":52661494,"location_subtype":"","month":"2016-10"},{"category":"anti-social-behaviour","location_type":"Force","location":{"latitude":"51.447260","street":{"id":939833,"name":"On or near Papworth Way"},"longitude":"-0.112326"},"context":"","outcome_status":null,"persistent_id":"","id":52661492,"location_subtype":"","month":"2016-10"},{"category":"anti-social-behaviour","location_type":"Force","location":{"latitude":"51.453890","street":{"id":942605,"name":"On or near Brailsford Road"},"longitude":"-0.112455"},"context":"","outcome_status":null,"persistent_id":"","id":52662169,"location_subtype":"","month":"2016-10"},{"category":"anti-social-behaviour","location_type":"Force","location":{"latitude":"51.447260","street":{"id":939833,"name":"On or near Papworth Way"},"longitude":"-0.112326"},"context":"","outcome_status":null,"persistent_id":"","id":52662171,"location_subtype":"","month":"2016-10"},{"category":"anti-social-behaviour","location_type":"Force","location":{"latitude":"51.450631","street":{"id":939904,"name":"On or near Somers Road"},"longitude":"-0.121168"},"context":"","outcome_status":null,"persistent_id":"","id":52663452,"location_subtype":"","month":"2016-10"},{"category":"anti-social-behaviour","location_type":"Force","location":{"latitude":"51.450631","street":{"id":939904,"name":"On or near Somers Road"},"longitude":"-0.121168"},"context":"","outcome_status":null,"persistent_id":"","id":52663451,"location_subtype":"","month":"2016-10"},{"category":"anti-social-behaviour","location_type":"Force","location":{"latitude":"51.450631","street":{"id":939904,"name":"On or near Somers Road"},"longitude":"-0.121168"},"context":"","outcome_status":null,"persistent_id":"","id":52663450,"location_subtype":"","month":"2016-10"},{"category":"anti-social-behaviour","location_type":"Force","location":{"latitude":"51.450631","street":{"id":939904,"name":"On or near Somers Road"},"longitude":"-0.121168"},"context":"","outcome_status":null,"persistent_id":"","id":52663449,"location_subtype":"","month":"2016-10"},{"category":"anti-social-behaviour","location_type":"Force","location":{"latitude":"51.450631","street":{"id":939904,"name":"On or near Somers Road"},"longitude":"-0.121168"},"context":"","outcome_status":null,"persistent_id":"","id":52663448,"location_subtype":"","month":"2016-10"},{"category":"anti-social-behaviour","location_type":"Force","location":{"latitude":"51.452104","street":{"id":939919,"name":"On or near Beechdale Road"},"longitude":"-0.119366"},"context":"","outcome_status":null,"persistent_id":"","id":52663407,"location_subtype":"","month":"2016-10"},{"category":"anti-social-behaviour","location_type":"Force","location":{"latitude":"51.453827","street":{"id":942598,"name":"On or near Helix Gardens"},"longitude":"-0.118028"},"context":"","outcome_status":null,"persistent_id":"","id":52663044,"location_subtype":"","month":"2016-10"},{"category":"anti-social-behaviour","location_type":"Force","location":{"latitude":"51.453827","street":{"id":942598,"name":"On or near Helix Gardens"},"longitude":"-0.118028"},"context":"","outcome_status":null,"persistent_id":"","id":52663043,"location_subtype":"","month":"2016-10"},{"category":"anti-social-behaviour","location_type":"Force","location":{"latitude":"51.451115","street":{"id":939913,"name":"On or near Endymion Road"},"longitude":"-0.119377"},"context":"","outcome_status":null,"persistent_id":"","id":52663042,"location_subtype":"","month":"2016-10"},{"category":"anti-social-behaviour","location_type":"Force","location":{"latitude":"51.459217","street":{"id":923967,"name":"On or near St Matthew's Road"},"longitude":"-0.116007"},"context":"","outcome_status":null,"persistent_id":"","id":52663000,"location_subtype":"","month":"2016-10"},{"category":"anti-social-behaviour","location_type":"Force","location":{"latitude":"51.448593","street":{"id":939864,"name":"On or near Craster Road"},"longitude":"-0.117452"},"context":"","outcome_status":null,"persistent_id":"","id":52663035,"location_subtype":"","month":"2016-10"},{"category":"bicycle-theft","location_type":"Force","location":{"latitude":"51.451830","street":{"id":939859,"name":"On or near Leander Road"},"longitude":"-0.115779"},"context":"","outcome_status":{"category":"Status update unavailable","date":"2017-02"},"persistent_id":"e8954bfbebb747dacf428d224b5eb0730c15c6b010caedc8d5fc8cd21162d5f2","id":52766909,"location_subtype":"","month":"2016-10"},{"category":"burglary","location_type":"Force","location":{"latitude":"51.450690","street":{"id":939866,"name":"On or near Bristowe Close"},"longitude":"-0.112544"},"context":"","outcome_status":{"category":"Investigation complete; no suspect identified","date":"2016-10"},"persistent_id":"e5e7e6fc3f0517457ac8ff5f5d89d393904f0e0b2caf13910dad8ad1ed219b95","id":52773967,"location_subtype":"","month":"2016-10"},{"category":"burglary","location_type":"Force","location":{"latitude":"51.454052","street":{"id":942609,"name":"On or near Appach Road"},"longitude":"-0.115227"},"context":"","outcome_status":{"category":"Status update unavailable","date":"2017-02"},"persistent_id":"6c0ddc05d9651358fb0b0745c6d6cf1cd20ad99f139b0a6887b4d9a152d4f6a9","id":52757530,"location_subtype":"","month":"2016-10"},{"category":"burglary","location_type":"Force","location":{"latitude":"51.450690","street":{"id":939866,"name":"On or near Bristowe Close"},"longitude":"-0.112544"},"context":"","outcome_status":{"category":"Investigation complete; no suspect identified","date":"2016-11"},"persistent_id":"c3975428c0288a3a94f1b7648ec4e2dde829af30ad694734481798556312e091","id":52697587,"location_subtype":"","month":"2016-10"},{"category":"burglary","location_type":"Force","location":{"latitude":"51.450631","street":{"id":939904,"name":"On or near Somers Road"},"longitude":"-0.121168"},"context":"","outcome_status":{"category":"Investigation complete; no suspect identified","date":"2016-10"},"persistent_id":"5422532647c6a0c00510597772b5e1af8f39f2b3f3566980d226a9e478a77302","id":52698878,"location_subtype":"","month":"2016-10"},{"category":"burglary","location_type":"Force","location":{"latitude":"51.452104","street":{"id":939919,"name":"On or near Beechdale Road"},"longitude":"-0.119366"},"context":"","outcome_status":{"category":"Status update unavailable","date":"2017-02"},"persistent_id":"3b99744bb7a5d585a137bbd82cf929961d97a7cd5849a74fc568435bb71bba2e","id":52777792,"location_subtype":"","month":"2016-10"},{"category":"burglary","location_type":"Force","location":{"latitude":"51.453131","street":{"id":942607,"name":"On or near Arodene Road"},"longitude":"-0.117841"},"context":"","outcome_status":{"category":"Status update unavailable","date":"2017-02"},"persistent_id":"feb152f3073c5936d8f0d7ebe1cea07eafe7429b0f5e59be3117c0902ce755f7","id":52762841,"location_subtype":"","month":"2016-10"},{"category":"burglary","location_type":"Force","location":{"latitude":"51.449764","street":{"id":939862,"name":"On or near Elm Park"},"longitude":"-0.118138"},"context":"","outcome_status":{"category":"Investigation complete; no suspect identified","date":"2017-01"},"persistent_id":"726005f753acbae9e6526735c8b6441a3cd402e1d83f5ab18c12c58a1f631151","id":52734924,"location_subtype":"","month":"2016-10"},{"category":"burglary","location_type":"Force","location":{"latitude":"51.452273","street":{"id":939861,"name":"On or near Helix Road"},"longitude":"-0.116494"},"context":"","outcome_status":{"category":"Investigation complete; no suspect identified","date":"2016-11"},"persistent_id":"d4ed7de942c39b99605c0e11e8daecf1143ffbaac9d7e70a6627a6dfdbe9fbe7","id":52775420,"location_subtype":"","month":"2016-10"},{"category":"burglary","location_type":"Force","location":{"latitude":"51.456155","street":{"id":942557,"name":"On or near Crownstone Road"},"longitude":"-0.115198"},"context":"","outcome_status":{"category":"Status update unavailable","date":"2017-02"},"persistent_id":"4a3b714f9f1cd8c142af95ce9023fa258ffbfda2bc8a57a0f7b4dd5f24a2e73c","id":52710676,"location_subtype":"","month":"2016-10"},{"category":"burglary","location_type":"Force","location":{"latitude":"51.456155","street":{"id":942557,"name":"On or near Crownstone Road"},"longitude":"-0.115198"},"context":"","outcome_status":{"category":"Status update unavailable","date":"2017-02"},"persistent_id":"4a3b714f9f1cd8c142af95ce9023fa258ffbfda2bc8a57a0f7b4dd5f24a2e73c","id":52709151,"location_subtype":"","month":"2016-10"},{"category":"burglary","location_type":"Force","location":{"latitude":"51.454052","street":{"id":942609,"name":"On or near Appach Road"},"longitude":"-0.115227"},"context":"","outcome_status":{"category":"Status update unavailable","date":"2017-02"},"persistent_id":"375127160ac212ec6ccf57e8fa4fd4834ff8af0520b38d06f4aeedd599cb8888","id":52757895,"location_subtype":"","month":"2016-10"},{"category":"burglary","location_type":"Force","location":{"latitude":"51.454052","street":{"id":942609,"name":"On or near Appach Road"},"longitude":"-0.115227"},"context":"","outcome_status":{"category":"Status update unavailable","date":"2017-02"},"persistent_id":"6c0ddc05d9651358fb0b0745c6d6cf1cd20ad99f139b0a6887b4d9a152d4f6a9","id":52757529,"location_subtype":"","month":"2016-10"},{"category":"burglary","location_type":"Force","location":{"latitude":"51.447603","street":{"id":939871,"name":"On or near Upper Tulse Hill"},"longitude":"-0.119623"},"context":"","outcome_status":{"category":"Status update unavailable","date":"2017-02"},"persistent_id":"2f12aa412e5556e9eb459fe8cb206979e69f94250258bb1dce629173c558491f","id":52731091,"location_subtype":"","month":"2016-10"},{"category":"burglary","location_type":"Force","location":{"latitude":"51.447603","street":{"id":939871,"name":"On or near Upper Tulse Hill"},"longitude":"-0.119623"},"context":"","outcome_status":{"category":"Investigation complete; no suspect identified","date":"2016-10"},"persistent_id":"ed68f030354215e97b9adeebc5310b172023c927c3d1636d12758572ab9ada9b","id":52680056,"location_subtype":"","month":"2016-10"},{"category":"burglary","location_type":"Force","location":{"latitude":"51.457313","street":{"id":942523,"name":"On or near St Matthew's Road"},"longitude":"-0.116172"},"context":"","outcome_status":{"category":"Status update unavailable","date":"2017-02"},"persistent_id":"9ad33d38e4848385898a93a75b4c8f25de574620ad45a31285cd5f0f8d6f38bc","id":52747983,"location_subtype":"","month":"2016-10"},{"category":"criminal-damage-arson","location_type":"Force","location":{"latitude":"51.452912","street":{"id":942599,"name":"On or near Fairmount Road"},"longitude":"-0.118757"},"context":"","outcome_status":{"category":"Investigation complete; no suspect identified","date":"2016-11"},"persistent_id":"6f2fa859370d20a285a04fc1f2d0b86e71f67907ab482c910ba0da86f00d900f","id":52762821,"location_subtype":"","month":"2016-10"},{"category":"criminal-damage-arson","location_type":"Force","location":{"latitude":"51.450690","street":{"id":939866,"name":"On or near Bristowe Close"},"longitude":"-0.112544"},"context":"","outcome_status":{"category":"Status update unavailable","date":"2017-02"},"persistent_id":"19c67ea117e4997b657c95f3a3e200a8a47e997769921a85aa6d68a6031825e3","id":52765062,"location_subtype":"","month":"2016-10"},{"category":"criminal-damage-arson","location_type":"Force","location":{"latitude":"51.443684","street":{"id":939841,"name":"On or near Gaywood Close"},"longitude":"-0.115279"},"context":"","outcome_status":{"category":"Status update unavailable","date":"2017-02"},"persistent_id":"deb44f16e0dc12cd74a8950fe18c7823299f21bf2d5f433aff91526ebce75d25","id":52734313,"location_subtype":"","month":"2016-10"},{"category":"criminal-damage-arson","location_type":"Force","location":{"latitude":"51.452104","street":{"id":939919,"name":"On or near Beechdale Road"},"longitude":"-0.119366"},"context":"","outcome_status":{"category":"Status update unavailable","date":"2017-02"},"persistent_id":"6c997985f66fb011573978038bcb72ad49c49430a46b85ceeb46b3c2ed6884c2","id":52753801,"location_subtype":"","month":"2016-10"},{"category":"criminal-damage-arson","location_type":"Force","location":{"latitude":"51.454052","street":{"id":942609,"name":"On or near Appach Road"},"longitude":"-0.115227"},"context":"","outcome_status":{"category":"Status update unavailable","date":"2017-02"},"persistent_id":"38604a9986f3c494d99977a8def8b8ebc6b919c6c35f4405aac5745741573d98","id":52721861,"location_subtype":"","month":"2016-10"},{"category":"criminal-damage-arson","location_type":"Force","location":{"latitude":"51.447260","street":{"id":939833,"name":"On or near Papworth Way"},"longitude":"-0.112326"},"context":"","outcome_status":{"category":"Investigation complete; no suspect identified","date":"2016-11"},"persistent_id":"452506424750c7f740c083af6610c9ca1f39b44af72aca7c14989904868089fe","id":52766702,"location_subtype":"","month":"2016-10"},{"category":"criminal-damage-arson","location_type":"Force","location":{"latitude":"51.453890","street":{"id":942605,"name":"On or near Brailsford Road"},"longitude":"-0.112455"},"context":"","outcome_status":{"category":"Status update unavailable","date":"2017-02"},"persistent_id":"332ee5db8afa11d3df59a9accf6df43dd05bbbf822c6b5cd3245d418cb418a20","id":52723300,"location_subtype":"","month":"2016-10"},{"category":"criminal-damage-arson","location_type":"Force","location":{"latitude":"51.451830","street":{"id":939859,"name":"On or near Leander Road"},"longitude":"-0.115779"},"context":"","outcome_status":{"category":"Investigation complete; no suspect identified","date":"2016-10"},"persistent_id":"a5c8b6859e1289d8e5b49b463f825f8dbbf638c0f6199a7f12732679f74194e5","id":52777895,"location_subtype":"","month":"2016-10"},{"category":"drugs","location_type":"Force","location":{"latitude":"51.456114","street":{"id":942555,"name":"On or near Dray Gardens"},"longitude":"-0.117085"},"context":"","outcome_status":{"category":"Investigation complete; no suspect identified","date":"2016-11"},"persistent_id":"8da59f9bb5821dfd2ea1dbc03787c1c228743a5ffeba91270c33815ce416c85c","id":52705570,"location_subtype":"","month":"2016-10"},{"category":"drugs","location_type":"Force","location":{"latitude":"51.451115","street":{"id":939913,"name":"On or near Endymion Road"},"longitude":"-0.119377"},"context":"","outcome_status":{"category":"Offender given conditional discharge","date":"2016-11"},"persistent_id":"a9e8f9bd579558292ce080bc6caeb3ba483ea66211e4248ccf5990896431915d","id":52754752,"location_subtype":"","month":"2016-10"},{"category":"drugs","location_type":"Force","location":{"latitude":"51.451830","street":{"id":939859,"name":"On or near Leander Road"},"longitude":"-0.115779"},"context":"","outcome_status":{"category":"Offender fined","date":"2016-10"},"persistent_id":"9beaf60f5169913cc5d0ffec3a46e610700696996c22bb30f8c13d7ef744faf0","id":52741400,"location_subtype":"","month":"2016-10"},{"category":"drugs","location_type":"Force","location":{"latitude":"51.451115","street":{"id":939913,"name":"On or near Endymion Road"},"longitude":"-0.119377"},"context":"","outcome_status":{"category":"Offender fined","date":"2016-11"},"persistent_id":"e66f554d2308ce4a44c1b58c2c736ef2464793889afae4bf362dce7b9e1d149a","id":52754684,"location_subtype":"","month":"2016-10"},{"category":"drugs","location_type":"Force","location":{"latitude":"51.451830","street":{"id":939859,"name":"On or near Leander Road"},"longitude":"-0.115779"},"context":"","outcome_status":{"category":"Offender fined","date":"2016-10"},"persistent_id":"fb3ce55d9030920ab0c4ad41f9aad70459fa98154c4180c24105dc437be23c1c","id":52764047,"location_subtype":"","month":"2016-10"},{"category":"drugs","location_type":"Force","location":{"latitude":"51.459217","street":{"id":923967,"name":"On or near St Matthew's Road"},"longitude":"-0.116007"},"context":"","outcome_status":{"category":"Offender given a caution","date":"2016-10"},"persistent_id":"5f1e9f6fd390da4c36a3be0ed66c4593c4494567396ca9a7a380f8bc4a468db9","id":52704729,"location_subtype":"","month":"2016-10"},{"category":"drugs","location_type":"Force","location":{"latitude":"51.450690","street":{"id":939866,"name":"On or near Bristowe Close"},"longitude":"-0.112544"},"context":"","outcome_status":{"category":"Offender fined","date":"2016-11"},"persistent_id":"ce77a9716ae3bd445a76efeba423f04a29892f40cf0942b73ac77f0d388199a7","id":52778834,"location_subtype":"","month":"2016-10"},{"category":"drugs","location_type":"Force","location":{"latitude":"51.454372","street":{"id":942597,"name":"On or near Josephine Avenue"},"longitude":"-0.116725"},"context":"","outcome_status":{"category":"Offender given a drugs possession warning","date":"2016-10"},"persistent_id":"7001031da56e779b688d970465d5e50d9ebedf54c075bd3ad1bdacf1e509a541","id":52692190,"location_subtype":"","month":"2016-10"},{"category":"drugs","location_type":"Force","location":{"latitude":"51.456114","street":{"id":942555,"name":"On or near Dray Gardens"},"longitude":"-0.117085"},"context":"","outcome_status":{"category":"Offender given a drugs possession warning","date":"2016-11"},"persistent_id":"9e9b0764582b9178261ea0a53cd5b18e75d6c53339e14a75b81b2946d1368f78","id":52698595,"location_subtype":"","month":"2016-10"},{"category":"drugs","location_type":"Force","location":{"latitude":"51.454329","street":{"id":942601,"name":"On or near Cossar Mews"},"longitude":"-0.113474"},"context":"","outcome_status":{"category":"Offender fined","date":"2017-04"},"persistent_id":"849d6b527e278797968914447a94dd99bf48bcac007821913cbf71063029244c","id":52685163,"location_subtype":"","month":"2016-10"},{"category":"other-theft","location_type":"Force","location":{"latitude":"51.447849","street":{"id":939851,"name":"On or near Petrol Station"},"longitude":"-0.112604"},"context":"","outcome_status":{"category":"Investigation complete; no suspect identified","date":"2016-10"},"persistent_id":"30f12699ca3f768f567e927cce9dca8777694302023ee20df51c6e62aed0c156","id":52766602,"location_subtype":"","month":"2016-10"},{"category":"other-theft","location_type":"Force","location":{"latitude":"51.444988","street":{"id":939847,"name":"On or near Bannister Close"},"longitude":"-0.113585"},"context":"","outcome_status":{"category":"Investigation complete; no suspect identified","date":"2016-11"},"persistent_id":"582eaa97b16a3b8c9df04e8ef7e3653d6684fa830c60ffc08ebf176864948bda","id":52726636,"location_subtype":"","month":"2016-10"},{"category":"other-theft","location_type":"Force","location":{"latitude":"51.447849","street":{"id":939851,"name":"On or near Petrol Station"},"longitude":"-0.112604"},"context":"","outcome_status":{"category":"Investigation complete; no suspect identified","date":"2016-11"},"persistent_id":"5aa1d655e247b8d7a7245e784f1c3bf096aa47ed77e617fd90e6dcaea20ba3b2","id":52738918,"location_subtype":"","month":"2016-10"},{"category":"other-theft","location_type":"Force","location":{"latitude":"51.447849","street":{"id":939851,"name":"On or near Petrol Station"},"longitude":"-0.112604"},"context":"","outcome_status":{"category":"Investigation complete; no suspect identified","date":"2016-10"},"persistent_id":"495c641b371e85b11033bb6667e8f380e64b105a9390565eb9ae43f4cba86197","id":52743767,"location_subtype":"","month":"2016-10"},{"category":"other-theft","location_type":"Force","location":{"latitude":"51.447849","street":{"id":939851,"name":"On or near Petrol Station"},"longitude":"-0.112604"},"context":"","outcome_status":{"category":"Investigation complete; no suspect identified","date":"2016-11"},"persistent_id":"9f0641dbb2d71c8cd3c950b4e47794c88f153294c850c9a44e4ba2065cceb4c9","id":52778945,"location_subtype":"","month":"2016-10"},{"category":"other-theft","location_type":"Force","location":{"latitude":"51.447849","street":{"id":939851,"name":"On or near Petrol Station"},"longitude":"-0.112604"},"context":"","outcome_status":{"category":"Investigation complete; no suspect identified","date":"2016-10"},"persistent_id":"77635b84e000e069444ae878f52391eddd57f9cf640eeb077e52dd9123593fbb","id":52741199,"location_subtype":"","month":"2016-10"},{"category":"other-theft","location_type":"Force","location":{"latitude":"51.447849","street":{"id":939851,"name":"On or near Petrol Station"},"longitude":"-0.112604"},"context":"","outcome_status":{"category":"Investigation complete; no suspect identified","date":"2016-11"},"persistent_id":"49e0867d89251411714ffc3fbbc43de5a8b05dc619c034aca1156e4cdacadb68","id":52742153,"location_subtype":"","month":"2016-10"},{"category":"other-theft","location_type":"Force","location":{"latitude":"51.449533","street":{"id":939858,"name":"On or near Medora Road"},"longitude":"-0.116636"},"context":"","outcome_status":{"category":"Investigation complete; no suspect identified","date":"2016-11"},"persistent_id":"1e6d09db754207e12cd5e203a02c4c9236f6df5668e6da94520df662c353a5b1","id":52739351,"location_subtype":"","month":"2016-10"},{"category":"other-theft","location_type":"Force","location":{"latitude":"51.447849","street":{"id":939851,"name":"On or near Petrol Station"},"longitude":"-0.112604"},"context":"","outcome_status":{"category":"Investigation complete; no suspect identified","date":"2016-10"},"persistent_id":"fb557e16e7b1665db844d819f2dbd43e63ea14e6311e5125dc78123053b877a5","id":52737075,"location_subtype":"","month":"2016-10"},{"category":"other-theft","location_type":"Force","location":{"latitude":"51.450690","street":{"id":939866,"name":"On or near Bristowe Close"},"longitude":"-0.112544"},"context":"","outcome_status":{"category":"Status update unavailable","date":"2017-02"},"persistent_id":"1c41f9c95893a019882eedd5617794f26992d16dcfb5c244d1aecdbf50c3bd1f","id":52735567,"location_subtype":"","month":"2016-10"},{"category":"other-theft","location_type":"Force","location":{"latitude":"51.447849","street":{"id":939851,"name":"On or near Petrol Station"},"longitude":"-0.112604"},"context":"","outcome_status":{"category":"Investigation complete; no suspect identified","date":"2016-11"},"persistent_id":"0c6a75721fe2b0e942f4ed5a7e063a640b3e46aa2cbec7d263239137efa68f65","id":52733603,"location_subtype":"","month":"2016-10"},{"category":"other-theft","location_type":"Force","location":{"latitude":"51.447849","street":{"id":939851,"name":"On or near Petrol Station"},"longitude":"-0.112604"},"context":"","outcome_status":{"category":"Investigation complete; no suspect identified","date":"2016-10"},"persistent_id":"87b3b8f9f3044c7991704b489f86772980686c8df7b70ab148c498c6ec114926","id":52763846,"location_subtype":"","month":"2016-10"},{"category":"other-theft","location_type":"Force","location":{"latitude":"51.447849","street":{"id":939851,"name":"On or near Petrol Station"},"longitude":"-0.112604"},"context":"","outcome_status":{"category":"Investigation complete; no suspect identified","date":"2016-10"},"persistent_id":"0fc34d15c9573d7a2e4ee5ca5fec66318090a74c6e546447951967d4f26519c3","id":52762819,"location_subtype":"","month":"2016-10"},{"category":"other-theft","location_type":"Force","location":{"latitude":"51.450690","street":{"id":939866,"name":"On or near Bristowe Close"},"longitude":"-0.112544"},"context":"","outcome_status":{"category":"Status update unavailable","date":"2017-02"},"persistent_id":"fd150506ad5df786c84dbadce9b2f8f9ae3637546b165cf0fc764015da5e4a17","id":52758412,"location_subtype":"","month":"2016-10"},{"category":"other-theft","location_type":"Force","location":{"latitude":"51.453890","street":{"id":942608,"name":"On or near Arlingford Road"},"longitude":"-0.112470"},"context":"","outcome_status":{"category":"Investigation complete; no suspect identified","date":"2016-11"},"persistent_id":"3419d5436b45795e162922873b927ef3399f746e012e3ee4fedab982641b3530","id":52756664,"location_subtype":"","month":"2016-10"},{"category":"other-theft","location_type":"Force","location":{"latitude":"51.446642","street":{"id":939840,"name":"On or near Harriet Tubman Close"},"longitude":"-0.115776"},"context":"","outcome_status":{"category":"Investigation complete; no suspect identified","date":"2016-11"},"persistent_id":"82ec16b68d8ea6301d1e7b5aa21e4037933e44942d8fca208fd3cfbaba5ff8e8","id":52753648,"location_subtype":"","month":"2016-10"},{"category":"other-theft","location_type":"Force","location":{"latitude":"51.447849","street":{"id":939851,"name":"On or near Petrol Station"},"longitude":"-0.112604"},"context":"","outcome_status":{"category":"Investigation complete; no suspect identified","date":"2016-10"},"persistent_id":"7df6241b8fcc56f7185b2412a09f2cddd8ba8dbcf4a2f100c06df3f5e5e0e084","id":52727070,"location_subtype":"","month":"2016-10"},{"category":"other-theft","location_type":"Force","location":{"latitude":"51.452104","street":{"id":939919,"name":"On or near Beechdale Road"},"longitude":"-0.119366"},"context":"","outcome_status":{"category":"Status update unavailable","date":"2017-02"},"persistent_id":"19011a8aa6c0abe7484bd624e37c1ad5d16cfb86b0450a8f6e2717141307890a","id":52747660,"location_subtype":"","month":"2016-10"},{"category":"other-theft","location_type":"Force","location":{"latitude":"51.447849","street":{"id":939851,"name":"On or near Petrol Station"},"longitude":"-0.112604"},"context":"","outcome_status":{"category":"Investigation complete; no suspect identified","date":"2016-10"},"persistent_id":"06008e2f9619e5359f4278e675204362cb1d2fe30477e384a6af8b213639f308","id":52679830,"location_subtype":"","month":"2016-10"},{"category":"other-theft","location_type":"Force","location":{"latitude":"51.454052","street":{"id":942609,"name":"On or near Appach Road"},"longitude":"-0.115227"},"context":"","outcome_status":{"category":"Status update unavailable","date":"2017-02"},"persistent_id":"7bee4e6bef44e3f34681716d49cdfafc4101dc1dc6ce4aadefab289203bf9962","id":52698805,"location_subtype":"","month":"2016-10"},{"category":"other-theft","location_type":"Force","location":{"latitude":"51.447849","street":{"id":939851,"name":"On or near Petrol Station"},"longitude":"-0.112604"},"context":"","outcome_status":{"category":"Investigation complete; no suspect identified","date":"2016-11"},"persistent_id":"d7cd9e54a2fde53a82b83c437edffe2fb4eb8efe6712c6e3bf222ad0c06b51b0","id":52690313,"location_subtype":"","month":"2016-10"},{"category":"other-theft","location_type":"Force","location":{"latitude":"51.447849","street":{"id":939851,"name":"On or near Petrol Station"},"longitude":"-0.112604"},"context":"","outcome_status":{"category":"Investigation complete; no suspect identified","date":"2016-10"},"persistent_id":"bab99eab8acd8422df4a76ee925216cd065d28151e246f63cffd5aede875e121","id":52762283,"location_subtype":"","month":"2016-10"},{"category":"other-theft","location_type":"Force","location":{"latitude":"51.447849","street":{"id":939851,"name":"On or near Petrol Station"},"longitude":"-0.112604"},"context":"","outcome_status":{"category":"Investigation complete; no suspect identified","date":"2016-10"},"persistent_id":"686880dde5aadc681ed796b1492991ec31a1fc74111cf37b04409f9c42a3c891","id":52762462,"location_subtype":"","month":"2016-10"},{"category":"other-theft","location_type":"Force","location":{"latitude":"51.447849","street":{"id":939851,"name":"On or near Petrol Station"},"longitude":"-0.112604"},"context":"","outcome_status":{"category":"Investigation complete; no suspect identified","date":"2016-10"},"persistent_id":"6e80ebd142a56848513fdc8f0bb14abd583d20b096c72c50a4ff278e7917d928","id":52768426,"location_subtype":"","month":"2016-10"},{"category":"other-theft","location_type":"Force","location":{"latitude":"51.447849","street":{"id":939851,"name":"On or near Petrol Station"},"longitude":"-0.112604"},"context":"","outcome_status":{"category":"Investigation complete; no suspect identified","date":"2016-11"},"persistent_id":"796951c7948d105085ebd52c9d37eea2b84d0a646196fcf983c846dac7cec543","id":52754885,"location_subtype":"","month":"2016-10"},{"category":"public-order","location_type":"Force","location":{"latitude":"51.452104","street":{"id":939919,"name":"On or near Beechdale Road"},"longitude":"-0.119366"},"context":"","outcome_status":{"category":"Offender given suspended prison sentence","date":"2016-12"},"persistent_id":"a5a76eadd1fa745a2c98fdfed6b7e4d94c39c7bce58df9d5f792acded10ee8e8","id":52698423,"location_subtype":"","month":"2016-10"},{"category":"public-order","location_type":"Force","location":{"latitude":"51.447041","street":{"id":939849,"name":"On or near Athlone Road"},"longitude":"-0.116019"},"context":"","outcome_status":{"category":"Investigation complete; no suspect identified","date":"2016-10"},"persistent_id":"d884d3d2bb40f8c1fe85817c4f7940933a8987caa77261e85f733531ca0657ab","id":52689835,"location_subtype":"","month":"2016-10"},{"category":"public-order","location_type":"Force","location":{"latitude":"51.456114","street":{"id":942555,"name":"On or near Dray Gardens"},"longitude":"-0.117085"},"context":"","outcome_status":{"category":"Investigation complete; no suspect identified","date":"2016-11"},"persistent_id":"f59eb6cff319adecca8c9ed4a3d0822140c0841acd882847984b8b8add4fd92e","id":52682073,"location_subtype":"","month":"2016-10"},{"category":"public-order","location_type":"Force","location":{"latitude":"51.449764","street":{"id":939862,"name":"On or near Elm Park"},"longitude":"-0.118138"},"context":"","outcome_status":{"category":"Investigation complete; no suspect identified","date":"2016-11"},"persistent_id":"695b5010645a074720b9008839eda21b9dc01690c5b4df6f332826fd588208c3","id":52733660,"location_subtype":"","month":"2016-10"},{"category":"public-order","location_type":"Force","location":{"latitude":"51.441524","street":{"id":939945,"name":"On or near Hardel Rise"},"longitude":"-0.108447"},"context":"","outcome_status":{"category":"Investigation complete; no suspect identified","date":"2016-11"},"persistent_id":"1925693e5a4aceb766e74365bee9a840fa3dd88dc352fac0f7d09af8555ceb15","id":52774046,"location_subtype":"","month":"2016-10"},{"category":"public-order","location_type":"Force","location":{"latitude":"51.454329","street":{"id":942601,"name":"On or near Cossar Mews"},"longitude":"-0.113474"},"context":"","outcome_status":{"category":"Defendant found not guilty","date":"2017-04"},"persistent_id":"c747dcb7d06b021b771527e39ca8d74f8a71dee760103e022a8bf23025c3f45b","id":52692117,"location_subtype":"","month":"2016-10"},{"category":"public-order","location_type":"Force","location":{"latitude":"51.451115","street":{"id":939913,"name":"On or near Endymion Road"},"longitude":"-0.119377"},"context":"","outcome_status":{"category":"Investigation complete; no suspect identified","date":"2016-10"},"persistent_id":"0982ac3c690c1b007a484be5823f38bbb92628187f308d444f001ee42bdc6de7","id":52739018,"location_subtype":"","month":"2016-10"},{"category":"public-order","location_type":"Force","location":{"latitude":"51.456114","street":{"id":942555,"name":"On or near Dray Gardens"},"longitude":"-0.117085"},"context":"","outcome_status":{"category":"Investigation complete; no suspect identified","date":"2016-10"},"persistent_id":"0767f895ffe56686d9ce143145a31a8b29b6074c0dd53b093351a05ffc796cfc","id":52694089,"location_subtype":"","month":"2016-10"},{"category":"robbery","location_type":"Force","location":{"latitude":"51.453890","street":{"id":942605,"name":"On or near Brailsford Road"},"longitude":"-0.112455"},"context":"","outcome_status":{"category":"Investigation complete; no suspect identified","date":"2016-10"},"persistent_id":"8119486070a5073b56b1cf5b56cc435c9c313bb3aa72d8ac67af8362267fcfa9","id":52732867,"location_subtype":"","month":"2016-10"},{"category":"robbery","location_type":"Force","location":{"latitude":"51.454053","street":{"id":942600,"name":"On or near Dewey Lane"},"longitude":"-0.113629"},"context":"","outcome_status":{"category":"Investigation complete; no suspect identified","date":"2017-01"},"persistent_id":"124b1f1625af572de5609f3e1f28fabf1c3c46cbd8fc8cd2da905575e4382f25","id":52757865,"location_subtype":"","month":"2016-10"},{"category":"robbery","location_type":"Force","location":{"latitude":"51.456114","street":{"id":942555,"name":"On or near Dray Gardens"},"longitude":"-0.117085"},"context":"","outcome_status":{"category":"Investigation complete; no suspect identified","date":"2016-11"},"persistent_id":"25d478463ca9ff14f90411594b255a47930f71a544533a1002dbf591d59d984d","id":52779087,"location_subtype":"","month":"2016-10"},{"category":"robbery","location_type":"Force","location":{"latitude":"51.444988","street":{"id":939847,"name":"On or near Bannister Close"},"longitude":"-0.113585"},"context":"","outcome_status":{"category":"Investigation complete; no suspect identified","date":"2016-11"},"persistent_id":"a2fe7f0b07a858656d40fbc36243ca395aa609d2026c4051777c223839017c5d","id":52709584,"location_subtype":"","month":"2016-10"},{"category":"robbery","location_type":"Force","location":{"latitude":"51.453890","street":{"id":942608,"name":"On or near Arlingford Road"},"longitude":"-0.112470"},"context":"","outcome_status":{"category":"Investigation complete; no suspect identified","date":"2016-10"},"persistent_id":"10083f2f6dd36d107803e00737ce504047fc51397b428436bba3eea29558a4c8","id":52738530,"location_subtype":"","month":"2016-10"},{"category":"robbery","location_type":"Force","location":{"latitude":"51.455419","street":{"id":942604,"name":"On or near Brixton Water Lane"},"longitude":"-0.116408"},"context":"","outcome_status":{"category":"Status update unavailable","date":"2017-02"},"persistent_id":"9de8748f29e6e63e7333e32731ecfecfecfeec35f91d561abe1d99b2d364b7fa","id":52744703,"location_subtype":"","month":"2016-10"},{"category":"vehicle-crime","location_type":"Force","location":{"latitude":"51.456114","street":{"id":942555,"name":"On or near Dray Gardens"},"longitude":"-0.117085"},"context":"","outcome_status":{"category":"Offender given community sentence","date":"2016-11"},"persistent_id":"da817bd333887f163c83908a3d1fc36e9b3d45ca3d357a71bbc425f2c9aff377","id":52731233,"location_subtype":"","month":"2016-10"},{"category":"vehicle-crime","location_type":"Force","location":{"latitude":"51.454053","street":{"id":942600,"name":"On or near Dewey Lane"},"longitude":"-0.113629"},"context":"","outcome_status":{"category":"Status update unavailable","date":"2017-02"},"persistent_id":"1a4582ef55d561b3f766715532879221903942a7e2688d50c7492d97838d3dd5","id":52685105,"location_subtype":"","month":"2016-10"},{"category":"vehicle-crime","location_type":"Force","location":{"latitude":"51.447603","street":{"id":939871,"name":"On or near Upper Tulse Hill"},"longitude":"-0.119623"},"context":"","outcome_status":{"category":"Status update unavailable","date":"2017-02"},"persistent_id":"2e52ea51f671032585a4713a6584136a62ea4567abc3f26a0df10ea8f7623b8b","id":52696993,"location_subtype":"","month":"2016-10"},{"category":"vehicle-crime","location_type":"Force","location":{"latitude":"51.444489","street":{"id":939822,"name":"On or near Upper Tulse Hill"},"longitude":"-0.115002"},"context":"","outcome_status":{"category":"Investigation complete; no suspect identified","date":"2016-10"},"persistent_id":"8e32b8136389999a5f8219a199f938604548bd17fe2aaed3279d71be6be7ad6e","id":52728671,"location_subtype":"","month":"2016-10"},{"category":"vehicle-crime","location_type":"Force","location":{"latitude":"51.449533","street":{"id":939858,"name":"On or near Medora Road"},"longitude":"-0.116636"},"context":"","outcome_status":{"category":"Status update unavailable","date":"2017-02"},"persistent_id":"95733f6d43958c37a080f6f6fa4939dd8eb315cfd023f3724a154e14d802a20e","id":52763546,"location_subtype":"","month":"2016-10"},{"category":"vehicle-crime","location_type":"Force","location":{"latitude":"51.449533","street":{"id":939858,"name":"On or near Medora Road"},"longitude":"-0.116636"},"context":"","outcome_status":{"category":"Status update unavailable","date":"2017-02"},"persistent_id":"8551536f5bbc26ba9bd51ff4808224fdd073e6d5f19470429f5489f335127cc4","id":52740672,"location_subtype":"","month":"2016-10"},{"category":"violent-crime","location_type":"Force","location":{"latitude":"51.451115","street":{"id":939913,"name":"On or near Endymion Road"},"longitude":"-0.119377"},"context":"","outcome_status":{"category":"Offender given a caution","date":"2016-11"},"persistent_id":"4fcc756a13c20bc93303eae4a92d7a5eb4f91d7b5ff05067f57765b07099d62d","id":52756259,"location_subtype":"","month":"2016-10"},{"category":"violent-crime","location_type":"Force","location":{"latitude":"51.454329","street":{"id":942601,"name":"On or near Cossar Mews"},"longitude":"-0.113474"},"context":"","outcome_status":{"category":"Investigation complete; no suspect identified","date":"2017-01"},"persistent_id":"25306fc6868079efcf079ccbeb0ebcc960b024a8998fba6d59d4b307bfc2b7af","id":52779062,"location_subtype":"","month":"2016-10"},{"category":"violent-crime","location_type":"Force","location":{"latitude":"51.455014","street":{"id":942606,"name":"On or near Arungford Mews"},"longitude":"-0.112985"},"context":"","outcome_status":{"category":"Investigation complete; no suspect identified","date":"2017-01"},"persistent_id":"f9c911302571ae18747e2c271a0a908e85118f6e6914eb21c55bec375b5b3793","id":52756696,"location_subtype":"","month":"2016-10"},{"category":"violent-crime","location_type":"Force","location":{"latitude":"51.448593","street":{"id":939864,"name":"On or near Craster Road"},"longitude":"-0.117452"},"context":"","outcome_status":{"category":"Investigation complete; no suspect identified","date":"2016-11"},"persistent_id":"a5e7b9e1f4eed316dd5fc8a4b0fb598e6c044bf2b22b488cc2727b3391c0998f","id":52723589,"location_subtype":"","month":"2016-10"},{"category":"violent-crime","location_type":"Force","location":{"latitude":"51.451830","street":{"id":939859,"name":"On or near Leander Road"},"longitude":"-0.115779"},"context":"","outcome_status":{"category":"Status update unavailable","date":"2017-02"},"persistent_id":"21168c559c8a6779c43cb77fa58fad64a0e5cbffa24f2870a83be09910295ac3","id":52756034,"location_subtype":"","month":"2016-10"},{"category":"violent-crime","location_type":"Force","location":{"latitude":"51.453890","street":{"id":942608,"name":"On or near Arlingford Road"},"longitude":"-0.112470"},"context":"","outcome_status":{"category":"Investigation complete; no suspect identified","date":"2016-10"},"persistent_id":"3eea6c967d5ea57cfda8e8696eeb8462c68d49841f5cf0b635981fb385e63077","id":52762348,"location_subtype":"","month":"2016-10"},{"category":"violent-crime","location_type":"Force","location":{"latitude":"51.457313","street":{"id":942523,"name":"On or near St Matthew's Road"},"longitude":"-0.116172"},"context":"","outcome_status":{"category":"Investigation complete; no suspect identified","date":"2016-12"},"persistent_id":"a253f1f5171a7e5e213b4f239d73b60941f9c10698ea8851b13dd9f93e73def8","id":52722307,"location_subtype":"","month":"2016-10"},{"category":"violent-crime","location_type":"Force","location":{"latitude":"51.453890","street":{"id":942608,"name":"On or near Arlingford Road"},"longitude":"-0.112470"},"context":"","outcome_status":{"category":"Investigation complete; no suspect identified","date":"2016-11"},"persistent_id":"abb9c11e53ea40a325ccb5649f57e1b0ed7bbd9a8921f578dcbf7137d62e3a73","id":52691332,"location_subtype":"","month":"2016-10"},{"category":"violent-crime","location_type":"Force","location":{"latitude":"51.455419","street":{"id":942604,"name":"On or near Brixton Water Lane"},"longitude":"-0.116408"},"context":"","outcome_status":{"category":"Offender given conditional discharge","date":"2017-08"},"persistent_id":"bf09091ee467a9ede9e0e93525f258d377ad8d3e38814edbb289f5e48e08f5dc","id":52775253,"location_subtype":"","month":"2016-10"},{"category":"violent-crime","location_type":"Force","location":{"latitude":"51.453890","street":{"id":942605,"name":"On or near Brailsford Road"},"longitude":"-0.112455"},"context":"","outcome_status":{"category":"Status update unavailable","date":"2017-02"},"persistent_id":"463d0d9992f10a5436cc1e706f4ae8393fc321b90a8184f4bebc548f87e86a16","id":52739151,"location_subtype":"","month":"2016-10"},{"category":"violent-crime","location_type":"Force","location":{"latitude":"51.455419","street":{"id":942604,"name":"On or near Brixton Water Lane"},"longitude":"-0.116408"},"context":"","outcome_status":{"category":"Offender given conditional discharge","date":"2017-08"},"persistent_id":"1fd8ec7bb0cf15248e2fcc874e022f5f40095ccf6474d84ee411e936889d8a47","id":52775599,"location_subtype":"","month":"2016-10"},{"category":"violent-crime","location_type":"Force","location":{"latitude":"51.454053","street":{"id":942600,"name":"On or near Dewey Lane"},"longitude":"-0.113629"},"context":"","outcome_status":{"category":"Investigation complete; no suspect identified","date":"2016-11"},"persistent_id":"5f7fef044c984f1b8ca396f21a0e0bb56a1c3d3b0059727596e01c7031e507ba","id":52696437,"location_subtype":"","month":"2016-10"},{"category":"violent-crime","location_type":"Force","location":{"latitude":"51.441524","street":{"id":939945,"name":"On or near Hardel Rise"},"longitude":"-0.108447"},"context":"","outcome_status":{"category":"Investigation complete; no suspect identified","date":"2016-11"},"persistent_id":"6fbe6811b201e7c93fc5923c64bf959e05c0ae77656c1a1b6787a24687017537","id":52696058,"location_subtype":"","month":"2016-10"},{"category":"violent-crime","location_type":"Force","location":{"latitude":"51.442789","street":{"id":939942,"name":"On or near High Trees"},"longitude":"-0.112179"},"context":"","outcome_status":{"category":"Investigation complete; no suspect identified","date":"2016-11"},"persistent_id":"8a21d08a48b4a7c92a0e58ffee58a13700705bdc4e8bf856a6483d622e3d4683","id":52691572,"location_subtype":"","month":"2016-10"},{"category":"violent-crime","location_type":"Force","location":{"latitude":"51.448593","street":{"id":939864,"name":"On or near Craster Road"},"longitude":"-0.117452"},"context":"","outcome_status":{"category":"Investigation complete; no suspect identified","date":"2017-06"},"persistent_id":"2cde98654505cbc093df2fd760ccde8d57ef0e010583a56287c70c54b5181762","id":52730261,"location_subtype":"","month":"2016-10"},{"category":"violent-crime","location_type":"Force","location":{"latitude":"51.457313","street":{"id":942523,"name":"On or near St Matthew's Road"},"longitude":"-0.116172"},"context":"","outcome_status":{"category":"Status update unavailable","date":"2017-02"},"persistent_id":"73f516046f23a65c081ab3cad1c957c5338dfd10b797ce5fb2faf346fbd12c7b","id":52690236,"location_subtype":"","month":"2016-10"},{"category":"violent-crime","location_type":"Force","location":{"latitude":"51.457313","street":{"id":942523,"name":"On or near St Matthew's Road"},"longitude":"-0.116172"},"context":"","outcome_status":{"category":"Investigation complete; no suspect identified","date":"2016-12"},"persistent_id":"73f516046f23a65c081ab3cad1c957c5338dfd10b797ce5fb2faf346fbd12c7b","id":52690238,"location_subtype":"","month":"2016-10"},{"category":"violent-crime","location_type":"Force","location":{"latitude":"51.446718","street":{"id":939839,"name":"On or near Hillworth Road"},"longitude":"-0.113845"},"context":"","outcome_status":{"category":"Investigation complete; no suspect identified","date":"2017-01"},"persistent_id":"9bf13ca95a45ee67d06426049393704f8d7fb4ef32cdbaa9f813a3a2ce5bd59b","id":52747570,"location_subtype":"","month":"2016-10"},{"category":"violent-crime","location_type":"Force","location":{"latitude":"51.449533","street":{"id":939858,"name":"On or near Medora Road"},"longitude":"-0.116636"},"context":"","outcome_status":{"category":"Investigation complete; no suspect identified","date":"2016-11"},"persistent_id":"d8e4127d27bb488777d3797d43fb3bdcc12521a6abe13aa812412c15ed2f8d4d","id":52775254,"location_subtype":"","month":"2016-10"},{"category":"violent-crime","location_type":"Force","location":{"latitude":"51.455419","street":{"id":942604,"name":"On or near Brixton Water Lane"},"longitude":"-0.116408"},"context":"","outcome_status":{"category":"Status update unavailable","date":"2017-02"},"persistent_id":"bf09091ee467a9ede9e0e93525f258d377ad8d3e38814edbb289f5e48e08f5dc","id":52775252,"location_subtype":"","month":"2016-10"},{"category":"violent-crime","location_type":"Force","location":{"latitude":"51.449010","street":{"id":939903,"name":"On or near Wimbart Road"},"longitude":"-0.119924"},"context":"","outcome_status":{"category":"Investigation complete; no suspect identified","date":"2017-06"},"persistent_id":"24d789ec08bc0cfe3319ee4ad8b76343856fb81df9cd22dae06839b573e544da","id":52759086,"location_subtype":"","month":"2016-10"},{"category":"violent-crime","location_type":"Force","location":{"latitude":"51.450631","street":{"id":939904,"name":"On or near Somers Road"},"longitude":"-0.121168"},"context":"","outcome_status":{"category":"Investigation complete; no suspect identified","date":"2016-11"},"persistent_id":"5ff243912dd7eb9b9124ad8dafab2670448e19c9b4708ea6901dc2effdd001a6","id":52728966,"location_subtype":"","month":"2016-10"},{"category":"violent-crime","location_type":"Force","location":{"latitude":"51.443684","street":{"id":939841,"name":"On or near Gaywood Close"},"longitude":"-0.115279"},"context":"","outcome_status":{"category":"Status update unavailable","date":"2017-02"},"persistent_id":"7544f9b42fb5a7a9aec8b43b54eff721be7407273ca00d36e8da075c5f025cd7","id":52776594,"location_subtype":"","month":"2016-10"},{"category":"violent-crime","location_type":"Force","location":{"latitude":"51.449533","street":{"id":939858,"name":"On or near Medora Road"},"longitude":"-0.116636"},"context":"","outcome_status":{"category":"Investigation complete; no suspect identified","date":"2018-05"},"persistent_id":"0fb29bd3a1de48db58d300d69545642d06fb9e7ef3651c80ddbb6b7896dae883","id":52755393,"location_subtype":"","month":"2016-10"},{"category":"violent-crime","location_type":"Force","location":{"latitude":"51.449533","street":{"id":939858,"name":"On or near Medora Road"},"longitude":"-0.116636"},"context":"","outcome_status":{"category":"Investigation complete; no suspect identified","date":"2016-11"},"persistent_id":"17deabc435baa1d8c90aeb381021bbba5692f256264fd80854ebd8d9d0a34e46","id":52775541,"location_subtype":"","month":"2016-10"},{"category":"violent-crime","location_type":"Force","location":{"latitude":"51.454052","street":{"id":942609,"name":"On or near Appach Road"},"longitude":"-0.115227"},"context":"","outcome_status":{"category":"Investigation complete; no suspect identified","date":"2016-10"},"persistent_id":"460254fe10555a0a968a97c90e533f4a40a40fd4b147ec91814534001f35d53d","id":52778088,"location_subtype":"","month":"2016-10"},{"category":"violent-crime","location_type":"Force","location":{"latitude":"51.449533","street":{"id":939858,"name":"On or near Medora Road"},"longitude":"-0.116636"},"context":"","outcome_status":{"category":"Status update unavailable","date":"2017-02"},"persistent_id":"0fb29bd3a1de48db58d300d69545642d06fb9e7ef3651c80ddbb6b7896dae883","id":52755392,"location_subtype":"","month":"2016-10"}]