[{"category":"anti-social-behaviour","location_type":"Force","location":{"latitude":"51.467909","street":{"id":944022,"name":"On or near Clare Road"},"longitude":"-0.381212"},"context":"","outcome_status":null,"persistent_id":"","id":52671900,"location_subtype":"","month":"2016-10"},{"category":"anti-social-behaviour","location_type":"Force","location":{"latitude":"51.469114","street":{"id":944020,"name":"On or near Corban Road"},"longitude":"-0.368946"},"context":"","outcome_status":null,"persistent_id":"","id":52671841,"location_subtype":"","month":"2016-10"},{"category":"anti-social-behaviour","location_type":"Force","location":{"latitude":"51.467543","street":{"id":943981,"name":"On or near Upton Road"},"longitude":"-0.369765"},"context":"","outcome_status":null,"persistent_id":"","id":52671840,"location_subtype":"","month":"2016-10"},{"category":"anti-social-behaviour","location_type":"Force","location":{"latitude":"51.472603","street":{"id":944476,"name":"On or near Bath Road"},"longitude":"-0.385178"},"context":"","outcome_status":null,"persistent_id":"","id":52672648,"location_subtype":"","month":"2016-10"},{"category":"anti-social-behaviour","location_type":"Force","location":{"latitude":"51.465083","street":{"id":944166,"name":"On or near Barrack Road"},"longitude":"-0.388913"},"context":"","outcome_status":null,"persistent_id":"","id":52672664,"location_subtype":"","month":"2016-10"},{"category":"anti-social-behaviour","location_type":"Force","location":{"latitude":"51.464171","street":{"id":944128,"name":"On or near Cardington Square"},"longitude":"-0.389967"},"context":"","outcome_status":null,"persistent_id":"","id":52672685,"location_subtype":"","month":"2016-10"},{"category":"anti-social-behaviour","location_type":"Force","location":{"latitude":"51.470323","street":{"id":944459,"name":"On or near Clifford Road"},"longitude":"-0.392631"},"context":"","outcome_status":null,"persistent_id":"","id":52672691,"location_subtype":"","month":"2016-10"},{"category":"anti-social-behaviour","location_type":"Force","location":{"latitude":"51.470323","street":{"id":944459,"name":"On or near Clifford Road"},"longitude":"-0.392631"},"context":"","outcome_status":null,"persistent_id":"","id":52672690,"location_subtype":"","month":"2016-10"},{"category":"anti-social-behaviour","location_type":"Force","location":{"latitude":"51.464171","street":{"id":944128,"name":"On or near Cardington Square"},"longitude":"-0.389967"},"context":"","outcome_status":null,"persistent_id":"","id":52672689,"location_subtype":"","month":"2016-10"},{"category":"anti-social-behaviour","location_type":"Force","location":{"latitude":"51.464171","street":{"id":944128,"name":"On or near Cardington Square"},"longitude":"-0.389967"},"context":"","outcome_status":null,"persistent_id":"","id":52672688,"location_subtype":"","month":"2016-10"},{"category":"anti-social-behaviour","location_type":"Force","location":{"latitude":"51.464171","street":{"id":944128,"name":"On or near Cardington Square"},"longitude":"-0.389967"},"context":"","outcome_status":null,"persistent_id":"","id":52672687,"location_subtype":"","month":"2016-10"},{"category":"anti-social-behaviour","location_type":"Force","location":{"latitude":"51.469661","street":{"id":944552,"name":"On or near Clipstone Road"},"longitude":"-0.370755"},"context":"","outcome_status":null,"persistent_id":"","id":52671855,"location_subtype":"","month":"2016-10"},{"category":"anti-social-behaviour","location_type":"Force","location":{"latitude":"51.469661","street":{"id":944552,"name":"On or near Clipstone Road"},"longitude":"-0.370755"},"context":"","outcome_status":null,"persistent_id":"","id":52671854,"location_subtype":"","month":"2016-10"},{"category":"anti-social-behaviour","location_type":"Force","location":{"latitude":"51.464171","street":{"id":944128,"name":"On or near Cardington Square"},"longitude":"-0.389967"},"context":"","outcome_status":null,"persistent_id":"","id":52672686,"location_subtype":"","month":"2016-10"},{"category":"anti-social-behaviour","location_type":"Force","location":{"latitude":"51.473069","street":{"id":944455,"name":"On or near Francis Road"},"longitude":"-0.390273"},"context":"","outcome_status":null,"persistent_id":"","id":52672682,"location_subtype":"","month":"2016-10"},{"category":"anti-social-behaviour","location_type":"Force","location":{"latitude":"51.472523","street":{"id":944467,"name":"On or near Vicarage Farm Road"},"longitude":"-0.387226"},"context":"","outcome_status":null,"persistent_id":"","id":52672661,"location_subtype":"","month":"2016-10"},{"category":"anti-social-behaviour","location_type":"Force","location":{"latitude":"51.465083","street":{"id":944166,"name":"On or near Barrack Road"},"longitude":"-0.388913"},"context":"","outcome_status":null,"persistent_id":"","id":52672665,"location_subtype":"","month":"2016-10"},{"category":"anti-social-behaviour","location_type":"Force","location":{"latitude":"51.466035","street":{"id":944162,"name":"On or near Charter Crescent"},"longitude":"-0.388145"},"context":"","outcome_status":null,"persistent_id":"","id":52672663,"location_subtype":"","month":"2016-10"},{"category":"anti-social-behaviour","location_type":"Force","location":{"latitude":"51.472523","street":{"id":944467,"name":"On or near Vicarage Farm Road"},"longitude":"-0.387226"},"context":"","outcome_status":null,"persistent_id":"","id":52672662,"location_subtype":"","month":"2016-10"},{"category":"anti-social-behaviour","location_type":"Force","location":{"latitude":"51.472523","street":{"id":944467,"name":"On or near Vicarage Farm Road"},"longitude":"-0.387226"},"context":"","outcome_status":null,"persistent_id":"","id":52672653,"location_subtype":"","month":"2016-10"},{"category":"anti-social-behaviour","location_type":"Force","location":{"latitude":"51.472523","street":{"id":944467,"name":"On or near Vicarage Farm Road"},"longitude":"-0.387226"},"context":"","outcome_status":null,"persistent_id":"","id":52672652,"location_subtype":"","month":"2016-10"},{"category":"anti-social-behaviour","location_type":"Force","location":{"latitude":"51.470471","street":{"id":944471,"name":"On or near Ravensdale Road"},"longitude":"-0.386405"},"context":"","outcome_status":null,"persistent_id":"","id":52672651,"location_subtype":"","month":"2016-10"},{"category":"anti-social-behaviour","location_type":"Force","location":{"latitude":"51.472603","street":{"id":944476,"name":"On or near Bath Road"},"longitude":"-0.385178"},"context":"","outcome_status":null,"persistent_id":"","id":52672647,"location_subtype":"","month":"2016-10"},{"category":"anti-social-behaviour","location_type":"Force","location":{"latitude":"51.472603","street":{"id":944476,"name":"On or near Bath Road"},"longitude":"-0.385178"},"context":"","outcome_status":null,"persistent_id":"","id":52672646,"location_subtype":"","month":"2016-10"},{"category":"anti-social-behaviour","location_type":"Force","location":{"latitude":"51.472319","street":{"id":944452,"name":"On or near Manor Avenue"},"longitude":"-0.391984"},"context":"","outcome_status":null,"persistent_id":"","id":52672694,"location_subtype":"","month":"2016-10"},{"category":"anti-social-behaviour","location_type":"Force","location":{"latitude":"51.464171","street":{"id":944128,"name":"On or near Cardington Square"},"longitude":"-0.389967"},"context":"","outcome_status":null,"persistent_id":"","id":52672684,"location_subtype":"","month":"2016-10"},{"category":"anti-social-behaviour","location_type":"Force","location":{"latitude":"51.464171","street":{"id":944128,"name":"On or near Cardington Square"},"longitude":"-0.389967"},"context":"","outcome_status":null,"persistent_id":"","id":52672683,"location_subtype":"","month":"2016-10"},{"category":"anti-social-behaviour","location_type":"Force","location":{"latitude":"51.466771","street":{"id":944163,"name":"On or near Cambridge Road"},"longitude":"-0.382188"},"context":"","outcome_status":null,"persistent_id":"","id":52671911,"location_subtype":"","month":"2016-10"},{"category":"anti-social-behaviour","location_type":"Force","location":{"latitude":"51.467909","street":{"id":944022,"name":"On or near Clare Road"},"longitude":"-0.381212"},"context":"","outcome_status":null,"persistent_id":"","id":52671901,"location_subtype":"","month":"2016-10"},{"category":"anti-social-behaviour","location_type":"Force","location":{"latitude":"51.471725","street":{"id":944548,"name":"On or near Sutton Lane"},"longitude":"-0.378240"},"context":"","outcome_status":null,"persistent_id":"","id":52671890,"location_subtype":"","month":"2016-10"},{"category":"anti-social-behaviour","location_type":"Force","location":{"latitude":"51.469445","street":{"id":944550,"name":"On or near Ede Close"},"longitude":"-0.377875"},"context":"","outcome_status":null,"persistent_id":"","id":52671887,"location_subtype":"","month":"2016-10"},{"category":"anti-social-behaviour","location_type":"Force","location":{"latitude":"51.466844","street":{"id":943994,"name":"On or near Old Farm Close"},"longitude":"-0.377679"},"context":"","outcome_status":null,"persistent_id":"","id":52671882,"location_subtype":"","month":"2016-10"},{"category":"anti-social-behaviour","location_type":"Force","location":{"latitude":"51.466844","street":{"id":943994,"name":"On or near Old Farm Close"},"longitude":"-0.377679"},"context":"","outcome_status":null,"persistent_id":"","id":52671881,"location_subtype":"","month":"2016-10"},{"category":"anti-social-behaviour","location_type":"Force","location":{"latitude":"51.470923","street":{"id":944551,"name":"On or near Dene Avenue"},"longitude":"-0.376181"},"context":"","outcome_status":null,"persistent_id":"","id":52671877,"location_subtype":"","month":"2016-10"},{"category":"anti-social-behaviour","location_type":"Force","location":{"latitude":"51.467764","street":{"id":944006,"name":"On or near Hospital Road"},"longitude":"-0.371412"},"context":"","outcome_status":null,"persistent_id":"","id":52671858,"location_subtype":"","month":"2016-10"},{"category":"anti-social-behaviour","location_type":"Force","location":{"latitude":"51.467764","street":{"id":944006,"name":"On or near Hospital Road"},"longitude":"-0.371412"},"context":"","outcome_status":null,"persistent_id":"","id":52671857,"location_subtype":"","month":"2016-10"},{"category":"anti-social-behaviour","location_type":"Force","location":{"latitude":"51.469114","street":{"id":944020,"name":"On or near Corban Road"},"longitude":"-0.368946"},"context":"","outcome_status":null,"persistent_id":"","id":52671844,"location_subtype":"","month":"2016-10"},{"category":"anti-social-behaviour","location_type":"Force","location":{"latitude":"51.469114","street":{"id":944020,"name":"On or near Corban Road"},"longitude":"-0.368946"},"context":"","outcome_status":null,"persistent_id":"","id":52671843,"location_subtype":"","month":"2016-10"},{"category":"anti-social-behaviour","location_type":"Force","location":{"latitude":"51.469114","street":{"id":944020,"name":"On or near Corban Road"},"longitude":"-0.368946"},"context":"","outcome_status":null,"persistent_id":"","id":52671842,"location_subtype":"","month":"2016-10"},{"category":"bicycle-theft","location_type":"Force","location":{"latitude":"51.470923","street":{"id":944551,"name":"On or near Dene Avenue"},"longitude":"-0.376181"},"context":"","outcome_status":{"category":"Status update unavailable","date":"2017-02"},"persistent_id":"3117bb1c478931f7410c9de38816ad4821f11b75e0f0143222141778c2057c3d","id":52758970,"location_subtype":"","month":"2016-10"},{"category":"bicycle-theft","location_type":"Force","location":{"latitude":"51.466844","street":{"id":943994,"name":"On or near Old Farm Close"},"longitude":"-0.377679"},"context":"","outcome_status":{"category":"Status update unavailable","date":"2017-02"},"persistent_id":"a0fa8e3b9995f7bccde1fa7f7e53505d9baf7bb640edff965679ffbf1ba5e39e","id":52766310,"location_subtype":"","month":"2016-10"},{"category":"burglary","location_type":"Force","location":{"latitude":"51.468105","street":{"id":944148,"name":"On or near Martindale Road"},"longitude":"-0.386345"},"context":"","outcome_status":{"category":"Status update unavailable","date":"2017-02"},"persistent_id":"74627509c35e0db7e9203ce72ed2785a3163f938d91cd0b402e0f2b3e19a90f5","id":52752003,"location_subtype":"","month":"2016-10"},{"category":"burglary","location_type":"Force","location":{"latitude":"51.470923","street":{"id":944551,"name":"On or near Dene Avenue"},"longitude":"-0.376181"},"context":"","outcome_status":{"category":"Investigation complete; no suspect identified","date":"2016-10"},"persistent_id":"3c4f4c11a4d6f2b18044202cf89058b950fc5aedf02e8b86a02cd5a405138488","id":52748370,"location_subtype":"","month":"2016-10"},{"category":"burglary","location_type":"Force","location":{"latitude":"51.467192","street":{"id":944129,"name":"On or near Beavers Lane"},"longitude":"-0.390567"},"context":"","outcome_status":{"category":"Investigation complete; no suspect identified","date":"2016-12"},"persistent_id":"f8661fb260c4047803c60299ef8d20c3d11859e3c02c40b5afdec9252ce20df3","id":52756203,"location_subtype":"","month":"2016-10"},{"category":"criminal-damage-arson","location_type":"Force","location":{"latitude":"51.469114","street":{"id":944020,"name":"On or near Corban Road"},"longitude":"-0.368946"},"context":"","outcome_status":{"category":"Status update unavailable","date":"2017-02"},"persistent_id":"d551fab950d97c493b090a95f7bfd2068c2cce319880ece3e9955496aeda1610","id":52682736,"location_subtype":"","month":"2016-10"},{"category":"criminal-damage-arson","location_type":"Force","location":{"latitude":"51.473476","street":{"id":944407,"name":"On or near Bath Road"},"longitude":"-0.387811"},"context":"","outcome_status":{"category":"Court case unable to proceed","date":"2016-11"},"persistent_id":"401f647e3b87404460ef785e591203a6278d0fed8fc814f3a2b505e9a78b9163","id":52752401,"location_subtype":"","month":"2016-10"},{"category":"criminal-damage-arson","location_type":"Force","location":{"latitude":"51.467909","street":{"id":944022,"name":"On or near Clare Road"},"longitude":"-0.381212"},"context":"","outcome_status":{"category":"Investigation complete; no suspect identified","date":"2016-10"},"persistent_id":"d83cafeebd9326d6f66d96b0b709d869873723e82887f39e34795fffed4c889d","id":52726511,"location_subtype":"","month":"2016-10"},{"category":"criminal-damage-arson","location_type":"Force","location":{"latitude":"51.469793","street":{"id":944554,"name":"On or near Bulstrode Road"},"longitude":"-0.369915"},"context":"","outcome_status":{"category":"Investigation complete; no suspect identified","date":"2016-11"},"persistent_id":"2d2357cf864f712ad0d9002cd34c6e9f6f5531521670e070c181d84de0389b45","id":52766274,"location_subtype":"","month":"2016-10"},{"category":"drugs","location_type":"Force","location":{"latitude":"51.473821","street":{"id":944413,"name":"On or near Parking Area"},"longitude":"-0.389397"},"context":"","outcome_status":{"category":"Status update unavailable","date":"2017-02"},"persistent_id":"a205ee53a1b777fc534b8bd77efbf16c9e384915cfaee8876aac8d78ce381218","id":52749244,"location_subtype":"","month":"2016-10"},{"category":"drugs","location_type":"Force","location":{"latitude":"51.468674","street":{"id":944059,"name":"On or near Lampton Road"},"longitude":"-0.366370"},"context":"","outcome_status":{"category":"Court result unavailable","date":"2017-04"},"persistent_id":"165fea94df2e169cc19039ce9113d2a0cc21636b34bf5672f33094b9294b7c85","id":52752747,"location_subtype":"","month":"2016-10"},{"category":"drugs","location_type":"Force","location":{"latitude":"51.473821","street":{"id":944413,"name":"On or near Parking Area"},"longitude":"-0.389397"},"context":"","outcome_status":{"category":"Offender fined","date":"2016-10"},"persistent_id":"a205ee53a1b777fc534b8bd77efbf16c9e384915cfaee8876aac8d78ce381218","id":52749245,"location_subtype":"","month":"2016-10"},{"category":"drugs","location_type":"Force","location":{"latitude":"51.473069","street":{"id":944455,"name":"On or near Francis Road"},"longitude":"-0.390273"},"context":"","outcome_status":{"category":"Offender fined","date":"2016-10"},"persistent_id":"dfd0473dae20c97ef2815f2843fa3bcbb4b45daf6fea485cf823f65efe3b77c7","id":52755285,"location_subtype":"","month":"2016-10"},{"category":"other-theft","location_type":"Force","location":{"latitude":"51.468444","street":{"id":943983,"name":"On or near Strafford Road"},"longitude":"-0.376370"},"context":"","outcome_status":{"category":"Status update unavailable","date":"2017-02"},"persistent_id":"7489157e469d8f0c30b788e31374ce248ad2e8be126348fbc0dd68fb673f51ca","id":52777285,"location_subtype":"","month":"2016-10"},{"category":"other-theft","location_type":"Force","location":{"latitude":"51.468809","street":{"id":944058,"name":"On or near Lampton Road"},"longitude":"-0.366422"},"context":"","outcome_status":{"category":"Investigation complete; no suspect identified","date":"2017-01"},"persistent_id":"36bca8d8ede897feef4a5bf474b9e15fd1c4f86f98b9cec8a56d5782cd598725","id":52716806,"location_subtype":"","month":"2016-10"},{"category":"other-theft","location_type":"Force","location":{"latitude":"51.470075","street":{"id":944567,"name":"On or near Lampton Road"},"longitude":"-0.366881"},"context":"","outcome_status":{"category":"Investigation complete; no suspect identified","date":"2016-12"},"persistent_id":"dd59155b7ee014c8183b5991b687a6eec64e89a9d5d74e390accd9bef8178b5c","id":52755895,"location_subtype":"","month":"2016-10"},{"category":"other-theft","location_type":"Force","location":{"latitude":"51.467543","street":{"id":943981,"name":"On or near Upton Road"},"longitude":"-0.369765"},"context":"","outcome_status":{"category":"Investigation complete; no suspect identified","date":"2016-12"},"persistent_id":"c17ac5aa6ca59e7119921b18503359d01cb8a6f623db81660f0da3043533ca34","id":52757569,"location_subtype":"","month":"2016-10"},{"category":"other-theft","location_type":"Force","location":{"latitude":"51.468674","street":{"id":944059,"name":"On or near Lampton Road"},"longitude":"-0.366370"},"context":"","outcome_status":{"category":"Investigation complete; no suspect identified","date":"2017-02"},"persistent_id":"b4beb02e889ff4dd829e30177e034bddbf28da37a547a5a11b7b8b398632ab01","id":52751673,"location_subtype":"","month":"2016-10"},{"category":"other-theft","location_type":"Force","location":{"latitude":"51.472603","street":{"id":944476,"name":"On or near Bath Road"},"longitude":"-0.385178"},"context":"","outcome_status":{"category":"Investigation complete; no suspect identified","date":"2017-05"},"persistent_id":"b0be906790487c64ac3952c6e38500ac03257509fb11aba0be238e89dec12746","id":52716886,"location_subtype":"","month":"2016-10"},{"category":"other-theft","location_type":"Force","location":{"latitude":"51.468444","street":{"id":943983,"name":"On or near Strafford Road"},"longitude":"-0.376370"},"context":"","outcome_status":{"category":"Status update unavailable","date":"2017-02"},"persistent_id":"abe8c2663a2898ac7a9d59452b8720e8ad32ca6637370017895710c7e10b9dad","id":52688474,"location_subtype":"","month":"2016-10"},{"category":"other-theft","location_type":"Force","location":{"latitude":"51.468444","street":{"id":943983,"name":"On or near Strafford Road"},"longitude":"-0.376370"},"context":"","outcome_status":{"category":"Investigation complete; no suspect identified","date":"2016-10"},"persistent_id":"83a025f8595025ea878e011a52d4eb105da7ed385d659e970ecfc4f097245163","id":52771404,"location_subtype":"","month":"2016-10"},{"category":"other-theft","location_type":"Force","location":{"latitude":"51.466806","street":{"id":944144,"name":"On or near Selwyn Close"},"longitude":"-0.383439"},"context":"","outcome_status":{"category":"Investigation complete; no suspect identified","date":"2016-11"},"persistent_id":"d821523e85e4a99a511d3f8b7d70c9dfe6628be0baaeb9b77bdd504c7821ae5a","id":52736118,"location_subtype":"","month":"2016-10"},{"category":"other-theft","location_type":"Force","location":{"latitude":"51.472127","street":{"id":944470,"name":"On or near Siddeley Drive"},"longitude":"-0.385181"},"context":"","outcome_status":{"category":"Investigation complete; no suspect identified","date":"2016-12"},"persistent_id":"d422e16e5255a69396a96a2520de3c9d4d4646779b45e8c09b267158206d6d00","id":52689950,"location_subtype":"","month":"2016-10"},{"category":"other-theft","location_type":"Force","location":{"latitude":"51.469015","street":{"id":944141,"name":"On or near Standard Road"},"longitude":"-0.381864"},"context":"","outcome_status":{"category":"Status update unavailable","date":"2017-02"},"persistent_id":"98b7a6cecfd5d238e97948bce9dd894d7e9a1e895b982d94dd48914507c699dd","id":52774919,"location_subtype":"","month":"2016-10"},{"category":"other-theft","location_type":"Force","location":{"latitude":"51.468444","street":{"id":943983,"name":"On or near Strafford Road"},"longitude":"-0.376370"},"context":"","outcome_status":{"category":"Investigation complete; no suspect identified","date":"2016-10"},"persistent_id":"ccd3e4a14403d2c5a91090fd0d9b8fc0c69c85f54e86619b4ad3b8f873c1f7d5","id":52702424,"location_subtype":"","month":"2016-10"},{"category":"other-theft","location_type":"Force","location":{"latitude":"51.468674","street":{"id":944059,"name":"On or near Lampton Road"},"longitude":"-0.366370"},"context":"","outcome_status":{"category":"Investigation complete; no suspect identified","date":"2016-11"},"persistent_id":"c01e80f1777112e09f2ec525581ccf545d434a34e9196e06b5b49016dda2fab6","id":52703787,"location_subtype":"","month":"2016-10"},{"category":"other-theft","location_type":"Force","location":{"latitude":"51.468444","street":{"id":943983,"name":"On or near Strafford Road"},"longitude":"-0.376370"},"context":"","outcome_status":{"category":"Investigation complete; no suspect identified","date":"2016-11"},"persistent_id":"90c79060e989e58111f0cfae39d87299f92a99b138458190c1e3514767e34b97","id":52758446,"location_subtype":"","month":"2016-10"},{"category":"other-theft","location_type":"Force","location":{"latitude":"51.468444","street":{"id":943983,"name":"On or near Strafford Road"},"longitude":"-0.376370"},"context":"","outcome_status":{"category":"Investigation complete; no suspect identified","date":"2016-10"},"persistent_id":"d4b060bf00eca0de0ea33f66eb8c48aeda47e93f90d6ccb8cf037b83c000c227","id":52715364,"location_subtype":"","month":"2016-10"},{"category":"other-theft","location_type":"Force","location":{"latitude":"51.468444","street":{"id":943983,"name":"On or near Strafford Road"},"longitude":"-0.376370"},"context":"","outcome_status":{"category":"Offender given a caution","date":"2016-10"},"persistent_id":"4ce1baf33753175fbaaaaa0675765bd677a60bc4e81804a8c398fe49183ba01f","id":52760048,"location_subtype":"","month":"2016-10"},{"category":"possession-of-weapons","location_type":"Force","location":{"latitude":"51.473821","street":{"id":944413,"name":"On or near Parking Area"},"longitude":"-0.389397"},"context":"","outcome_status":{"category":"Court result unavailable","date":"2017-04"},"persistent_id":"10a38138f5dc0d4a4cdfed4399865ded73d16a56e85099a26bf38a938de0375f","id":52745947,"location_subtype":"","month":"2016-10"},{"category":"public-order","location_type":"Force","location":{"latitude":"51.468674","street":{"id":944059,"name":"On or near Lampton Road"},"longitude":"-0.366370"},"context":"","outcome_status":{"category":"Court case unable to proceed","date":"2017-07"},"persistent_id":"eb92ce7f61fa364e6d327d319526c20b4969200720e3ad65fcfb88c0c059ad85","id":52756866,"location_subtype":"","month":"2016-10"},{"category":"public-order","location_type":"Force","location":{"latitude":"51.467909","street":{"id":944022,"name":"On or near Clare Road"},"longitude":"-0.381212"},"context":"","outcome_status":{"category":"Court result unavailable","date":"2017-04"},"persistent_id":"0e1e9be494c62523f9f08fef2f15a5d21fadab316c09c50078e0b6ac5b606252","id":52765944,"location_subtype":"","month":"2016-10"},{"category":"public-order","location_type":"Force","location":{"latitude":"51.468444","street":{"id":943983,"name":"On or near Strafford Road"},"longitude":"-0.376370"},"context":"","outcome_status":{"category":"Investigation complete; no suspect identified","date":"2016-11"},"persistent_id":"1e93f1c0b89798e3a5245e11e969ad7acaa42ce858e67771ff8359612a7d3445","id":52706422,"location_subtype":"","month":"2016-10"},{"category":"public-order","location_type":"Force","location":{"latitude":"51.469793","street":{"id":944554,"name":"On or near Bulstrode Road"},"longitude":"-0.369915"},"context":"","outcome_status":{"category":"Investigation complete; no suspect identified","date":"2016-10"},"persistent_id":"ec586158a1d586a167e42ef1e6220969ed4bf5c0ac0829fcd64977bb99e5836e","id":52730905,"location_subtype":"","month":"2016-10"},{"category":"public-order","location_type":"Force","location":{"latitude":"51.466844","street":{"id":943994,"name":"On or near Old Farm Close"},"longitude":"-0.377679"},"context":"","outcome_status":{"category":"Investigation complete; no suspect identified","date":"2016-12"},"persistent_id":"fcc9dd151025ff7af3516e6195f28a1a6e879632870c0676c088994bc95ddec4","id":52689844,"location_subtype":"","month":"2016-10"},{"category":"public-order","location_type":"Force","location":{"latitude":"51.468674","street":{"id":944059,"name":"On or near Lampton Road"},"longitude":"-0.366370"},"context":"","outcome_status":{"category":"Investigation complete; no suspect identified","date":"2016-11"},"persistent_id":"9f539d2d3ccf0d0502bf7ae31b7e90b0e86f98b87f82e1b467ec0e1d7c474318","id":52705216,"location_subtype":"","month":"2016-10"},{"category":"public-order","location_type":"Force","location":{"latitude":"51.467543","street":{"id":943981,"name":"On or near Upton Road"},"longitude":"-0.369765"},"context":"","outcome_status":{"category":"Status update unavailable","date":"2017-02"},"persistent_id":"fb97d4bd3cec1ed8a2e0d8f5a22dd14848acfda39f458b4f69c4ce2b3a2846ff","id":52758212,"location_subtype":"","month":"2016-10"},{"category":"robbery","location_type":"Force","location":{"latitude":"51.469661","street":{"id":944552,"name":"On or near Clipstone Road"},"longitude":"-0.370755"},"context":"","outcome_status":{"category":"Investigation complete; no suspect identified","date":"2016-12"},"persistent_id":"450c54a39322f00e0e83b6bf42c90ec2af878fc092d42f1093ebc20155294998","id":52757516,"location_subtype":"","month":"2016-10"},{"category":"robbery","location_type":"Force","location":{"latitude":"51.473821","street":{"id":944413,"name":"On or near Parking Area"},"longitude":"-0.389397"},"context":"","outcome_status":{"category":"Investigation complete; no suspect identified","date":"2016-12"},"persistent_id":"426c09cb2f0fd0ee17daae88c05cda44f0ad503c53ed27d11ac2634555777b0e","id":52732887,"location_subtype":"","month":"2016-10"},{"category":"robbery","location_type":"Force","location":{"latitude":"51.469793","street":{"id":944554,"name":"On or near Bulstrode Road"},"longitude":"-0.369915"},"context":"","outcome_status":{"category":"Status update unavailable","date":"2017-02"},"persistent_id":"1ec0fa5c6347f91f70242f186bb0a56a1968ce715dc446831c757bc25e2a2234","id":52756291,"location_subtype":"","month":"2016-10"},{"category":"robbery","location_type":"Force","location":{"latitude":"51.472603","street":{"id":944476,"name":"On or near Bath Road"},"longitude":"-0.385178"},"context":"","outcome_status":{"category":"Investigation complete; no suspect identified","date":"2016-11"},"persistent_id":"784e9c3424c4767db5fef5c236fabd29208ae33f72310e378b2e8b0f98ab9f90","id":52733064,"location_subtype":"","month":"2016-10"},{"category":"robbery","location_type":"Force","location":{"latitude":"51.466844","street":{"id":943994,"name":"On or near Old Farm Close"},"longitude":"-0.377679"},"context":"","outcome_status":{"category":"Investigation complete; no suspect identified","date":"2017-06"},"persistent_id":"9fecf2e3f424520f0aedd20f718c7f30129193f5515f04528a604e3799335b12","id":52697991,"location_subtype":"","month":"2016-10"},{"category":"robbery","location_type":"Force","location":{"latitude":"51.467094","street":{"id":943982,"name":"On or near Toad Lane"},"longitude":"-0.378865"},"context":"","outcome_status":{"category":"Investigation complete; no suspect identified","date":"2016-12"},"persistent_id":"61a2fc431d53ee3cdb18e859a1d6e92995e6888fec363586e3cabf46b86d1f32","id":52777813,"location_subtype":"","month":"2016-10"},{"category":"shoplifting","location_type":"Force","location":{"latitude":"51.468674","street":{"id":944059,"name":"On or near Lampton Road"},"longitude":"-0.366370"},"context":"","outcome_status":{"category":"Court result unavailable","date":"2017-04"},"persistent_id":"6bc6927149e81284319253bdf85c8baf938b95beca73893206426f760f0f1059","id":52752778,"location_subtype":"","month":"2016-10"},{"category":"shoplifting","location_type":"Force","location":{"latitude":"51.468674","street":{"id":944059,"name":"On or near Lampton Road"},"longitude":"-0.366370"},"context":"","outcome_status":{"category":"Status update unavailable","date":"2017-02"},"persistent_id":"be8695ee67061d97b189ddc481b954e0a9e54de52a4810da3f9e8d700712a62e","id":52744470,"location_subtype":"","month":"2016-10"},{"category":"shoplifting","location_type":"Force","location":{"latitude":"51.468674","street":{"id":944059,"name":"On or near Lampton Road"},"longitude":"-0.366370"},"context":"","outcome_status":{"category":"Offender given penalty notice","date":"2016-10"},"persistent_id":"274544c35079651e569cd3d8bcd25d89b35ea2429551023f36d74ff85025687d","id":52733940,"location_subtype":"","month":"2016-10"},{"category":"shoplifting","location_type":"Force","location":{"latitude":"51.467764","street":{"id":944006,"name":"On or near Hospital Road"},"longitude":"-0.371412"},"context":"","outcome_status":{"category":"Status update unavailable","date":"2017-02"},"persistent_id":"fb388b14c32c2020884f7a284432ffa221026fb22c03383320bf2ade34f7bdd7","id":52755890,"location_subtype":"","month":"2016-10"},{"category":"shoplifting","location_type":"Force","location":{"latitude":"51.467764","street":{"id":944006,"name":"On or near Hospital Road"},"longitude":"-0.371412"},"context":"","outcome_status":{"category":"Investigation complete; no suspect identified","date":"2016-10"},"persistent_id":"7408f7c945b77876aa99de5bbb325357d79e431b06e84f1412c12bec06bdf9e0","id":52752682,"location_subtype":"","month":"2016-10"},{"category":"shoplifting","location_type":"Force","location":{"latitude":"51.468674","street":{"id":944059,"name":"On or near Lampton Road"},"longitude":"-0.366370"},"context":"","outcome_status":{"category":"Offender given penalty notice","date":"2016-10"},"persistent_id":"ef772076f0b5656302d2f6d2e0d3ddcb431c8c764a001c560983dc2a1b1f2e07","id":52724164,"location_subtype":"","month":"2016-10"},{"category":"shoplifting","location_type":"Force","location":{"latitude":"51.468674","street":{"id":944059,"name":"On or near Lampton Road"},"longitude":"-0.366370"},"context":"","outcome_status":{"category":"Status update unavailable","date":"2017-02"},"persistent_id":"083dd39dca77d0c4fb984cd36c4393b5be6592b210cbd343a8a75cab20179a67","id":52721969,"location_subtype":"","month":"2016-10"},{"category":"shoplifting","location_type":"Force","location":{"latitude":"51.468674","street":{"id":944059,"name":"On or near Lampton Road"},"longitude":"-0.366370"},"context":"","outcome_status":{"category":"Investigation complete; no suspect identified","date":"2016-11"},"persistent_id":"5d4cdcc8275b77057d4a511b723780384fe378e079204994e5849e026c819ecb","id":52706493,"location_subtype":"","month":"2016-10"},{"category":"shoplifting","location_type":"Force","location":{"latitude":"51.468674","street":{"id":944059,"name":"On or near Lampton Road"},"longitude":"-0.366370"},"context":"","outcome_status":{"category":"Investigation complete; no suspect identified","date":"2016-10"},"persistent_id":"bc92f4c650bc6f556dba5241211d948f130d8e19149d729e564c20eb7a2b99e3","id":52696184,"location_subtype":"","month":"2016-10"},{"category":"shoplifting","location_type":"Force","location":{"latitude":"51.468674","street":{"id":944059,"name":"On or near Lampton Road"},"longitude":"-0.366370"},"context":"","outcome_status":{"category":"Offender given a caution","date":"2016-10"},"persistent_id":"1267dedcad0d1dda6ca23c7a871499588d23c10bd33064e5ca2e316e68fedbc5","id":52756991,"location_subtype":"","month":"2016-10"},{"category":"shoplifting","location_type":"Force","location":{"latitude":"51.468674","street":{"id":944059,"name":"On or near Lampton Road"},"longitude":"-0.366370"},"context":"","outcome_status":{"category":"Offender given penalty notice","date":"2016-10"},"persistent_id":"b1dd234b8554292984ff08dad581b457174d43b17f8713ce45cfe5df7ccf88a3","id":52679345,"location_subtype":"","month":"2016-10"},{"category":"shoplifting","location_type":"Force","location":{"latitude":"51.468674","street":{"id":944059,"name":"On or near Lampton Road"},"longitude":"-0.366370"},"context":"","outcome_status":{"category":"Offender given suspended prison sentence","date":"2016-10"},"persistent_id":"6b93e2eeaedf68b460df4708d130ff84d22f1c8e67f635ab32eedadac215fbd8","id":52718852,"location_subtype":"","month":"2016-10"},{"category":"theft-from-the-person","location_type":"Force","location":{"latitude":"51.470948","street":{"id":944474,"name":"On or near Dale Avenue"},"longitude":"-0.383854"},"context":"","outcome_status":{"category":"Investigation complete; no suspect identified","date":"2016-11"},"persistent_id":"0dd6d43ffb35450a0fd7d554034c632cf4be5278f5a4d5f5cd61a2bd531c7a2c","id":52765335,"location_subtype":"","month":"2016-10"},{"category":"theft-from-the-person","location_type":"Force","location":{"latitude":"51.472127","street":{"id":944470,"name":"On or near Siddeley Drive"},"longitude":"-0.385181"},"context":"","outcome_status":{"category":"Investigation complete; no suspect identified","date":"2016-12"},"persistent_id":"39b21dafceb1dc5f5b8e415ab8767998fa69bac97d25d3f5d05f10286b9c0836","id":52709943,"location_subtype":"","month":"2016-10"},{"category":"theft-from-the-person","location_type":"Force","location":{"latitude":"51.470948","street":{"id":944474,"name":"On or near Dale Avenue"},"longitude":"-0.383854"},"context":"","outcome_status":{"category":"Investigation complete; no suspect identified","date":"2016-10"},"persistent_id":"efd7da183f1ff19d326b697a97cddb2ee68e8fd035b86ff0335f620b208133f0","id":52723499,"location_subtype":"","month":"2016-10"},{"category":"vehicle-crime","location_type":"Force","location":{"latitude":"51.469934","street":{"id":944472,"name":"On or near Ferndale Avenue"},"longitude":"-0.383948"},"context":"","outcome_status":{"category":"Status update unavailable","date":"2017-02"},"persistent_id":"c116a15aed95da560b1162666573ecb8216e0b42540cab3cc50cda5fb8384007","id":52773222,"location_subtype":"","month":"2016-10"},{"category":"vehicle-crime","location_type":"Force","location":{"latitude":"51.473476","street":{"id":944407,"name":"On or near Bath Road"},"longitude":"-0.387811"},"context":"","outcome_status":{"category":"Status update unavailable","date":"2017-02"},"persistent_id":"0b51b624d0886a69822281a762d36a493969d4d1e61b02725bac355f3dbc1f10","id":52772572,"location_subtype":"","month":"2016-10"},{"category":"vehicle-crime","location_type":"Force","location":{"latitude":"51.469661","street":{"id":944552,"name":"On or near Clipstone Road"},"longitude":"-0.370755"},"context":"","outcome_status":{"category":"Status update unavailable","date":"2017-02"},"persistent_id":"0f6f6b981a1f5b52aa75e01d61f48d618066fda61387499bb6d3ecf8eb52ea6c","id":52694365,"location_subtype":"","month":"2016-10"},{"category":"vehicle-crime","location_type":"Force","location":{"latitude":"51.472127","street":{"id":944470,"name":"On or near Siddeley Drive"},"longitude":"-0.385181"},"context":"","outcome_status":{"category":"Status update unavailable","date":"2017-02"},"persistent_id":"345d480fa9267b22103454318f77304e36ff1f0b5526afbbc43af7697d980942","id":52752949,"location_subtype":"","month":"2016-10"},{"category":"vehicle-crime","location_type":"Force","location":{"latitude":"51.466771","street":{"id":944163,"name":"On or near Cambridge Road"},"longitude":"-0.382188"},"context":"","outcome_status":{"category":"Investigation complete; no suspect identified","date":"2016-12"},"persistent_id":"fb8b26eba9f1fd6c0dbf2fea7488d9e31f605b67499139eddac89cba57b172af","id":52681934,"location_subtype":"","month":"2016-10"},{"category":"vehicle-crime","location_type":"Force","location":{"latitude":"51.465811","street":{"id":944160,"name":"On or near Corporation Avenue"},"longitude":"-0.387577"},"context":"","outcome_status":{"category":"Status update unavailable","date":"2017-02"},"persistent_id":"a21d593f90fe66f5ffdb353296d13ce7cfc64d0a033da1dec4cbea6423d2515b","id":52730216,"location_subtype":"","month":"2016-10"},{"category":"vehicle-crime","location_type":"Force","location":{"latitude":"51.469661","street":{"id":944552,"name":"On or near Clipstone Road"},"longitude":"-0.370755"},"context":"","outcome_status":{"category":"Status update unavailable","date":"2017-02"},"persistent_id":"69b4e35f2ccdef56474c3e9a04d75d4238e2e09e6bde518e338f707dfd621948","id":52731354,"location_subtype":"","month":"2016-10"},{"category":"violent-crime","location_type":"Force","location":{"latitude":"51.473476","street":{"id":944407,"name":"On or near Bath Road"},"longitude":"-0.387811"},"context":"","outcome_status":{"category":"Investigation complete; no suspect identified","date":"2016-12"},"persistent_id":"a13dd11a111dbd411e7bf8f7d8fefc89d66666ee85c7901b234c1b02846ea368","id":52734508,"location_subtype":"","month":"2016-10"},{"category":"violent-crime","location_type":"Force","location":{"latitude":"51.469793","street":{"id":944554,"name":"On or near Bulstrode Road"},"longitude":"-0.369915"},"context":"","outcome_status":{"category":"Investigation complete; no suspect identified","date":"2016-11"},"persistent_id":"79dbf2187db7108774280e3e65f80d4eb47c2bf90ae85c78744ac6729c87c027","id":52684259,"location_subtype":"","month":"2016-10"},{"category":"violent-crime","location_type":"Force","location":{"latitude":"51.470802","street":{"id":944556,"name":"On or near Bulstrode Avenue"},"longitude":"-0.372629"},"context":"","outcome_status":{"category":"Court result unavailable","date":"2017-04"},"persistent_id":"87760d9167a99cde919ca5cd93a3fd8d1d9c62279080d146d9f32e9e6f612b2b","id":52679256,"location_subtype":"","month":"2016-10"},{"category":"violent-crime","location_type":"Force","location":{"latitude":"51.470391","street":{"id":944555,"name":"On or near Bulstrode Gardens"},"longitude":"-0.374141"},"context":"","outcome_status":{"category":"Investigation complete; no suspect identified","date":"2016-12"},"persistent_id":"95221eb6da647e63b7c95e3c91ea70fad249deaffb7228d8575984e2b9a38049","id":52696981,"location_subtype":"","month":"2016-10"},{"category":"violent-crime","location_type":"Force","location":{"latitude":"51.473821","street":{"id":944413,"name":"On or near Parking Area"},"longitude":"-0.389397"},"context":"","outcome_status":{"category":"Status update unavailable","date":"2017-02"},"persistent_id":"2af1e44956319b58e70178fcade586865d29e2e591938f9eaea6094b35dc28d2","id":52740480,"location_subtype":"","month":"2016-10"},{"category":"violent-crime","location_type":"Force","location":{"latitude":"51.466844","street":{"id":943994,"name":"On or near Old Farm Close"},"longitude":"-0.377679"},"context":"","outcome_status":{"category":"Investigation complete; no suspect identified","date":"2016-12"},"persistent_id":"af40344da854603d36081767e497096e29a9d105f7fd102eef57861f468e73f2","id":52752048,"location_subtype":"","month":"2016-10"},{"category":"violent-crime","location_type":"Force","location":{"latitude":"51.467192","street":{"id":944129,"name":"On or near Beavers Lane"},"longitude":"-0.390567"},"context":"","outcome_status":{"category":"Status update unavailable","date":"2017-02"},"persistent_id":"215cac11a7818d78e44aa6b240ce1ac2fdb7eaba48d98f9b1affbfd696f95321","id":52748866,"location_subtype":"","month":"2016-10"},{"category":"violent-crime","location_type":"Force","location":{"latitude":"51.466844","street":{"id":943994,"name":"On or near Old Farm Close"},"longitude":"-0.377679"},"context":"","outcome_status":{"category":"Status update unavailable","date":"2017-02"},"persistent_id":"a9ecadfcb71c15a8b25bb3920403b54da62399b175fc70cecd3a854fde38c554","id":52765402,"location_subtype":"","month":"2016-10"},{"category":"violent-crime","location_type":"Force","location":{"latitude":"51.466035","street":{"id":944162,"name":"On or near Charter Crescent"},"longitude":"-0.388145"},"context":"","outcome_status":{"category":"Investigation complete; no suspect identified","date":"2016-11"},"persistent_id":"e2fb1374b2f955d257fca6bdd671db4736a210eb977be018890c91f82a6f891c","id":52723591,"location_subtype":"","month":"2016-10"},{"category":"violent-crime","location_type":"Force","location":{"latitude":"51.467764","street":{"id":944006,"name":"On or near Hospital Road"},"longitude":"-0.371412"},"context":"","outcome_status":{"category":"Investigation complete; no suspect identified","date":"2017-06"},"persistent_id":"c9086cfc0932b5dacab77fd8b904f9953dbb69de0536bb5dd2805ee070c0904b","id":52751509,"location_subtype":"","month":"2016-10"},{"category":"violent-crime","location_type":"Force","location":{"latitude":"51.471254","street":{"id":944557,"name":"On or near Bath Road"},"longitude":"-0.381237"},"context":"","outcome_status":{"category":"Investigation complete; no suspect identified","date":"2016-10"},"persistent_id":"ac79d6eb23ec4f4aa63222a2a5cc706ec31fc1b2a072086053ef571c86e0ad69","id":52732472,"location_subtype":"","month":"2016-10"},{"category":"violent-crime","location_type":"Force","location":{"latitude":"51.473476","street":{"id":944407,"name":"On or near Bath Road"},"longitude":"-0.387811"},"context":"","outcome_status":{"category":"Offender given a caution","date":"2017-02"},"persistent_id":"e7bb76de6a7500fcea06ad1dbd79239d78527d27157506910cd1f760635b1ca5","id":52711285,"location_subtype":"","month":"2016-10"},{"category":"violent-crime","location_type":"Force","location":{"latitude":"51.466844","street":{"id":943994,"name":"On or near Old Farm Close"},"longitude":"-0.377679"},"context":"","outcome_status":{"category":"Offender given community sentence","date":"2016-11"},"persistent_id":"fff4ae6a7b5bf457d22eaf79f02905278253f79d9b60e6710683b4b25ad5960b","id":52733687,"location_subtype":"","month":"2016-10"},{"category":"violent-crime","location_type":"Force","location":{"latitude":"51.471190","street":{"id":944454,"name":"On or near Ivanhoe Road"},"longitude":"-0.390944"},"context":"","outcome_status":{"category":"Investigation complete; no suspect identified","date":"2016-11"},"persistent_id":"300ccc33f487125ad0193e1a1138506299edca959f0ef720b898cf79e90fe608","id":52733835,"location_subtype":"","month":"2016-10"},{"category":"violent-crime","location_type":"Force","location":{"latitude":"51.468733","street":{"id":944154,"name":"On or near Heathdale Avenue"},"longitude":"-0.384235"},"context":"","outcome_status":{"category":"Investigation complete; no suspect identified","date":"2016-10"},"persistent_id":"b46f81921d18ed502e57f320b0b25ca968ca72f3abc6d45d7f0f32a38c45e24a","id":52752194,"location_subtype":"","month":"2016-10"},{"category":"violent-crime","location_type":"Force","location":{"latitude":"51.467764","street":{"id":944006,"name":"On or near Hospital Road"},"longitude":"-0.371412"},"context":"","outcome_status":{"category":"Status update unavailable","date":"2017-02"},"persistent_id":"c9086cfc0932b5dacab77fd8b904f9953dbb69de0536bb5dd2805ee070c0904b","id":52751508,"location_subtype":"","month":"2016-10"},{"category":"violent-crime","location_type":"Force","location":{"latitude":"51.473821","street":{"id":944413,"name":"On or near Parking Area"},"longitude":"-0.389397"},"context":"","outcome_status":{"category":"Investigation complete; no suspect identified","date":"2017-02"},"persistent_id":"2af1e44956319b58e70178fcade586865d29e2e591938f9eaea6094b35dc28d2","id":52741226,"location_subtype":"","month":"2016-10"},{"category":"violent-crime","location_type":"Force","location":{"latitude":"51.470802","street":{"id":944556,"name":"On or near Bulstrode Avenue"},"longitude":"-0.372629"},"context":"","outcome_status":{"category":"Investigation complete; no suspect identified","date":"2017-01"},"persistent_id":"41db0ab1de35bbe338943739fcea830ae256f079b6ef20dcb284dd97b4347521","id":52687361,"location_subtype":"","month":"2016-10"},{"category":"violent-crime","location_type":"Force","location":{"latitude":"51.472127","street":{"id":944470,"name":"On or near Siddeley Drive"},"longitude":"-0.385181"},"context":"","outcome_status":{"category":"Status update unavailable","date":"2017-02"},"persistent_id":"e3616a5382a82c8ad37bd7e6e3519c9ed4d55b5b570f035b2c7d53bd249bb3f4","id":52729711,"location_subtype":"","month":"2016-10"},{"category":"violent-crime","location_type":"Force","location":{"latitude":"51.464463","street":{"id":944140,"name":"On or near Tivoli Road"},"longitude":"-0.386358"},"context":"","outcome_status":{"category":"Investigation complete; no suspect identified","date":"2016-11"},"persistent_id":"7fea4e25f78a33ba7acf42d7ff3fdb8cfe00874addcf198b2d93ef99aa348506","id":52753415,"location_subtype":"","month":"2016-10"},{"category":"violent-crime","location_type":"Force","location":{"latitude":"51.469445","street":{"id":944550,"name":"On or near Ede Close"},"longitude":"-0.377875"},"context":"","outcome_status":{"category":"Court case unable to proceed","date":"2017-01"},"persistent_id":"70c8c013fcd303192e3321b517bf4222fbf57d0c4e155406ec12839667a2a98b","id":52764390,"location_subtype":"","month":"2016-10"},{"category":"violent-crime","location_type":"Force","location":{"latitude":"51.467764","street":{"id":944006,"name":"On or near Hospital Road"},"longitude":"-0.371412"},"context":"","outcome_status":{"category":"Investigation complete; no suspect identified","date":"2017-01"},"persistent_id":"fb388b14c32c2020884f7a284432ffa221026fb22c03383320bf2ade34f7bdd7","id":52756749,"location_subtype":"","month":"2016-10"},{"category":"violent-crime","location_type":"Force","location":{"latitude":"51.467094","street":{"id":943982,"name":"On or near Toad Lane"},"longitude":"-0.378865"},"context":"","outcome_status":{"category":"Investigation complete; no suspect identified","date":"2016-10"},"persistent_id":"45581d22c523e40b0eabd41a85642492b97590314013e0c14048e1872ae999d6","id":52758711,"location_subtype":"","month":"2016-10"},{"category":"violent-crime","location_type":"Force","location":{"latitude":"51.472127","street":{"id":944470,"name":"On or near Siddeley Drive"},"longitude":"-0.385181"},"context":"","outcome_status":{"category":"Offender sent to prison","date":"2017-01"},"persistent_id":"e3616a5382a82c8ad37bd7e6e3519c9ed4d55b5b570f035b2c7d53bd249bb3f4","id":52729713,"location_subtype":"","month":"2016-10"},{"category":"violent-crime","location_type":"Force","location":{"latitude":"51.466035","street":{"id":944162,"name":"On or near Charter Crescent"},"longitude":"-0.388145"},"context":"","outcome_status":{"category":"Investigation complete; no suspect identified","date":"2017-03"},"persistent_id":"23f1fb57369898b985cd903870c18d3c8f35bd07d98df74cf73b07e8388ddefb","id":52752217,"location_subtype":"","month":"2016-10"},{"category":"violent-crime","location_type":"Force","location":{"latitude":"51.470291","street":{"id":944549,"name":"On or near Maitland Close"},"longitude":"-0.379904"},"context":"","outcome_status":{"category":"Court result unavailable","date":"2017-05"},"persistent_id":"a3151f8d3e6a8f71d8ecc24cec4dc924a1439b0506611413c10d424d7163fb41","id":52767890,"location_subtype":"","month":"2016-10"},{"category":"violent-crime","location_type":"Force","location":{"latitude":"51.468674","street":{"id":944059,"name":"On or near Lampton Road"},"longitude":"-0.366370"},"context":"","outcome_status":{"category":"Offender given community sentence","date":"2017-01"},"persistent_id":"401bb8e20efd0d51b8d15f26e6dbefc47bc8e845160ef636936a59e2cc1eea4b","id":52735850,"location_subtype":"","month":"2016-10"},{"category":"violent-crime","location_type":"Force","location":{"latitude":"51.473821","street":{"id":944413,"name":"On or near Parking Area"},"longitude":"-0.389397"},"context":"","outcome_status":{"category":"Status update unavailable","date":"2017-02"},"persistent_id":"2af1e44956319b58e70178fcade586865d29e2e591938f9eaea6094b35dc28d2","id":52740478,"location_subtype":"","month":"2016-10"},{"category":"violent-crime","location_type":"Force","location":{"latitude":"51.473821","street":{"id":944413,"name":"On or near Parking Area"},"longitude":"-0.389397"},"context":"","outcome_status":{"category":"Status update unavailable","date":"2017-02"},"persistent_id":"2af1e44956319b58e70178fcade586865d29e2e591938f9eaea6094b35dc28d2","id":52740481,"location_subtype":"","month":"2016-10"},{"category":"other-crime","location_type":"Force","location":{"latitude":"51.468444","street":{"id":943983,"name":"On or near Strafford Road"},"longitude":"-0.376370"},"context":"","outcome_status":{"category":"Local resolution","date":"2016-10"},"persistent_id":"434a43d9af7f81fa2d8dc7c9767c6860f8ce4ac0db95bb7ad67dd8b4ec672643","id":52696258,"location_subtype":"","month":"2016-10"},{"category":"other-crime","location_type":"Force","location":{"latitude":"51.468444","street":{"id":943983,"name":"On or near Strafford Road"},"longitude":"-0.376370"},"context":"","outcome_status":{"category":"Local resolution","date":"2016-10"},"persistent_id":"ad96de889aa6039b854fc7c22d811d59d84045ff4adedefbe973a593e8e3ec54","id":52777795,"location_subtype":"","month":"2016-10"},{"category":"other-crime","location_type":"Force","location":{"latitude":"51.468444","street":{"id":943983,"name":"On or near Strafford Road"},"longitude":"-0.376370"},"context":"","outcome_status":{"category":"Status update unavailable","date":"2017-02"},"persistent_id":"1ae664123fb2773b117525777229635cdb8145ea425b6bf2ce7596704e5aa771","id":52733758,"location_subtype":"","month":"2016-10"},{"category":"other-crime","location_type":"Force","location":{"latitude":"51.465593","street":{"id":944158,"name":"On or near Dukes Avenue"},"longitude":"-0.386793"},"context":"","outcome_status":{"category":"Investigation complete; no suspect identified","date":"2016-10"},"persistent_id":"c059b7e6a11fbab79a110907a62454de684a869de41a4afb2627765ab020b287","id":52692597,"location_subtype":"","month":"2016-10"},{"category":"other-crime","location_type":"Force","location":{"latitude":"51.468444","street":{"id":943983,"name":"On or near Strafford Road"},"longitude":"-0.376370"},"context":"","outcome_status":{"category":"Local resolution","date":"2016-10"},"persistent_id":"107f4aca702541decb4f4ca103ec433e9090f38fbc592499ce275c04833586a3","id":52735027,"location_subtype":"","month":"2016-10"},{"category":"other-crime","location_type":"Force","location":{"latitude":"51.468444","street":{"id":943983,"name":"On or near Strafford Road"},"longitude":"-0.376370"},"context":"","outcome_status":{"category":"Local resolution","date":"2016-10"},"persistent_id":"a594c0033e9379253076356c0e472e9e0421bbb7337a1892e41b0555422f00d2","id":52736776,"location_subtype":"","month":"2016-10"},{"category":"other-crime","location_type":"Force","location":{"latitude":"51.468444","street":{"id":943983,"name":"On or near Strafford Road"},"longitude":"-0.376370"},"context":"","outcome_status":{"category":"Status update unavailable","date":"2017-02"},"persistent_id":"ff7700a0eb334a9429d196e470e3017fc21dde2d86eeb98edc1bdbb503ee1d78","id":52757344,"location_subtype":"","month":"2016-10"},{"category":"other-crime","location_type":"Force","location":{"latitude":"51.468444","street":{"id":943983,"name":"On or near Strafford Road"},"longitude":"-0.376370"},"context":"","outcome_status":{"category":"Court result unavailable","date":"2017-07"},"persistent_id":"5275a832da6d47fb5c83aa91bd43dceb98fb9cabf3a7c50e3eb052cff0954ae5","id":52749552,"location_subtype":"","month":"2016-10"},{"category":"other-crime","location_type":"Force","location":{"latitude":"51.468444","street":{"id":943983,"name":"On or near Strafford Road"},"longitude":"-0.376370"},"context":"","outcome_status":{"category":"Local resolution","date":"2016-10"},"persistent_id":"bd67418fdc626c165c909b10ad758db73a2e7657144942f159891dabac0bf31c","id":52731507,"location_subtype":"","month":"2016-10"},{"category":"other-crime","location_type":"Force","location":{"latitude":"51.468444","street":{"id":943983,"name":"On or near Strafford Road"},"longitude":"-0.376370"},"context":"","outcome_status":{"category":"Local resolution","date":"2016-10"},"persistent_id":"619728c73021c0068f012d3cb0a69a4602f7fd662d5c1d47a17f9f345c6a885b","id":52753501,"location_subtype":"","month":"2016-10"},{"category":"other-crime","location_type":"Force","location":{"latitude":"51.468444","street":{"id":943983,"name":"On or near Strafford Road"},"longitude":"-0.376370"},"context":"","outcome_status":{"category":"Local resolution","date":"2016-10"},"persistent_id":"7b43afd773621e512a2e0047ab535c25a8bea007c501294dda4ce88f51242b1b","id":52765426,"location_subtype":"","month":"2016-10"},{"category":"other-crime","location_type":"Force","location":{"latitude":"51.468444","street":{"id":943983,"name":"On or near Strafford Road"},"longitude":"-0.376370"},"context":"","outcome_status":{"category":"Local resolution","date":"2016-10"},"persistent_id":"0ed44bd59d1610353cf6d010c5f3cd7a1deab2ee4027e225fb7494e1b3f19de3","id":52748822,"location_subtype":"","month":"2016-10"}]