[{"category":"anti-social-behaviour","location_type":"Force","location":{"latitude":"51.500976","street":{"id":951448,"name":"On or near Colbrook Close"},"longitude":"-0.435741"},"context":"","outcome_status":null,"persistent_id":"","id":52651395,"location_subtype":"","month":"2016-10"},{"category":"anti-social-behaviour","location_type":"Force","location":{"latitude":"51.499802","street":{"id":951425,"name":"On or near Dawley Road"},"longitude":"-0.429989"},"context":"","outcome_status":null,"persistent_id":"","id":52651354,"location_subtype":"","month":"2016-10"},{"category":"anti-social-behaviour","location_type":"Force","location":{"latitude":"51.499802","street":{"id":951425,"name":"On or near Dawley Road"},"longitude":"-0.429989"},"context":"","outcome_status":null,"persistent_id":"","id":52651352,"location_subtype":"","month":"2016-10"},{"category":"anti-social-behaviour","location_type":"Force","location":{"latitude":"51.497642","street":{"id":951476,"name":"On or near Crowland Avenue"},"longitude":"-0.423163"},"context":"","outcome_status":null,"persistent_id":"","id":52651256,"location_subtype":"","month":"2016-10"},{"category":"anti-social-behaviour","location_type":"Force","location":{"latitude":"51.497642","street":{"id":951476,"name":"On or near Crowland Avenue"},"longitude":"-0.423163"},"context":"","outcome_status":null,"persistent_id":"","id":52651254,"location_subtype":"","month":"2016-10"},{"category":"anti-social-behaviour","location_type":"Force","location":{"latitude":"51.493917","street":{"id":951139,"name":"On or near Moston Close"},"longitude":"-0.422340"},"context":"","outcome_status":null,"persistent_id":"","id":52651242,"location_subtype":"","month":"2016-10"},{"category":"anti-social-behaviour","location_type":"Force","location":{"latitude":"51.498485","street":{"id":951475,"name":"On or near Monmouth Road"},"longitude":"-0.422961"},"context":"","outcome_status":null,"persistent_id":"","id":52651235,"location_subtype":"","month":"2016-10"},{"category":"anti-social-behaviour","location_type":"Force","location":{"latitude":"51.498485","street":{"id":951475,"name":"On or near Monmouth Road"},"longitude":"-0.422961"},"context":"","outcome_status":null,"persistent_id":"","id":52651233,"location_subtype":"","month":"2016-10"},{"category":"anti-social-behaviour","location_type":"Force","location":{"latitude":"51.495681","street":{"id":951144,"name":"On or near Ashwood Gardens"},"longitude":"-0.421761"},"context":"","outcome_status":null,"persistent_id":"","id":52651220,"location_subtype":"","month":"2016-10"},{"category":"anti-social-behaviour","location_type":"Force","location":{"latitude":"51.498485","street":{"id":951475,"name":"On or near Monmouth Road"},"longitude":"-0.422961"},"context":"","outcome_status":null,"persistent_id":"","id":52651217,"location_subtype":"","month":"2016-10"},{"category":"anti-social-behaviour","location_type":"Force","location":{"latitude":"51.495943","street":{"id":951137,"name":"On or near Phelps Way"},"longitude":"-0.419836"},"context":"","outcome_status":null,"persistent_id":"","id":52651176,"location_subtype":"","month":"2016-10"},{"category":"anti-social-behaviour","location_type":"Force","location":{"latitude":"51.495943","street":{"id":951137,"name":"On or near Phelps Way"},"longitude":"-0.419836"},"context":"","outcome_status":null,"persistent_id":"","id":52651175,"location_subtype":"","month":"2016-10"},{"category":"anti-social-behaviour","location_type":"Force","location":{"latitude":"51.495943","street":{"id":951137,"name":"On or near Phelps Way"},"longitude":"-0.419836"},"context":"","outcome_status":null,"persistent_id":"","id":52651174,"location_subtype":"","month":"2016-10"},{"category":"anti-social-behaviour","location_type":"Force","location":{"latitude":"51.493609","street":{"id":951161,"name":"On or near Wilkins Close"},"longitude":"-0.418836"},"context":"","outcome_status":null,"persistent_id":"","id":52651135,"location_subtype":"","month":"2016-10"},{"category":"anti-social-behaviour","location_type":"Force","location":{"latitude":"51.498566","street":{"id":951542,"name":"On or near Crane Gardens"},"longitude":"-0.418290"},"context":"","outcome_status":null,"persistent_id":"","id":52651132,"location_subtype":"","month":"2016-10"},{"category":"anti-social-behaviour","location_type":"Force","location":{"latitude":"51.498566","street":{"id":951542,"name":"On or near Crane Gardens"},"longitude":"-0.418290"},"context":"","outcome_status":null,"persistent_id":"","id":52651130,"location_subtype":"","month":"2016-10"},{"category":"anti-social-behaviour","location_type":"Force","location":{"latitude":"51.494341","street":{"id":951149,"name":"On or near Hillborne Close"},"longitude":"-0.414417"},"context":"","outcome_status":null,"persistent_id":"","id":52651027,"location_subtype":"","month":"2016-10"},{"category":"anti-social-behaviour","location_type":"Force","location":{"latitude":"51.494854","street":{"id":951189,"name":"On or near Cleave Avenue"},"longitude":"-0.425794"},"context":"","outcome_status":null,"persistent_id":"","id":52651283,"location_subtype":"","month":"2016-10"},{"category":"anti-social-behaviour","location_type":"Force","location":{"latitude":"51.494854","street":{"id":951189,"name":"On or near Cleave Avenue"},"longitude":"-0.425794"},"context":"","outcome_status":null,"persistent_id":"","id":52651281,"location_subtype":"","month":"2016-10"},{"category":"anti-social-behaviour","location_type":"Force","location":{"latitude":"51.494854","street":{"id":951189,"name":"On or near Cleave Avenue"},"longitude":"-0.425794"},"context":"","outcome_status":null,"persistent_id":"","id":52651278,"location_subtype":"","month":"2016-10"},{"category":"anti-social-behaviour","location_type":"Force","location":{"latitude":"51.494854","street":{"id":951189,"name":"On or near Cleave Avenue"},"longitude":"-0.425794"},"context":"","outcome_status":null,"persistent_id":"","id":52651276,"location_subtype":"","month":"2016-10"},{"category":"anti-social-behaviour","location_type":"Force","location":{"latitude":"51.495368","street":{"id":951148,"name":"On or near Roseville Road"},"longitude":"-0.413243"},"context":"","outcome_status":null,"persistent_id":"","id":52650678,"location_subtype":"","month":"2016-10"},{"category":"anti-social-behaviour","location_type":"Force","location":{"latitude":"51.493609","street":{"id":951161,"name":"On or near Wilkins Close"},"longitude":"-0.418836"},"context":"","outcome_status":null,"persistent_id":"","id":52651134,"location_subtype":"","month":"2016-10"},{"category":"anti-social-behaviour","location_type":"Force","location":{"latitude":"51.503115","street":{"id":951437,"name":"On or near Nine Acres Close"},"longitude":"-0.443779"},"context":"","outcome_status":null,"persistent_id":"","id":52651487,"location_subtype":"","month":"2016-10"},{"category":"anti-social-behaviour","location_type":"Force","location":{"latitude":"51.494854","street":{"id":951189,"name":"On or near Cleave Avenue"},"longitude":"-0.425794"},"context":"","outcome_status":null,"persistent_id":"","id":52651279,"location_subtype":"","month":"2016-10"},{"category":"anti-social-behaviour","location_type":"Force","location":{"latitude":"51.502729","street":{"id":951453,"name":"On or near Bourne Circus"},"longitude":"-0.441156"},"context":"","outcome_status":null,"persistent_id":"","id":52651482,"location_subtype":"","month":"2016-10"},{"category":"anti-social-behaviour","location_type":"Force","location":{"latitude":"51.501982","street":{"id":951445,"name":"On or near Glamis Crescent"},"longitude":"-0.439741"},"context":"","outcome_status":null,"persistent_id":"","id":52651455,"location_subtype":"","month":"2016-10"},{"category":"anti-social-behaviour","location_type":"Force","location":{"latitude":"51.501982","street":{"id":951445,"name":"On or near Glamis Crescent"},"longitude":"-0.439741"},"context":"","outcome_status":null,"persistent_id":"","id":52651451,"location_subtype":"","month":"2016-10"},{"category":"anti-social-behaviour","location_type":"Force","location":{"latitude":"51.504232","street":{"id":951457,"name":"On or near Stormount Drive"},"longitude":"-0.439174"},"context":"","outcome_status":null,"persistent_id":"","id":52651442,"location_subtype":"","month":"2016-10"},{"category":"anti-social-behaviour","location_type":"Force","location":{"latitude":"51.504232","street":{"id":951457,"name":"On or near Stormount Drive"},"longitude":"-0.439174"},"context":"","outcome_status":null,"persistent_id":"","id":52651440,"location_subtype":"","month":"2016-10"},{"category":"anti-social-behaviour","location_type":"Force","location":{"latitude":"51.502593","street":{"id":951454,"name":"On or near Bourne Avenue"},"longitude":"-0.437674"},"context":"","outcome_status":null,"persistent_id":"","id":52651434,"location_subtype":"","month":"2016-10"},{"category":"anti-social-behaviour","location_type":"Force","location":{"latitude":"51.502593","street":{"id":951454,"name":"On or near Bourne Avenue"},"longitude":"-0.437674"},"context":"","outcome_status":null,"persistent_id":"","id":52651432,"location_subtype":"","month":"2016-10"},{"category":"anti-social-behaviour","location_type":"Force","location":{"latitude":"51.500976","street":{"id":951448,"name":"On or near Colbrook Close"},"longitude":"-0.435741"},"context":"","outcome_status":null,"persistent_id":"","id":52651430,"location_subtype":"","month":"2016-10"},{"category":"anti-social-behaviour","location_type":"Force","location":{"latitude":"51.503064","street":{"id":951450,"name":"On or near Clevedon Gardens"},"longitude":"-0.436591"},"context":"","outcome_status":null,"persistent_id":"","id":52651429,"location_subtype":"","month":"2016-10"},{"category":"anti-social-behaviour","location_type":"Force","location":{"latitude":"51.497864","street":{"id":951464,"name":"On or near Pinkwell Lane"},"longitude":"-0.437043"},"context":"","outcome_status":null,"persistent_id":"","id":52651420,"location_subtype":"","month":"2016-10"},{"category":"anti-social-behaviour","location_type":"Force","location":{"latitude":"51.497864","street":{"id":951464,"name":"On or near Pinkwell Lane"},"longitude":"-0.437043"},"context":"","outcome_status":null,"persistent_id":"","id":52651416,"location_subtype":"","month":"2016-10"},{"category":"anti-social-behaviour","location_type":"Force","location":{"latitude":"51.497864","street":{"id":951464,"name":"On or near Pinkwell Lane"},"longitude":"-0.437043"},"context":"","outcome_status":null,"persistent_id":"","id":52651413,"location_subtype":"","month":"2016-10"},{"category":"anti-social-behaviour","location_type":"Force","location":{"latitude":"51.502819","street":{"id":951444,"name":"On or near Guinness Close"},"longitude":"-0.431687"},"context":"","outcome_status":null,"persistent_id":"","id":52651367,"location_subtype":"","month":"2016-10"},{"category":"anti-social-behaviour","location_type":"Force","location":{"latitude":"51.496573","street":{"id":951169,"name":"On or near Rutland Road"},"longitude":"-0.431944"},"context":"","outcome_status":null,"persistent_id":"","id":52651356,"location_subtype":"","month":"2016-10"},{"category":"bicycle-theft","location_type":"Force","location":{"latitude":"51.497864","street":{"id":951464,"name":"On or near Pinkwell Lane"},"longitude":"-0.437043"},"context":"","outcome_status":{"category":"Investigation complete; no suspect identified","date":"2016-11"},"persistent_id":"05e8733bb8677cc9dee17b977119aec08f5b0191e48cd9bcfa1ee6c2cd967142","id":52702049,"location_subtype":"","month":"2016-10"},{"category":"bicycle-theft","location_type":"Force","location":{"latitude":"51.501982","street":{"id":951445,"name":"On or near Glamis Crescent"},"longitude":"-0.439741"},"context":"","outcome_status":{"category":"Status update unavailable","date":"2017-02"},"persistent_id":"63b690ae7ce518dcecc5a5296c703373ba0134f2d5b5964633099a11c9e45b51","id":52771670,"location_subtype":"","month":"2016-10"},{"category":"bicycle-theft","location_type":"Force","location":{"latitude":"51.496590","street":{"id":951478,"name":"On or near Clement Gardens"},"longitude":"-0.429206"},"context":"","outcome_status":{"category":"Investigation complete; no suspect identified","date":"2016-12"},"persistent_id":"3909df8038bcbc65356ccf870473992ccb6406a2bf168de0eaf03b138ad014e3","id":52701662,"location_subtype":"","month":"2016-10"},{"category":"bicycle-theft","location_type":"Force","location":{"latitude":"51.498382","street":{"id":951477,"name":"On or near Copthorne Mews"},"longitude":"-0.428713"},"context":"","outcome_status":{"category":"Status update unavailable","date":"2017-02"},"persistent_id":"adf636ba3a9c95f34db09c36ad690109e9d2168e82fed4c64603940de12db1a3","id":52776325,"location_subtype":"","month":"2016-10"},{"category":"burglary","location_type":"Force","location":{"latitude":"51.496046","street":{"id":951171,"name":"On or near Repton Avenue"},"longitude":"-0.432207"},"context":"","outcome_status":{"category":"Investigation complete; no suspect identified","date":"2016-12"},"persistent_id":"f2daacfc15ecc21865e1f162cd62f59410a361fc56c43d9fb34206209cedbd3c","id":52779059,"location_subtype":"","month":"2016-10"},{"category":"burglary","location_type":"Force","location":{"latitude":"51.496924","street":{"id":951543,"name":"On or near Wyre Grove"},"longitude":"-0.415264"},"context":"","outcome_status":{"category":"Investigation complete; no suspect identified","date":"2016-10"},"persistent_id":"fc41aca59f3f80df403b81450cbfa20a030699dcfdc9a01d07a8e8864a1b0d92","id":52751620,"location_subtype":"","month":"2016-10"},{"category":"burglary","location_type":"Force","location":{"latitude":"51.497642","street":{"id":951476,"name":"On or near Crowland Avenue"},"longitude":"-0.423163"},"context":"","outcome_status":{"category":"Status update unavailable","date":"2017-02"},"persistent_id":"88546b6058f45207685590004cc7cf086f0505e33f504255d9746113955556d2","id":52699499,"location_subtype":"","month":"2016-10"},{"category":"burglary","location_type":"Force","location":{"latitude":"51.496046","street":{"id":951171,"name":"On or near Repton Avenue"},"longitude":"-0.432207"},"context":"","outcome_status":{"category":"Investigation complete; no suspect identified","date":"2017-07"},"persistent_id":"78c9de67d2d9e6d383d9bfd981c658cc050369b9cd90e0171314954c9754724d","id":52776159,"location_subtype":"","month":"2016-10"},{"category":"burglary","location_type":"Force","location":{"latitude":"51.496442","street":{"id":951541,"name":"On or near Cranford Drive"},"longitude":"-0.420841"},"context":"","outcome_status":{"category":"Investigation complete; no suspect identified","date":"2016-10"},"persistent_id":"baff7c19328112171c2ecec2b33c22e6425ecb6062a53588026e55793bdbb7a2","id":52748302,"location_subtype":"","month":"2016-10"},{"category":"burglary","location_type":"Force","location":{"latitude":"51.502593","street":{"id":951454,"name":"On or near Bourne Avenue"},"longitude":"-0.437674"},"context":"","outcome_status":{"category":"Investigation complete; no suspect identified","date":"2016-11"},"persistent_id":"192867d1c5cd5bdbd99d92256c01ebba706f17362a438b612d92fdc2802c69d7","id":52758179,"location_subtype":"","month":"2016-10"},{"category":"burglary","location_type":"Force","location":{"latitude":"51.498898","street":{"id":951469,"name":"On or near Clifford Gardens"},"longitude":"-0.430986"},"context":"","outcome_status":{"category":"Investigation complete; no suspect identified","date":"2016-10"},"persistent_id":"9f6679826fae36215acbcfbf9407939c29701aa5e357e390e207e1e5208c079a","id":52680891,"location_subtype":"","month":"2016-10"},{"category":"burglary","location_type":"Force","location":{"latitude":"51.502819","street":{"id":951444,"name":"On or near Guinness Close"},"longitude":"-0.431687"},"context":"","outcome_status":{"category":"Investigation complete; no suspect identified","date":"2016-10"},"persistent_id":"64f4632620f8d44b26fd4168972583088f8e74904cba0bc1445d90d8e8f4b4ab","id":52681310,"location_subtype":"","month":"2016-10"},{"category":"burglary","location_type":"Force","location":{"latitude":"51.501780","street":{"id":951439,"name":"On or near Waltham Avenue"},"longitude":"-0.435382"},"context":"","outcome_status":{"category":"Status update unavailable","date":"2017-02"},"persistent_id":"86ac88b101f7fbef22fa9bd29633bd1ad4024b42f86139d47e4e2c6fe45d723f","id":52756075,"location_subtype":"","month":"2016-10"},{"category":"criminal-damage-arson","location_type":"Force","location":{"latitude":"51.494571","street":{"id":951136,"name":"On or near St Dunstans Close"},"longitude":"-0.420157"},"context":"","outcome_status":{"category":"Status update unavailable","date":"2017-02"},"persistent_id":"7aeb05ac4aa5fd393f07043d2241b07e3fc1a94d5718e2c574e3844025bf9ac7","id":52733483,"location_subtype":"","month":"2016-10"},{"category":"criminal-damage-arson","location_type":"Force","location":{"latitude":"51.500150","street":{"id":951441,"name":"On or near Seaton Road"},"longitude":"-0.436547"},"context":"","outcome_status":{"category":"Investigation complete; no suspect identified","date":"2016-12"},"persistent_id":"3dc98555337bbb2807ec43c0b50468ab23dd9d2243b0c10353401cabd6d9d012","id":52692401,"location_subtype":"","month":"2016-10"},{"category":"criminal-damage-arson","location_type":"Force","location":{"latitude":"51.499757","street":{"id":951416,"name":"On or near Woodhouse Close"},"longitude":"-0.429314"},"context":"","outcome_status":{"category":"Status update unavailable","date":"2017-02"},"persistent_id":"d6fdf36da348a0bb17db8d6fa465eb045242db67eb57b8d94377eca44337b9a7","id":52770981,"location_subtype":"","month":"2016-10"},{"category":"criminal-damage-arson","location_type":"Force","location":{"latitude":"51.496921","street":{"id":951462,"name":"On or near Waverley Close"},"longitude":"-0.431788"},"context":"","outcome_status":{"category":"Investigation complete; no suspect identified","date":"2016-11"},"persistent_id":"b2189eb767f673489fe984b5a4874caa00608fdd0ceef2d644ac677c397734f8","id":52776210,"location_subtype":"","month":"2016-10"},{"category":"criminal-damage-arson","location_type":"Force","location":{"latitude":"51.496924","street":{"id":951543,"name":"On or near Wyre Grove"},"longitude":"-0.415264"},"context":"","outcome_status":{"category":"Investigation complete; no suspect identified","date":"2016-11"},"persistent_id":"c98850dbc0e6aa05633f8e5930039ebcfd6b19f2a0fe42c78a72e4676552e8d4","id":52759077,"location_subtype":"","month":"2016-10"},{"category":"criminal-damage-arson","location_type":"Force","location":{"latitude":"51.499316","street":{"id":951463,"name":"On or near Ross Close"},"longitude":"-0.436014"},"context":"","outcome_status":{"category":"Offender given a caution","date":"2016-12"},"persistent_id":"5a964e0180438998391d0fbc1117c0251181c484a8f0ed51b10123e886b96dad","id":52757114,"location_subtype":"","month":"2016-10"},{"category":"criminal-damage-arson","location_type":"Force","location":{"latitude":"51.500150","street":{"id":951441,"name":"On or near Seaton Road"},"longitude":"-0.436547"},"context":"","outcome_status":{"category":"Investigation complete; no suspect identified","date":"2016-12"},"persistent_id":"9f6d966acfb3a4c74634a13900c3a6360d3a124ebfa53b695ac6de2287d61e50","id":52713168,"location_subtype":"","month":"2016-10"},{"category":"drugs","location_type":"Force","location":{"latitude":"51.498382","street":{"id":951477,"name":"On or near Copthorne Mews"},"longitude":"-0.428713"},"context":"","outcome_status":{"category":"Offender given community sentence","date":"2016-11"},"persistent_id":"9c053200b0d93eff4b1f718e22f3f37b81f2de3ca120be61a646a0e4799c3e5e","id":52689695,"location_subtype":"","month":"2016-10"},{"category":"drugs","location_type":"Force","location":{"latitude":"51.494571","street":{"id":951136,"name":"On or near St Dunstans Close"},"longitude":"-0.420157"},"context":"","outcome_status":{"category":"Offender given penalty notice","date":"2016-10"},"persistent_id":"59315122767188cf61f2c1d28141665b44314e4e95c9ef655276bc5a003933c1","id":52750063,"location_subtype":"","month":"2016-10"},{"category":"drugs","location_type":"Force","location":{"latitude":"51.496924","street":{"id":951543,"name":"On or near Wyre Grove"},"longitude":"-0.415264"},"context":"","outcome_status":{"category":"Investigation complete; no suspect identified","date":"2017-05"},"persistent_id":"a45f376aee08883b27b9bbf720795a56388a0eeb88fb942885deb4dc80d58f26","id":52743810,"location_subtype":"","month":"2016-10"},{"category":"drugs","location_type":"Force","location":{"latitude":"51.498898","street":{"id":951469,"name":"On or near Clifford Gardens"},"longitude":"-0.430986"},"context":"","outcome_status":{"category":"Offender fined","date":"2016-11"},"persistent_id":"a93803ff52b60ea010a99d7000a48779bb9dd443e6f34e2afbe405172847b48c","id":52777563,"location_subtype":"","month":"2016-10"},{"category":"drugs","location_type":"Force","location":{"latitude":"51.497864","street":{"id":951464,"name":"On or near Pinkwell Lane"},"longitude":"-0.437043"},"context":"","outcome_status":{"category":"Offender deprived of property","date":"2016-11"},"persistent_id":"213f7c88aa448e542cfd7a05c279212f9a2e1482144957f76e7eadf66bbf5b3b","id":52754786,"location_subtype":"","month":"2016-10"},{"category":"other-theft","location_type":"Force","location":{"latitude":"51.494637","street":{"id":951164,"name":"On or near Parking Area"},"longitude":"-0.431060"},"context":"","outcome_status":{"category":"Investigation complete; no suspect identified","date":"2016-10"},"persistent_id":"e78289b53b3f17c74eb1a6811f7efd1126a22a0ed412e38f382faaf5b14ca533","id":52764459,"location_subtype":"","month":"2016-10"},{"category":"other-theft","location_type":"Force","location":{"latitude":"51.494637","street":{"id":951164,"name":"On or near Parking Area"},"longitude":"-0.431060"},"context":"","outcome_status":{"category":"Investigation complete; no suspect identified","date":"2016-11"},"persistent_id":"d68a5bc4c2c6f179d698e51b53186917a97ad59c141c09872a41482fe5007924","id":52760083,"location_subtype":"","month":"2016-10"},{"category":"other-theft","location_type":"Force","location":{"latitude":"51.494637","street":{"id":951164,"name":"On or near Parking Area"},"longitude":"-0.431060"},"context":"","outcome_status":{"category":"Investigation complete; no suspect identified","date":"2016-10"},"persistent_id":"ef638eec32e987742208eab519db6b0eadb32b48edaf42a98a169bf9b669ea46","id":52762278,"location_subtype":"","month":"2016-10"},{"category":"other-theft","location_type":"Force","location":{"latitude":"51.494637","street":{"id":951164,"name":"On or near Parking Area"},"longitude":"-0.431060"},"context":"","outcome_status":{"category":"Investigation complete; no suspect identified","date":"2016-10"},"persistent_id":"6f1b1c90270fc271b3ca66c4321f62c5303c4f1d8dc6868af796725f04cf9afd","id":52764240,"location_subtype":"","month":"2016-10"},{"category":"other-theft","location_type":"Force","location":{"latitude":"51.500150","street":{"id":951441,"name":"On or near Seaton Road"},"longitude":"-0.436547"},"context":"","outcome_status":{"category":"Investigation complete; no suspect identified","date":"2016-10"},"persistent_id":"2b1c6a04a1ffd28651568927719cb89ba1e6eb502af93beeda660e3989b73e1d","id":52776791,"location_subtype":"","month":"2016-10"},{"category":"other-theft","location_type":"Force","location":{"latitude":"51.502819","street":{"id":951444,"name":"On or near Guinness Close"},"longitude":"-0.431687"},"context":"","outcome_status":{"category":"Status update unavailable","date":"2017-02"},"persistent_id":"5ec9d88d49832418d250cede83d313b0d24e6089c3eac835c6937ce4c4e07716","id":52738071,"location_subtype":"","month":"2016-10"},{"category":"other-theft","location_type":"Force","location":{"latitude":"51.502819","street":{"id":951444,"name":"On or near Guinness Close"},"longitude":"-0.431687"},"context":"","outcome_status":{"category":"Status update unavailable","date":"2017-02"},"persistent_id":"21bcbb0f6d0875e0871791d3d9cf002e1ec3c6ac8029176e69b3d14e189b12ea","id":52733005,"location_subtype":"","month":"2016-10"},{"category":"other-theft","location_type":"Force","location":{"latitude":"51.494637","street":{"id":951164,"name":"On or near Parking Area"},"longitude":"-0.431060"},"context":"","outcome_status":{"category":"Investigation complete; no suspect identified","date":"2016-10"},"persistent_id":"ffa4bcbab8af2e9d5397ab802dd193ea4e3ae605b3d8aa702e97ff57a2c8ac57","id":52767882,"location_subtype":"","month":"2016-10"},{"category":"other-theft","location_type":"Force","location":{"latitude":"51.494637","street":{"id":951164,"name":"On or near Parking Area"},"longitude":"-0.431060"},"context":"","outcome_status":{"category":"Investigation complete; no suspect identified","date":"2016-10"},"persistent_id":"09b489da247fc5d01f706941b79ad023ee7af4f0d2f1ee3a7e7db5e3fb9abe63","id":52764166,"location_subtype":"","month":"2016-10"},{"category":"other-theft","location_type":"Force","location":{"latitude":"51.494637","street":{"id":951164,"name":"On or near Parking Area"},"longitude":"-0.431060"},"context":"","outcome_status":{"category":"Investigation complete; no suspect identified","date":"2016-10"},"persistent_id":"7ff55f62c133279a30ac94f3928a41253b0eb04aaceb5928571b760cf39358b9","id":52762301,"location_subtype":"","month":"2016-10"},{"category":"other-theft","location_type":"Force","location":{"latitude":"51.494637","street":{"id":951164,"name":"On or near Parking Area"},"longitude":"-0.431060"},"context":"","outcome_status":{"category":"Investigation complete; no suspect identified","date":"2016-11"},"persistent_id":"1d473799e2fc031e46e0242dea810aa45536743e4387e7c2facf9b70f9cdd495","id":52762163,"location_subtype":"","month":"2016-10"},{"category":"other-theft","location_type":"Force","location":{"latitude":"51.494637","street":{"id":951164,"name":"On or near Parking Area"},"longitude":"-0.431060"},"context":"","outcome_status":{"category":"Investigation complete; no suspect identified","date":"2016-11"},"persistent_id":"82ee334a77abdfa1949c58c68b7c1b0b83ff93ad4ccb4202f238118c8eb9f671","id":52759012,"location_subtype":"","month":"2016-10"},{"category":"other-theft","location_type":"Force","location":{"latitude":"51.495368","street":{"id":951148,"name":"On or near Roseville Road"},"longitude":"-0.413243"},"context":"","outcome_status":{"category":"Investigation complete; no suspect identified","date":"2016-11"},"persistent_id":"823e03e523ebbcce44b236a54ce517da712641fd3b7ec42d95c0f43cd95a1cda","id":52694502,"location_subtype":"","month":"2016-10"},{"category":"other-theft","location_type":"Force","location":{"latitude":"51.496921","street":{"id":951462,"name":"On or near Waverley Close"},"longitude":"-0.431788"},"context":"","outcome_status":{"category":"Investigation complete; no suspect identified","date":"2016-11"},"persistent_id":"ec8648017b2b57188b7f30f4b6ecdd168eed9bac8064f9da3577fa25a485b20f","id":52693565,"location_subtype":"","month":"2016-10"},{"category":"other-theft","location_type":"Force","location":{"latitude":"51.494637","street":{"id":951164,"name":"On or near Parking Area"},"longitude":"-0.431060"},"context":"","outcome_status":{"category":"Investigation complete; no suspect identified","date":"2016-10"},"persistent_id":"5a6c4103a7272923e1b68772464faa63f3ad85b4ddf898ad75f119f5ca0ea47c","id":52767797,"location_subtype":"","month":"2016-10"},{"category":"other-theft","location_type":"Force","location":{"latitude":"51.501772","street":{"id":951421,"name":"On or near North Hyde Road"},"longitude":"-0.425383"},"context":"","outcome_status":{"category":"Offender fined","date":"2016-10"},"persistent_id":"79aee57a987903f5e64a510e0d60160fb6a09d21735f8fa2effdab5ddbdf0844","id":52750951,"location_subtype":"","month":"2016-10"},{"category":"possession-of-weapons","location_type":"Force","location":{"latitude":"51.495681","street":{"id":951144,"name":"On or near Ashwood Gardens"},"longitude":"-0.421761"},"context":"","outcome_status":{"category":"Offender sent to prison","date":"2017-01"},"persistent_id":"8b0199be9d34d5edc8468e9238b907828620969cd5ac9bf54ce765984fed5e2d","id":52763663,"location_subtype":"","month":"2016-10"},{"category":"public-order","location_type":"Force","location":{"latitude":"51.496002","street":{"id":951142,"name":"On or near Coronation Road"},"longitude":"-0.416924"},"context":"","outcome_status":{"category":"Court result unavailable","date":"2017-05"},"persistent_id":"2d60e6b98742274b45d1465cc3b3cbd288fd25176be7390b319406cf6fceb72a","id":52762144,"location_subtype":"","month":"2016-10"},{"category":"public-order","location_type":"Force","location":{"latitude":"51.495943","street":{"id":951137,"name":"On or near Phelps Way"},"longitude":"-0.419836"},"context":"","outcome_status":{"category":"Investigation complete; no suspect identified","date":"2016-12"},"persistent_id":"2e0b91aefd5d3609f760d88a14f03e5a8c0741dcd200b25bd90ce141b2d8a371","id":52761810,"location_subtype":"","month":"2016-10"},{"category":"public-order","location_type":"Force","location":{"latitude":"51.496073","street":{"id":951185,"name":"On or near Lundy Drive"},"longitude":"-0.424153"},"context":"","outcome_status":{"category":"Investigation complete; no suspect identified","date":"2016-11"},"persistent_id":"36bf750e3aeb09a326201a1994c0a2b6feed13c3207e3169dade678bc3ad24ac","id":52738852,"location_subtype":"","month":"2016-10"},{"category":"public-order","location_type":"Force","location":{"latitude":"51.500150","street":{"id":951441,"name":"On or near Seaton Road"},"longitude":"-0.436547"},"context":"","outcome_status":{"category":"Investigation complete; no suspect identified","date":"2016-11"},"persistent_id":"fd96c27597fae401d4ea12991a4c190b79d2f13b490192ea86dcc1bead37df39","id":52735040,"location_subtype":"","month":"2016-10"},{"category":"public-order","location_type":"Force","location":{"latitude":"51.497642","street":{"id":951476,"name":"On or near Crowland Avenue"},"longitude":"-0.423163"},"context":"","outcome_status":{"category":"Investigation complete; no suspect identified","date":"2016-11"},"persistent_id":"a97b5578979d4d093a572a432b409adf085f434edac229a4d3c8622b281c9461","id":52766571,"location_subtype":"","month":"2016-10"},{"category":"public-order","location_type":"Force","location":{"latitude":"51.495105","street":{"id":951181,"name":"On or near Carlton Avenue"},"longitude":"-0.429805"},"context":"","outcome_status":{"category":"Investigation complete; no suspect identified","date":"2016-12"},"persistent_id":"04893bbce2145fdc0e79e8d224d50b6dc4e4095aa962cdfe34f38a22d82a5ad8","id":52723639,"location_subtype":"","month":"2016-10"},{"category":"robbery","location_type":"Force","location":{"latitude":"51.501780","street":{"id":951439,"name":"On or near Waltham Avenue"},"longitude":"-0.435382"},"context":"","outcome_status":{"category":"Status update unavailable","date":"2017-02"},"persistent_id":"5a58616b07a636139cd9d6cf17d21240b0f6d1faefaa8ca189ef57ca4a1b8507","id":52735241,"location_subtype":"","month":"2016-10"},{"category":"robbery","location_type":"Force","location":{"latitude":"51.501780","street":{"id":951439,"name":"On or near Waltham Avenue"},"longitude":"-0.435382"},"context":"","outcome_status":{"category":"Status update unavailable","date":"2017-02"},"persistent_id":"5a58616b07a636139cd9d6cf17d21240b0f6d1faefaa8ca189ef57ca4a1b8507","id":52735242,"location_subtype":"","month":"2016-10"},{"category":"robbery","location_type":"Force","location":{"latitude":"51.496442","street":{"id":951541,"name":"On or near Cranford Drive"},"longitude":"-0.420841"},"context":"","outcome_status":{"category":"Status update unavailable","date":"2017-02"},"persistent_id":"7ce3214bd98b78742fc992880dcb49279acc0fb448be733197a5f23d1dbf6183","id":52763576,"location_subtype":"","month":"2016-10"},{"category":"robbery","location_type":"Force","location":{"latitude":"51.501780","street":{"id":951439,"name":"On or near Waltham Avenue"},"longitude":"-0.435382"},"context":"","outcome_status":{"category":"Investigation complete; no suspect identified","date":"2016-11"},"persistent_id":"5a58616b07a636139cd9d6cf17d21240b0f6d1faefaa8ca189ef57ca4a1b8507","id":52735243,"location_subtype":"","month":"2016-10"},{"category":"shoplifting","location_type":"Force","location":{"latitude":"51.501772","street":{"id":951421,"name":"On or near North Hyde Road"},"longitude":"-0.425383"},"context":"","outcome_status":{"category":"Investigation complete; no suspect identified","date":"2016-10"},"persistent_id":"dfd9590e01a78463e924a659f29cfe17637b900ace6ef1b377a66ad6015cd5e4","id":52746240,"location_subtype":"","month":"2016-10"},{"category":"shoplifting","location_type":"Force","location":{"latitude":"51.501772","street":{"id":951421,"name":"On or near North Hyde Road"},"longitude":"-0.425383"},"context":"","outcome_status":{"category":"Offender given penalty notice","date":"2016-10"},"persistent_id":"554787b8d3e30d5beaf16e48c693c66bf136e373259beb633c6ab7a2077a79e2","id":52715362,"location_subtype":"","month":"2016-10"},{"category":"shoplifting","location_type":"Force","location":{"latitude":"51.501772","street":{"id":951421,"name":"On or near North Hyde Road"},"longitude":"-0.425383"},"context":"","outcome_status":{"category":"Defendant found not guilty","date":"2017-07"},"persistent_id":"dbe3350e1d54e4935d5fb963195f5aa9a09e8afba06b7fab56c6fdc4022c221b","id":52739779,"location_subtype":"","month":"2016-10"},{"category":"shoplifting","location_type":"Force","location":{"latitude":"51.501772","street":{"id":951421,"name":"On or near North Hyde Road"},"longitude":"-0.425383"},"context":"","outcome_status":{"category":"Status update unavailable","date":"2017-02"},"persistent_id":"458f7acd7133a3a53066d68e3f9ea03605a27bfad5caf960b1d9c7f772bcea8f","id":52747044,"location_subtype":"","month":"2016-10"},{"category":"shoplifting","location_type":"Force","location":{"latitude":"51.501772","street":{"id":951421,"name":"On or near North Hyde Road"},"longitude":"-0.425383"},"context":"","outcome_status":{"category":"Investigation complete; no suspect identified","date":"2016-10"},"persistent_id":"e21800002f3de10fe2088ecd26e9fb10bebbecb10a8559a116ea531c39a35838","id":52739976,"location_subtype":"","month":"2016-10"},{"category":"shoplifting","location_type":"Force","location":{"latitude":"51.501772","street":{"id":951421,"name":"On or near North Hyde Road"},"longitude":"-0.425383"},"context":"","outcome_status":{"category":"Offender fined","date":"2016-10"},"persistent_id":"bd9fb206a117050070c35a2e298ee57c5dc2390fddeb10fa10c08b922533ab67","id":52742995,"location_subtype":"","month":"2016-10"},{"category":"shoplifting","location_type":"Force","location":{"latitude":"51.501772","street":{"id":951421,"name":"On or near North Hyde Road"},"longitude":"-0.425383"},"context":"","outcome_status":{"category":"Investigation complete; no suspect identified","date":"2017-04"},"persistent_id":"09ef0d8b144d3e62de9c7505c3d285212ed85962061ded47e42fe1450faf6216","id":52762080,"location_subtype":"","month":"2016-10"},{"category":"theft-from-the-person","location_type":"Force","location":{"latitude":"51.501772","street":{"id":951421,"name":"On or near North Hyde Road"},"longitude":"-0.425383"},"context":"","outcome_status":{"category":"Investigation complete; no suspect identified","date":"2016-10"},"persistent_id":"26fe5513f6e3d692ad7f9fdfebf487ba53e1bb10eefce96399762ce87c3e63d2","id":52778078,"location_subtype":"","month":"2016-10"},{"category":"vehicle-crime","location_type":"Force","location":{"latitude":"51.497592","street":{"id":951533,"name":"On or near Westlands Close"},"longitude":"-0.416148"},"context":"","outcome_status":{"category":"Investigation complete; no suspect identified","date":"2016-11"},"persistent_id":"2751967848514f04ddb9c85d044484c6858c3096f4b870c8a43cc07a14b558f2","id":52756215,"location_subtype":"","month":"2016-10"},{"category":"vehicle-crime","location_type":"Force","location":{"latitude":"51.502819","street":{"id":951444,"name":"On or near Guinness Close"},"longitude":"-0.431687"},"context":"","outcome_status":{"category":"Status update unavailable","date":"2017-02"},"persistent_id":"1f102e87053a577e7f0256c37469121225b598d65d858c530151d18717f770cd","id":52769716,"location_subtype":"","month":"2016-10"},{"category":"vehicle-crime","location_type":"Force","location":{"latitude":"51.495943","street":{"id":951137,"name":"On or near Phelps Way"},"longitude":"-0.419836"},"context":"","outcome_status":{"category":"Investigation complete; no suspect identified","date":"2016-10"},"persistent_id":"89798bcce01c474876952d1f60919f613bccb7f559f3ba726f564615cbef1c1f","id":52766261,"location_subtype":"","month":"2016-10"},{"category":"vehicle-crime","location_type":"Force","location":{"latitude":"51.498898","street":{"id":951469,"name":"On or near Clifford Gardens"},"longitude":"-0.430986"},"context":"","outcome_status":{"category":"Court case unable to proceed","date":"2016-11"},"persistent_id":"02e9f11702f9b034a4b0bc05079acdb27fb7525d1928d921f71a2e184f0f6213","id":52775512,"location_subtype":"","month":"2016-10"},{"category":"vehicle-crime","location_type":"Force","location":{"latitude":"51.498485","street":{"id":951475,"name":"On or near Monmouth Road"},"longitude":"-0.422961"},"context":"","outcome_status":{"category":"Investigation complete; no suspect identified","date":"2016-11"},"persistent_id":"f5b22e186942db5e9d9709e59fb7e44990cbfe8456cd99fcb3541eec19b91c58","id":52764393,"location_subtype":"","month":"2016-10"},{"category":"vehicle-crime","location_type":"Force","location":{"latitude":"51.496590","street":{"id":951478,"name":"On or near Clement Gardens"},"longitude":"-0.429206"},"context":"","outcome_status":{"category":"Status update unavailable","date":"2017-02"},"persistent_id":"922589d6e4d53e31c6ebf5986a97fba6165577cc21afd5124dd48bf4287ba5e0","id":52775108,"location_subtype":"","month":"2016-10"},{"category":"vehicle-crime","location_type":"Force","location":{"latitude":"51.495368","street":{"id":951148,"name":"On or near Roseville Road"},"longitude":"-0.413243"},"context":"","outcome_status":{"category":"Investigation complete; no suspect identified","date":"2016-11"},"persistent_id":"9a9036898477eef28f548c894e8199f2de94fc53b04c2d40ce9fbc0e40fe852b","id":52778286,"location_subtype":"","month":"2016-10"},{"category":"vehicle-crime","location_type":"Force","location":{"latitude":"51.495943","street":{"id":951137,"name":"On or near Phelps Way"},"longitude":"-0.419836"},"context":"","outcome_status":{"category":"Investigation complete; no suspect identified","date":"2016-11"},"persistent_id":"b05d01b7d3882a9306cf450ab12f2ad064c001f71390a37ea9654573f5ceeb0a","id":52747853,"location_subtype":"","month":"2016-10"},{"category":"vehicle-crime","location_type":"Force","location":{"latitude":"51.494341","street":{"id":951149,"name":"On or near Hillborne Close"},"longitude":"-0.414417"},"context":"","outcome_status":{"category":"Status update unavailable","date":"2017-02"},"persistent_id":"eee69c949347b21a835eb1b9f6f3abd1f93d503f375ec67fc66cfe27eed164f1","id":52694895,"location_subtype":"","month":"2016-10"},{"category":"vehicle-crime","location_type":"Force","location":{"latitude":"51.498991","street":{"id":951535,"name":"On or near Newhaven Close"},"longitude":"-0.419197"},"context":"","outcome_status":{"category":"Status update unavailable","date":"2017-02"},"persistent_id":"7cde71cf53e9ec89a99738074dd9ac5d6ad16f52492727c092395b84a974f520","id":52691088,"location_subtype":"","month":"2016-10"},{"category":"vehicle-crime","location_type":"Force","location":{"latitude":"51.496921","street":{"id":951462,"name":"On or near Waverley Close"},"longitude":"-0.431788"},"context":"","outcome_status":{"category":"Investigation complete; no suspect identified","date":"2016-10"},"persistent_id":"b37061af5df347620722c37b3917ddc88419c520fb33c114fde4c8920c395627","id":52732615,"location_subtype":"","month":"2016-10"},{"category":"vehicle-crime","location_type":"Force","location":{"latitude":"51.503907","street":{"id":951440,"name":"On or near Snowdon Crescent"},"longitude":"-0.439127"},"context":"","outcome_status":{"category":"Status update unavailable","date":"2017-02"},"persistent_id":"523e5497d146c6ded5831fcd0e422fc9cd972a5a07dd8d936d3e123161a52a3c","id":52761625,"location_subtype":"","month":"2016-10"},{"category":"vehicle-crime","location_type":"Force","location":{"latitude":"51.502729","street":{"id":951453,"name":"On or near Bourne Circus"},"longitude":"-0.441156"},"context":"","outcome_status":{"category":"Status update unavailable","date":"2017-02"},"persistent_id":"bdb5296fff1192b1e650c1c422571696ca8a8b01facc7d2db5ad37e780a95ae3","id":52757336,"location_subtype":"","month":"2016-10"},{"category":"vehicle-crime","location_type":"Force","location":{"latitude":"51.499156","street":{"id":951537,"name":"On or near Hyde Way"},"longitude":"-0.420099"},"context":"","outcome_status":{"category":"Offender otherwise dealt with","date":"2016-12"},"persistent_id":"2312ea0ed0a360840dd33b2cf2a70f3041dd7dc4d7fb55a58e8a02b1a3841338","id":52765384,"location_subtype":"","month":"2016-10"},{"category":"vehicle-crime","location_type":"Force","location":{"latitude":"51.498767","street":{"id":951474,"name":"On or near Redmead Road"},"longitude":"-0.427936"},"context":"","outcome_status":{"category":"Investigation complete; no suspect identified","date":"2016-11"},"persistent_id":"7e617f6a035cad0ca101f034e0e8d7c664b2fd15d3248902e968c33c00b62055","id":52756216,"location_subtype":"","month":"2016-10"},{"category":"vehicle-crime","location_type":"Force","location":{"latitude":"51.494571","street":{"id":951136,"name":"On or near St Dunstans Close"},"longitude":"-0.420157"},"context":"","outcome_status":{"category":"Investigation complete; no suspect identified","date":"2016-11"},"persistent_id":"e675e54e8d658ad137bb2bda4c805aca8fb3d7b0e8600dbc1eb906ec9cf516d4","id":52770242,"location_subtype":"","month":"2016-10"},{"category":"vehicle-crime","location_type":"Force","location":{"latitude":"51.495943","street":{"id":951137,"name":"On or near Phelps Way"},"longitude":"-0.419836"},"context":"","outcome_status":{"category":"Investigation complete; no suspect identified","date":"2016-10"},"persistent_id":"0bd321cdf3a63b2c134365d3e0ccf6a8830d8ec386ccb89be923c78d40382f06","id":52739941,"location_subtype":"","month":"2016-10"},{"category":"vehicle-crime","location_type":"Force","location":{"latitude":"51.500976","street":{"id":951448,"name":"On or near Colbrook Close"},"longitude":"-0.435741"},"context":"","outcome_status":{"category":"Offender sent to prison","date":"2016-10"},"persistent_id":"60a9f22faa653e1865ac74698a89525a9e743a42103afbb72527db6e13acb476","id":52743987,"location_subtype":"","month":"2016-10"},{"category":"vehicle-crime","location_type":"Force","location":{"latitude":"51.494637","street":{"id":951164,"name":"On or near Parking Area"},"longitude":"-0.431060"},"context":"","outcome_status":{"category":"Investigation complete; no suspect identified","date":"2016-11"},"persistent_id":"445ca5a3726caffc59262f09912de256ddfcb8d752ee4b132a51384e42d5a345","id":52731554,"location_subtype":"","month":"2016-10"},{"category":"violent-crime","location_type":"Force","location":{"latitude":"51.501772","street":{"id":951421,"name":"On or near North Hyde Road"},"longitude":"-0.425383"},"context":"","outcome_status":{"category":"Status update unavailable","date":"2017-02"},"persistent_id":"8ad4ec1c0a10d805ba5c100f4f9a61ad96f0ff1fcfa83a485e6d2b037032972e","id":52680645,"location_subtype":"","month":"2016-10"},{"category":"violent-crime","location_type":"Force","location":{"latitude":"51.495943","street":{"id":951137,"name":"On or near Phelps Way"},"longitude":"-0.419836"},"context":"","outcome_status":{"category":"Investigation complete; no suspect identified","date":"2016-12"},"persistent_id":"af062d9d5406d19df1f102766bfc8747a84433006635e45a3af8e6bf8b1ba801","id":52763577,"location_subtype":"","month":"2016-10"},{"category":"violent-crime","location_type":"Force","location":{"latitude":"51.496073","street":{"id":951185,"name":"On or near Lundy Drive"},"longitude":"-0.424153"},"context":"","outcome_status":{"category":"Status update unavailable","date":"2017-02"},"persistent_id":"73b0df103ba761bc88ae4d69d1adc7e74806786054a8400b30019625de5fb8d5","id":52754749,"location_subtype":"","month":"2016-10"},{"category":"violent-crime","location_type":"Force","location":{"latitude":"51.493751","street":{"id":951138,"name":"On or near Pemerich Close"},"longitude":"-0.420704"},"context":"","outcome_status":{"category":"Investigation complete; no suspect identified","date":"2017-05"},"persistent_id":"127fdbf910fba9e5a1f4ed9ea9c4890227c65f618ef76721608dcd833369016a","id":52714459,"location_subtype":"","month":"2016-10"},{"category":"violent-crime","location_type":"Force","location":{"latitude":"51.495415","street":{"id":951187,"name":"On or near Dickens Close"},"longitude":"-0.424694"},"context":"","outcome_status":{"category":"Investigation complete; no suspect identified","date":"2016-11"},"persistent_id":"77f155cf77d4a65accca00fc55696d09420bdb0d70bd86257233c519e2fc46d7","id":52693022,"location_subtype":"","month":"2016-10"},{"category":"violent-crime","location_type":"Force","location":{"latitude":"51.495773","street":{"id":951188,"name":"On or near Croyde Avenue"},"longitude":"-0.425302"},"context":"","outcome_status":{"category":"Status update unavailable","date":"2017-02"},"persistent_id":"f5471b5e578bb1772f80d5f30431554334520e556fcf6daeff705ea5b0840316","id":52776719,"location_subtype":"","month":"2016-10"},{"category":"violent-crime","location_type":"Force","location":{"latitude":"51.498767","street":{"id":951474,"name":"On or near Redmead Road"},"longitude":"-0.427936"},"context":"","outcome_status":{"category":"Status update unavailable","date":"2017-02"},"persistent_id":"dbe9553e8c9a46dc17d2cfe28db7a3154cb81d99d987a54444b13afcb54ae0fb","id":52739814,"location_subtype":"","month":"2016-10"},{"category":"violent-crime","location_type":"Force","location":{"latitude":"51.495943","street":{"id":951137,"name":"On or near Phelps Way"},"longitude":"-0.419836"},"context":"","outcome_status":{"category":"Investigation complete; no suspect identified","date":"2017-01"},"persistent_id":"8c1d3a414f141394fc21d9f47fe4d7cc182f80e95d1def9e109f9defd0b29a84","id":52747533,"location_subtype":"","month":"2016-10"},{"category":"violent-crime","location_type":"Force","location":{"latitude":"51.495773","street":{"id":951188,"name":"On or near Croyde Avenue"},"longitude":"-0.425302"},"context":"","outcome_status":{"category":"Defendant found not guilty","date":"2017-10"},"persistent_id":"f5471b5e578bb1772f80d5f30431554334520e556fcf6daeff705ea5b0840316","id":52776720,"location_subtype":"","month":"2016-10"},{"category":"violent-crime","location_type":"Force","location":{"latitude":"51.500150","street":{"id":951441,"name":"On or near Seaton Road"},"longitude":"-0.436547"},"context":"","outcome_status":{"category":"Investigation complete; no suspect identified","date":"2016-10"},"persistent_id":"72beacb4c96fe4af93bbd96a5b6e3c2183f039b9cbbca0e91a69faf1e53e14d0","id":52741033,"location_subtype":"","month":"2016-10"},{"category":"violent-crime","location_type":"Force","location":{"latitude":"51.497864","street":{"id":951464,"name":"On or near Pinkwell Lane"},"longitude":"-0.437043"},"context":"","outcome_status":{"category":"Court result unavailable","date":"2017-08"},"persistent_id":"fe3771fe69c2f02397fa486420bd6e927f62079ed15ba35075e46dd0b72f66e3","id":52761006,"location_subtype":"","month":"2016-10"},{"category":"violent-crime","location_type":"Force","location":{"latitude":"51.500920","street":{"id":951449,"name":"On or near Colbrook Avenue"},"longitude":"-0.433625"},"context":"","outcome_status":{"category":"Investigation complete; no suspect identified","date":"2016-10"},"persistent_id":"28e9fa212ca8fad8322ef9d93bc2e23455c37e95efbfb8571f40c9e60564801d","id":52761673,"location_subtype":"","month":"2016-10"},{"category":"violent-crime","location_type":"Force","location":{"latitude":"51.503273","street":{"id":951452,"name":"On or near Burnham Gardens"},"longitude":"-0.435360"},"context":"","outcome_status":{"category":"Investigation complete; no suspect identified","date":"2016-10"},"persistent_id":"46815b19b73118b7e66621d98637afc5ae020395fe945af49834d95dc1354ec9","id":52766349,"location_subtype":"","month":"2016-10"},{"category":"violent-crime","location_type":"Force","location":{"latitude":"51.500150","street":{"id":951441,"name":"On or near Seaton Road"},"longitude":"-0.436547"},"context":"","outcome_status":{"category":"Investigation complete; no suspect identified","date":"2017-01"},"persistent_id":"63f0939f039b16d340ee279d568d8bcce1acd0c34c197212a47f99fd68427c34","id":52776693,"location_subtype":"","month":"2016-10"},{"category":"violent-crime","location_type":"Force","location":{"latitude":"51.501772","street":{"id":951421,"name":"On or near North Hyde Road"},"longitude":"-0.425383"},"context":"","outcome_status":{"category":"Status update unavailable","date":"2017-02"},"persistent_id":"c2d67cc6ebf1d92b453d7e513ced53cf702f1edf7b910f706d43a13efc7614bf","id":52756136,"location_subtype":"","month":"2016-10"},{"category":"violent-crime","location_type":"Force","location":{"latitude":"51.497642","street":{"id":951476,"name":"On or near Crowland Avenue"},"longitude":"-0.423163"},"context":"","outcome_status":{"category":"Investigation complete; no suspect identified","date":"2016-11"},"persistent_id":"c663144369d3f65c8d1686435fcf164e22fb4d9fb01dcfbc0fb6be4ab2fe6ebf","id":52713244,"location_subtype":"","month":"2016-10"},{"category":"violent-crime","location_type":"Force","location":{"latitude":"51.501982","street":{"id":951445,"name":"On or near Glamis Crescent"},"longitude":"-0.439741"},"context":"","outcome_status":{"category":"Investigation complete; no suspect identified","date":"2016-11"},"persistent_id":"d7602c7df6534f81c72f9c63b2f4676a8b3594231d2f24466584e9d7bf91ba49","id":52777423,"location_subtype":"","month":"2016-10"},{"category":"violent-crime","location_type":"Force","location":{"latitude":"51.498898","street":{"id":951469,"name":"On or near Clifford Gardens"},"longitude":"-0.430986"},"context":"","outcome_status":{"category":"Status update unavailable","date":"2017-02"},"persistent_id":"453dba339d45bcbd0962e32b1dc2dc9a5cf9cb4289a1476ddf6addc88f10b5b2","id":52757474,"location_subtype":"","month":"2016-10"},{"category":"violent-crime","location_type":"Force","location":{"latitude":"51.497864","street":{"id":951464,"name":"On or near Pinkwell Lane"},"longitude":"-0.437043"},"context":"","outcome_status":{"category":"Investigation complete; no suspect identified","date":"2016-11"},"persistent_id":"8c24c38d727e052339571723d38f99646b12da0be0c65ab61aded01d5891442f","id":52719594,"location_subtype":"","month":"2016-10"},{"category":"violent-crime","location_type":"Force","location":{"latitude":"51.497108","street":{"id":951480,"name":"On or near Bedwell Gardens"},"longitude":"-0.426912"},"context":"","outcome_status":{"category":"Status update unavailable","date":"2017-02"},"persistent_id":"3d1645c40fc78118e32ba0679f93c8781784e0ca10a156d162761ee7c0bfd092","id":52761664,"location_subtype":"","month":"2016-10"},{"category":"violent-crime","location_type":"Force","location":{"latitude":"51.502729","street":{"id":951453,"name":"On or near Bourne Circus"},"longitude":"-0.441156"},"context":"","outcome_status":{"category":"Offender sent to prison","date":"2017-04"},"persistent_id":"540411dcc1a469b2c43ec6a3f2c1ae81bae59a3d5681a82c43241136e39d515d","id":52761998,"location_subtype":"","month":"2016-10"},{"category":"violent-crime","location_type":"Force","location":{"latitude":"51.502729","street":{"id":951453,"name":"On or near Bourne Circus"},"longitude":"-0.441156"},"context":"","outcome_status":{"category":"Investigation complete; no suspect identified","date":"2016-11"},"persistent_id":"918899a97c2aec6415bd516cd1ed5dc02e56d52b036c3161c5b05ec650e82d02","id":52726851,"location_subtype":"","month":"2016-10"},{"category":"violent-crime","location_type":"Force","location":{"latitude":"51.497864","street":{"id":951464,"name":"On or near Pinkwell Lane"},"longitude":"-0.437043"},"context":"","outcome_status":{"category":"Investigation complete; no suspect identified","date":"2016-11"},"persistent_id":"8bfb0ff285d837176a50dd872e541ed8d5789565819fd8021aff17ca7ef40788","id":52762671,"location_subtype":"","month":"2016-10"},{"category":"violent-crime","location_type":"Force","location":{"latitude":"51.494854","street":{"id":951189,"name":"On or near Cleave Avenue"},"longitude":"-0.425794"},"context":"","outcome_status":{"category":"Investigation complete; no suspect identified","date":"2016-11"},"persistent_id":"5e6b4b666e4162551e475b8d14b381482ad73d613303db943beb2ffa4899631e","id":52753041,"location_subtype":"","month":"2016-10"},{"category":"violent-crime","location_type":"Force","location":{"latitude":"51.501780","street":{"id":951439,"name":"On or near Waltham Avenue"},"longitude":"-0.435382"},"context":"","outcome_status":{"category":"Investigation complete; no suspect identified","date":"2016-11"},"persistent_id":"63be38be41dec34ae76a2722ed7367baf9200801e29c669b99f719a2d09f045a","id":52752869,"location_subtype":"","month":"2016-10"},{"category":"violent-crime","location_type":"Force","location":{"latitude":"51.496073","street":{"id":951185,"name":"On or near Lundy Drive"},"longitude":"-0.424153"},"context":"","outcome_status":{"category":"Investigation complete; no suspect identified","date":"2017-01"},"persistent_id":"72b61249a248992d18f0b3a12a40ce9f43f66fc33d380638073d3626e407e57b","id":52752585,"location_subtype":"","month":"2016-10"},{"category":"violent-crime","location_type":"Force","location":{"latitude":"51.497642","street":{"id":951476,"name":"On or near Crowland Avenue"},"longitude":"-0.423163"},"context":"","outcome_status":{"category":"Investigation complete; no suspect identified","date":"2016-11"},"persistent_id":"512ee519b1c38950c52e99c245dcb9768abc30b9b53fdc0c997b9139dae2e1df","id":52757388,"location_subtype":"","month":"2016-10"},{"category":"violent-crime","location_type":"Force","location":{"latitude":"51.501340","street":{"id":951417,"name":"On or near Station Road"},"longitude":"-0.424000"},"context":"","outcome_status":{"category":"Status update unavailable","date":"2017-02"},"persistent_id":"e86aa5bf413ff7bb7003d54eab26edaeffee2499cbe7520528b31aaf37527277","id":52773713,"location_subtype":"","month":"2016-10"},{"category":"violent-crime","location_type":"Force","location":{"latitude":"51.497864","street":{"id":951464,"name":"On or near Pinkwell Lane"},"longitude":"-0.437043"},"context":"","outcome_status":{"category":"Investigation complete; no suspect identified","date":"2016-11"},"persistent_id":"649b86c7a950106b51fecede271cb41149c1b0fdb8e0604e27b88f7e717c062c","id":52725362,"location_subtype":"","month":"2016-10"},{"category":"violent-crime","location_type":"Force","location":{"latitude":"51.501780","street":{"id":951439,"name":"On or near Waltham Avenue"},"longitude":"-0.435382"},"context":"","outcome_status":{"category":"Investigation complete; no suspect identified","date":"2017-01"},"persistent_id":"2c617e14e31e836db037a48403732f7945a02980628b296fc9bb3de407d05d40","id":52754785,"location_subtype":"","month":"2016-10"},{"category":"violent-crime","location_type":"Force","location":{"latitude":"51.494341","street":{"id":951149,"name":"On or near Hillborne Close"},"longitude":"-0.414417"},"context":"","outcome_status":{"category":"Investigation complete; no suspect identified","date":"2016-10"},"persistent_id":"c4f4cc003d8cc698716c1745138abd628c5b27d9358b5d5ed7206dfadd51f3dc","id":52719656,"location_subtype":"","month":"2016-10"},{"category":"other-crime","location_type":"Force","location":{"latitude":"51.494746","street":{"id":951143,"name":"On or near Carfax Road"},"longitude":"-0.416449"},"context":"","outcome_status":{"category":"Investigation complete; no suspect identified","date":"2016-11"},"persistent_id":"c8cd4bd0ca63ddd3fb2fc17aa77e82af2650269156cd1dcd942d0a5356e01a12","id":52769954,"location_subtype":"","month":"2016-10"},{"category":"other-crime","location_type":"Force","location":{"latitude":"51.496924","street":{"id":951543,"name":"On or near Wyre Grove"},"longitude":"-0.415264"},"context":"","outcome_status":{"category":"Investigation complete; no suspect identified","date":"2016-11"},"persistent_id":"a0994ec351e9b3108fb864f4188e617f8b82be7f54f1502da1f79e536decccae","id":52757217,"location_subtype":"","month":"2016-10"},{"category":"other-crime","location_type":"Force","location":{"latitude":"51.495105","street":{"id":951181,"name":"On or near Carlton Avenue"},"longitude":"-0.429805"},"context":"","outcome_status":{"category":"Status update unavailable","date":"2017-02"},"persistent_id":"04893bbce2145fdc0e79e8d224d50b6dc4e4095aa962cdfe34f38a22d82a5ad8","id":52722652,"location_subtype":"","month":"2016-10"}]