[{"category":"anti-social-behaviour","location_type":"Force","location":{"latitude":"51.445775","street":{"id":939451,"name":"On or near Winfrith Road"},"longitude":"-0.186284"},"context":"","outcome_status":null,"persistent_id":"","id":51512255,"location_subtype":"","month":"2016-09"},{"category":"anti-social-behaviour","location_type":"Force","location":{"latitude":"51.433298","street":{"id":937788,"name":"On or near Petrol Station"},"longitude":"-0.184807"},"context":"","outcome_status":null,"persistent_id":"","id":51512250,"location_subtype":"","month":"2016-09"},{"category":"anti-social-behaviour","location_type":"Force","location":{"latitude":"51.449194","street":{"id":939462,"name":"On or near Twilley Street"},"longitude":"-0.191603"},"context":"","outcome_status":null,"persistent_id":"","id":51512468,"location_subtype":"","month":"2016-09"},{"category":"anti-social-behaviour","location_type":"Force","location":{"latitude":"51.446640","street":{"id":939482,"name":"On or near Bendon Valley"},"longitude":"-0.191013"},"context":"","outcome_status":null,"persistent_id":"","id":51512464,"location_subtype":"","month":"2016-09"},{"category":"anti-social-behaviour","location_type":"Force","location":{"latitude":"51.447830","street":{"id":939468,"name":"On or near Lydden Grove"},"longitude":"-0.191829"},"context":"","outcome_status":null,"persistent_id":"","id":51512463,"location_subtype":"","month":"2016-09"},{"category":"anti-social-behaviour","location_type":"Force","location":{"latitude":"51.449194","street":{"id":939462,"name":"On or near Twilley Street"},"longitude":"-0.191603"},"context":"","outcome_status":null,"persistent_id":"","id":51512462,"location_subtype":"","month":"2016-09"},{"category":"anti-social-behaviour","location_type":"Force","location":{"latitude":"51.449194","street":{"id":939462,"name":"On or near Twilley Street"},"longitude":"-0.191603"},"context":"","outcome_status":null,"persistent_id":"","id":51512461,"location_subtype":"","month":"2016-09"},{"category":"anti-social-behaviour","location_type":"Force","location":{"latitude":"51.449194","street":{"id":939462,"name":"On or near Twilley Street"},"longitude":"-0.191603"},"context":"","outcome_status":null,"persistent_id":"","id":51512460,"location_subtype":"","month":"2016-09"},{"category":"anti-social-behaviour","location_type":"Force","location":{"latitude":"51.445347","street":{"id":939460,"name":"On or near Wandle Way"},"longitude":"-0.191150"},"context":"","outcome_status":null,"persistent_id":"","id":51512459,"location_subtype":"","month":"2016-09"},{"category":"anti-social-behaviour","location_type":"Force","location":{"latitude":"51.449962","street":{"id":939558,"name":"On or near Esparto Street"},"longitude":"-0.190680"},"context":"","outcome_status":null,"persistent_id":"","id":51512458,"location_subtype":"","month":"2016-09"},{"category":"anti-social-behaviour","location_type":"Force","location":{"latitude":"51.449962","street":{"id":939558,"name":"On or near Esparto Street"},"longitude":"-0.190680"},"context":"","outcome_status":null,"persistent_id":"","id":51512457,"location_subtype":"","month":"2016-09"},{"category":"anti-social-behaviour","location_type":"Force","location":{"latitude":"51.445458","street":{"id":939461,"name":"On or near Vanderbilt Road"},"longitude":"-0.187893"},"context":"","outcome_status":null,"persistent_id":"","id":51512445,"location_subtype":"","month":"2016-09"},{"category":"anti-social-behaviour","location_type":"Force","location":{"latitude":"51.445458","street":{"id":939461,"name":"On or near Vanderbilt Road"},"longitude":"-0.187893"},"context":"","outcome_status":null,"persistent_id":"","id":51512446,"location_subtype":"","month":"2016-09"},{"category":"anti-social-behaviour","location_type":"Force","location":{"latitude":"51.442588","street":{"id":939522,"name":"On or near Penwith Road"},"longitude":"-0.189504"},"context":"","outcome_status":null,"persistent_id":"","id":51512447,"location_subtype":"","month":"2016-09"},{"category":"anti-social-behaviour","location_type":"Force","location":{"latitude":"51.445826","street":{"id":939472,"name":"On or near Haldane Place"},"longitude":"-0.190728"},"context":"","outcome_status":null,"persistent_id":"","id":51512452,"location_subtype":"","month":"2016-09"},{"category":"anti-social-behaviour","location_type":"Force","location":{"latitude":"51.449962","street":{"id":939558,"name":"On or near Esparto Street"},"longitude":"-0.190680"},"context":"","outcome_status":null,"persistent_id":"","id":51512455,"location_subtype":"","month":"2016-09"},{"category":"anti-social-behaviour","location_type":"Force","location":{"latitude":"51.449962","street":{"id":939558,"name":"On or near Esparto Street"},"longitude":"-0.190680"},"context":"","outcome_status":null,"persistent_id":"","id":51512456,"location_subtype":"","month":"2016-09"},{"category":"anti-social-behaviour","location_type":"Force","location":{"latitude":"51.445458","street":{"id":939461,"name":"On or near Vanderbilt Road"},"longitude":"-0.187893"},"context":"","outcome_status":null,"persistent_id":"","id":51512444,"location_subtype":"","month":"2016-09"},{"category":"anti-social-behaviour","location_type":"Force","location":{"latitude":"51.445458","street":{"id":939461,"name":"On or near Vanderbilt Road"},"longitude":"-0.187893"},"context":"","outcome_status":null,"persistent_id":"","id":51512443,"location_subtype":"","month":"2016-09"},{"category":"anti-social-behaviour","location_type":"Force","location":{"latitude":"51.445458","street":{"id":939461,"name":"On or near Vanderbilt Road"},"longitude":"-0.187893"},"context":"","outcome_status":null,"persistent_id":"","id":51512442,"location_subtype":"","month":"2016-09"},{"category":"anti-social-behaviour","location_type":"Force","location":{"latitude":"51.433535","street":{"id":937772,"name":"On or near Rosemary Road"},"longitude":"-0.188524"},"context":"","outcome_status":null,"persistent_id":"","id":51512439,"location_subtype":"","month":"2016-09"},{"category":"anti-social-behaviour","location_type":"Force","location":{"latitude":"51.441112","street":{"id":939512,"name":"On or near Garratt Lane"},"longitude":"-0.187116"},"context":"","outcome_status":null,"persistent_id":"","id":51512438,"location_subtype":"","month":"2016-09"},{"category":"anti-social-behaviour","location_type":"Force","location":{"latitude":"51.441112","street":{"id":939512,"name":"On or near Garratt Lane"},"longitude":"-0.187116"},"context":"","outcome_status":null,"persistent_id":"","id":51512437,"location_subtype":"","month":"2016-09"},{"category":"anti-social-behaviour","location_type":"Force","location":{"latitude":"51.441112","street":{"id":939512,"name":"On or near Garratt Lane"},"longitude":"-0.187116"},"context":"","outcome_status":null,"persistent_id":"","id":51512435,"location_subtype":"","month":"2016-09"},{"category":"anti-social-behaviour","location_type":"Force","location":{"latitude":"51.441112","street":{"id":939512,"name":"On or near Garratt Lane"},"longitude":"-0.187116"},"context":"","outcome_status":null,"persistent_id":"","id":51512433,"location_subtype":"","month":"2016-09"},{"category":"bicycle-theft","location_type":"Force","location":{"latitude":"51.441112","street":{"id":939512,"name":"On or near Garratt Lane"},"longitude":"-0.187116"},"context":"","outcome_status":{"category":"Status update unavailable","date":"2017-01"},"persistent_id":"f61c5b182e64339ed241a598cb2264251cb6af7113795facc7d61fc98c531d2e","id":51552008,"location_subtype":"","month":"2016-09"},{"category":"bicycle-theft","location_type":"Force","location":{"latitude":"51.437652","street":{"id":937762,"name":"On or near Weybourne Street"},"longitude":"-0.187843"},"context":"","outcome_status":{"category":"Status update unavailable","date":"2017-01"},"persistent_id":"9025380e3c381227dea8b2d82ad66f8d4c885d84e96500628a4318d814068fa2","id":51578073,"location_subtype":"","month":"2016-09"},{"category":"bicycle-theft","location_type":"Force","location":{"latitude":"51.437652","street":{"id":937762,"name":"On or near Weybourne Street"},"longitude":"-0.187843"},"context":"","outcome_status":{"category":"Status update unavailable","date":"2017-01"},"persistent_id":"9025380e3c381227dea8b2d82ad66f8d4c885d84e96500628a4318d814068fa2","id":51578072,"location_subtype":"","month":"2016-09"},{"category":"bicycle-theft","location_type":"Force","location":{"latitude":"51.434581","street":{"id":937780,"name":"On or near Hopwood Close"},"longitude":"-0.182900"},"context":"","outcome_status":{"category":"Status update unavailable","date":"2017-01"},"persistent_id":"1c099476e5a77503bae0a43c331c06fb706ffda171aa94717188eb0c0ed91422","id":51585942,"location_subtype":"","month":"2016-09"},{"category":"bicycle-theft","location_type":"Force","location":{"latitude":"51.449962","street":{"id":939558,"name":"On or near Esparto Street"},"longitude":"-0.190680"},"context":"","outcome_status":{"category":"Investigation complete; no suspect identified","date":"2016-09"},"persistent_id":"1950070ce1d89a2265ead9e1a6ac85df3b57b5a4ce039dcd34e51fca4fe554f6","id":51590367,"location_subtype":"","month":"2016-09"},{"category":"bicycle-theft","location_type":"Force","location":{"latitude":"51.445826","street":{"id":939472,"name":"On or near Haldane Place"},"longitude":"-0.190728"},"context":"","outcome_status":{"category":"Investigation complete; no suspect identified","date":"2017-04"},"persistent_id":"c0ebf5e9b45eb78dafb867482559a1f109376f3025015a049b990535e7ed7124","id":51577334,"location_subtype":"","month":"2016-09"},{"category":"bicycle-theft","location_type":"BTP","location":{"latitude":"51.442500","street":{"id":1487950,"name":"Earlsfield (station)"},"longitude":"-0.187159"},"context":"","outcome_status":{"category":"Status update unavailable","date":"2017-01"},"persistent_id":"","id":66334878,"location_subtype":"STATION","month":"2016-09"},{"category":"bicycle-theft","location_type":"Force","location":{"latitude":"51.445458","street":{"id":939461,"name":"On or near Vanderbilt Road"},"longitude":"-0.187893"},"context":"","outcome_status":{"category":"Investigation complete; no suspect identified","date":"2016-09"},"persistent_id":"737af1a3effb61473070fd6d2b920c988bd186741c7c580d3466615bdc8a8fbe","id":51567093,"location_subtype":"","month":"2016-09"},{"category":"bicycle-theft","location_type":"Force","location":{"latitude":"51.449340","street":{"id":939463,"name":"On or near Swaffield Road"},"longitude":"-0.188244"},"context":"","outcome_status":{"category":"Status update unavailable","date":"2017-01"},"persistent_id":"29b287fffe957cee240c20ec5020a74ffd65bfa2f6ae375f3d946ed5179aaaf6","id":51555922,"location_subtype":"","month":"2016-09"},{"category":"burglary","location_type":"Force","location":{"latitude":"51.439690","street":{"id":937806,"name":"On or near Dawnay Road"},"longitude":"-0.180668"},"context":"","outcome_status":{"category":"Status update unavailable","date":"2017-01"},"persistent_id":"93759ff6d76199c295582d54237af2e4e2c17fdea8376afa1670dbb476d2bf06","id":51575485,"location_subtype":"","month":"2016-09"},{"category":"burglary","location_type":"Force","location":{"latitude":"51.449340","street":{"id":939463,"name":"On or near Swaffield Road"},"longitude":"-0.188244"},"context":"","outcome_status":{"category":"Investigation complete; no suspect identified","date":"2017-03"},"persistent_id":"9f38f11ee2bde5788e21ce1589cdcf07d1f205357dd90df32fe8e19984b6f8c9","id":51571073,"location_subtype":"","month":"2016-09"},{"category":"burglary","location_type":"Force","location":{"latitude":"51.440509","street":{"id":939517,"name":"On or near Swaby Road"},"longitude":"-0.183024"},"context":"","outcome_status":{"category":"Status update unavailable","date":"2017-01"},"persistent_id":"9bc9bc7d396eda5019de54d55e0de47272f5327948bd8186cc825340314ba392","id":51554912,"location_subtype":"","month":"2016-09"},{"category":"burglary","location_type":"Force","location":{"latitude":"51.446020","street":{"id":939483,"name":"On or near Atheldene Road"},"longitude":"-0.188173"},"context":"","outcome_status":{"category":"Investigation complete; no suspect identified","date":"2016-09"},"persistent_id":"5aab7ed218ed66e61d49505b2775c931e629040e9be898df9f42720001bdbe12","id":51553052,"location_subtype":"","month":"2016-09"},{"category":"burglary","location_type":"Force","location":{"latitude":"51.449293","street":{"id":939469,"name":"On or near Kingham Close"},"longitude":"-0.186403"},"context":"","outcome_status":{"category":"Investigation complete; no suspect identified","date":"2017-02"},"persistent_id":"099de9e51831be078dc3443e9007db2ceac50c0bcb7a12d840aa210fcb106926","id":51536938,"location_subtype":"","month":"2016-09"},{"category":"burglary","location_type":"Force","location":{"latitude":"51.443679","street":{"id":939530,"name":"On or near Algarve Road"},"longitude":"-0.188554"},"context":"","outcome_status":{"category":"Investigation complete; no suspect identified","date":"2016-10"},"persistent_id":"66e6ade47c43af112d2f381ab24052eb865454b797d2754bdfbf8746a7cf0241","id":51591378,"location_subtype":"","month":"2016-09"},{"category":"burglary","location_type":"Force","location":{"latitude":"51.440426","street":{"id":939514,"name":"On or near Waynflete Street"},"longitude":"-0.185200"},"context":"","outcome_status":{"category":"Investigation complete; no suspect identified","date":"2016-09"},"persistent_id":"5a45976cb4fd798ba6fdabbb531eb88c99016492240adec50469877c92f8b5a6","id":51583691,"location_subtype":"","month":"2016-09"},{"category":"burglary","location_type":"Force","location":{"latitude":"51.446640","street":{"id":939482,"name":"On or near Bendon Valley"},"longitude":"-0.191013"},"context":"","outcome_status":{"category":"Investigation complete; no suspect identified","date":"2016-11"},"persistent_id":"f2a8fb246f10cb97700cc2511ceed1a097cd168713f3699a147570cf3025c509","id":51583463,"location_subtype":"","month":"2016-09"},{"category":"burglary","location_type":"Force","location":{"latitude":"51.440509","street":{"id":939517,"name":"On or near Swaby Road"},"longitude":"-0.183024"},"context":"","outcome_status":{"category":"Status update unavailable","date":"2017-01"},"persistent_id":"820c04ad2e41e6c620380345c340ebcfb50612739466a34d3fdc0a13319568c9","id":51553742,"location_subtype":"","month":"2016-09"},{"category":"burglary","location_type":"Force","location":{"latitude":"51.442182","street":{"id":939516,"name":"On or near Thornsett Road"},"longitude":"-0.189405"},"context":"","outcome_status":{"category":"Investigation complete; no suspect identified","date":"2016-09"},"persistent_id":"1b65d5cc6f731609dd166bfaecdb462214ea571bbce447a3fe3f878df5081a76","id":51589334,"location_subtype":"","month":"2016-09"},{"category":"criminal-damage-arson","location_type":"Force","location":{"latitude":"51.439043","street":{"id":937767,"name":"On or near Thorndean Street"},"longitude":"-0.187673"},"context":"","outcome_status":{"category":"Offender given community sentence","date":"2016-11"},"persistent_id":"0a1205d2837c90647ff06b3ae44386402cf62657bf31a412051d9cc279b832f3","id":51535618,"location_subtype":"","month":"2016-09"},{"category":"criminal-damage-arson","location_type":"Force","location":{"latitude":"51.445347","street":{"id":939460,"name":"On or near Wandle Way"},"longitude":"-0.191150"},"context":"","outcome_status":{"category":"Status update unavailable","date":"2017-01"},"persistent_id":"64880e0ae5e4acc9fce1f8217cdc5dfe52fa0a26ca2a410fc168639b70aa2ad9","id":51564141,"location_subtype":"","month":"2016-09"},{"category":"criminal-damage-arson","location_type":"Force","location":{"latitude":"51.447830","street":{"id":939468,"name":"On or near Lydden Grove"},"longitude":"-0.191829"},"context":"","outcome_status":{"category":"Investigation complete; no suspect identified","date":"2016-10"},"persistent_id":"14db826da1595b26b1b2907b5405919688074a0a927711e080dcd736e2745786","id":51551318,"location_subtype":"","month":"2016-09"},{"category":"criminal-damage-arson","location_type":"Force","location":{"latitude":"51.438397","street":{"id":937777,"name":"On or near Littleton Street"},"longitude":"-0.184274"},"context":"","outcome_status":{"category":"Status update unavailable","date":"2017-01"},"persistent_id":"bc280ab0534702843b6f3424d574d71c34720453a560a0d40854b8260d0c9bb0","id":51592735,"location_subtype":"","month":"2016-09"},{"category":"criminal-damage-arson","location_type":"Force","location":{"latitude":"51.443547","street":{"id":939527,"name":"On or near Duntshill Road"},"longitude":"-0.191034"},"context":"","outcome_status":{"category":"Status update unavailable","date":"2017-01"},"persistent_id":"3129ffb94700c0ac9a1102b8533614c5600d9d361e88c6177b4d11165b20e3c3","id":51590744,"location_subtype":"","month":"2016-09"},{"category":"criminal-damage-arson","location_type":"Force","location":{"latitude":"51.440942","street":{"id":939542,"name":"On or near Openview"},"longitude":"-0.180201"},"context":"","outcome_status":{"category":"Investigation complete; no suspect identified","date":"2016-10"},"persistent_id":"fdfe16f1579a720e4d89a0510d7a9e0ab25cc0b83d372d6b5a0b9ffa78c8a394","id":51534410,"location_subtype":"","month":"2016-09"},{"category":"criminal-damage-arson","location_type":"Force","location":{"latitude":"51.434266","street":{"id":937801,"name":"On or near Strathdon Drive"},"longitude":"-0.178798"},"context":"","outcome_status":{"category":"Status update unavailable","date":"2017-01"},"persistent_id":"deb74bd88a873bd469d19a2a15f77109202fbeafae8457e88d23e04e083c52da","id":51577590,"location_subtype":"","month":"2016-09"},{"category":"drugs","location_type":"Force","location":{"latitude":"51.445458","street":{"id":939461,"name":"On or near Vanderbilt Road"},"longitude":"-0.187893"},"context":"","outcome_status":{"category":"Offender given community sentence","date":"2016-10"},"persistent_id":"d0ec39ad52180ef2f9c49d4091c7dd5b55fe4f1ea4d37c08c38a88e1914350e1","id":51539164,"location_subtype":"","month":"2016-09"},{"category":"drugs","location_type":"Force","location":{"latitude":"51.441112","street":{"id":939512,"name":"On or near Garratt Lane"},"longitude":"-0.187116"},"context":"","outcome_status":{"category":"Court result unavailable","date":"2017-03"},"persistent_id":"53bcd29ee2ee1ee58e0cba6ff28860a532f0dd132ead617660d63a14b0d25dce","id":51574302,"location_subtype":"","month":"2016-09"},{"category":"other-theft","location_type":"Force","location":{"latitude":"51.434407","street":{"id":937787,"name":"On or near Aldren Road"},"longitude":"-0.184446"},"context":"","outcome_status":{"category":"Investigation complete; no suspect identified","date":"2016-11"},"persistent_id":"7acebaf65ec02865773342d7d724c199cc386a4b4cca610477d3f1e453be0b99","id":51534309,"location_subtype":"","month":"2016-09"},{"category":"other-theft","location_type":"Force","location":{"latitude":"51.449962","street":{"id":939558,"name":"On or near Esparto Street"},"longitude":"-0.190680"},"context":"","outcome_status":{"category":"Status update unavailable","date":"2017-01"},"persistent_id":"ed30b70599905a370ddd4f5f5450790c54455828aa05041ab006501ed73ac66b","id":51580544,"location_subtype":"","month":"2016-09"},{"category":"other-theft","location_type":"Force","location":{"latitude":"51.442588","street":{"id":939522,"name":"On or near Penwith Road"},"longitude":"-0.189504"},"context":"","outcome_status":{"category":"Investigation complete; no suspect identified","date":"2016-10"},"persistent_id":"69a24ddb7d5981add74b31acea2b6202b2fcae79b489ba38978aef61393162c5","id":51565606,"location_subtype":"","month":"2016-09"},{"category":"other-theft","location_type":"Force","location":{"latitude":"51.441304","street":{"id":939529,"name":"On or near Bremans Row"},"longitude":"-0.186734"},"context":"","outcome_status":{"category":"Status update unavailable","date":"2017-01"},"persistent_id":"a1e1125bad14c994f169fcb82aace3fb918eba403f3c621a4ec3deecfebc5825","id":51531468,"location_subtype":"","month":"2016-09"},{"category":"other-theft","location_type":"Force","location":{"latitude":"51.447863","street":{"id":939475,"name":"On or near Eton Close"},"longitude":"-0.189871"},"context":"","outcome_status":{"category":"Investigation complete; no suspect identified","date":"2016-09"},"persistent_id":"3d220419088a3a7c4db604cd1d3ff5443018ad4c24c480eb04395c3a7f48bbe3","id":51563159,"location_subtype":"","month":"2016-09"},{"category":"other-theft","location_type":"Force","location":{"latitude":"51.439043","street":{"id":937767,"name":"On or near Thorndean Street"},"longitude":"-0.187673"},"context":"","outcome_status":{"category":"Status update unavailable","date":"2017-01"},"persistent_id":"2c78f4b7a97f693e4d9c85ebeea00e0079a5ea58714896d8be3fdc0cb504f992","id":51535102,"location_subtype":"","month":"2016-09"},{"category":"other-theft","location_type":"Force","location":{"latitude":"51.437652","street":{"id":937762,"name":"On or near Weybourne Street"},"longitude":"-0.187843"},"context":"","outcome_status":{"category":"Investigation complete; no suspect identified","date":"2016-09"},"persistent_id":"1911e93169ea7199a3dea631f75f89f54eafa2198b7be5144b1e6800ecad676d","id":51576350,"location_subtype":"","month":"2016-09"},{"category":"other-theft","location_type":"Force","location":{"latitude":"51.437484","street":{"id":937764,"name":"On or near Waldron Road"},"longitude":"-0.184511"},"context":"","outcome_status":{"category":"Investigation complete; no suspect identified","date":"2016-09"},"persistent_id":"c29fc9772390cca40005367e2e0d2d0f58a384a26640c9ae80cd25865e79a9b3","id":51563267,"location_subtype":"","month":"2016-09"},{"category":"public-order","location_type":"Force","location":{"latitude":"51.447258","street":{"id":939459,"name":"On or near Wardley Street"},"longitude":"-0.189693"},"context":"","outcome_status":{"category":"Court result unavailable","date":"2017-03"},"persistent_id":"2d990d390a9603831bd49dd160584e64006b05d364edb5e28c4a37d7f35df30e","id":51553558,"location_subtype":"","month":"2016-09"},{"category":"public-order","location_type":"Force","location":{"latitude":"51.437459","street":{"id":937791,"name":"On or near Police Station"},"longitude":"-0.187016"},"context":"","outcome_status":{"category":"Investigation complete; no suspect identified","date":"2016-11"},"persistent_id":"f400330b82921885774ce7cfbc9c911b0ee407b7e0b9780f877d7b2439612e56","id":51558902,"location_subtype":"","month":"2016-09"},{"category":"public-order","location_type":"Force","location":{"latitude":"51.432448","street":{"id":937756,"name":"On or near Summerstown"},"longitude":"-0.185085"},"context":"","outcome_status":{"category":"Investigation complete; no suspect identified","date":"2016-09"},"persistent_id":"b145312082681fa7458ce6fdcada19fa2fb37f149047c8b1e1bf864746a6dd9e","id":51586897,"location_subtype":"","month":"2016-09"},{"category":"public-order","location_type":"Force","location":{"latitude":"51.445347","street":{"id":939460,"name":"On or near Wandle Way"},"longitude":"-0.191150"},"context":"","outcome_status":{"category":"Status update unavailable","date":"2017-01"},"persistent_id":"1160cce628dc49dd869a4214bdcae21d541fb345fec9dbbad3dc18996119bdb0","id":51555380,"location_subtype":"","month":"2016-09"},{"category":"public-order","location_type":"Force","location":{"latitude":"51.439403","street":{"id":937807,"name":"On or near Dawnay Gardens"},"longitude":"-0.180680"},"context":"","outcome_status":{"category":"Investigation complete; no suspect identified","date":"2016-11"},"persistent_id":"d89af1f2e56807942164cd54b5a8ebd60ee266a1ab985585a3bf09d0fa5f7bf9","id":51534251,"location_subtype":"","month":"2016-09"},{"category":"public-order","location_type":"Force","location":{"latitude":"51.447830","street":{"id":939468,"name":"On or near Lydden Grove"},"longitude":"-0.191829"},"context":"","outcome_status":{"category":"Court result unavailable","date":"2017-06"},"persistent_id":"fe1b955add1a9f45c332aa1e33488e1e7b4bdb8a5f91dd36286787b117045c01","id":51551768,"location_subtype":"","month":"2016-09"},{"category":"shoplifting","location_type":"Force","location":{"latitude":"51.447863","street":{"id":939475,"name":"On or near Eton Close"},"longitude":"-0.189871"},"context":"","outcome_status":{"category":"Investigation complete; no suspect identified","date":"2016-10"},"persistent_id":"2237fd2d3ce6f802c8cc06bbbd847663bf34c7664545117e4622aa764aac83d1","id":51588266,"location_subtype":"","month":"2016-09"},{"category":"shoplifting","location_type":"Force","location":{"latitude":"51.441304","street":{"id":939529,"name":"On or near Bremans Row"},"longitude":"-0.186734"},"context":"","outcome_status":{"category":"Investigation complete; no suspect identified","date":"2016-10"},"persistent_id":"5748f6d57a7f689bb9de6a23f03c4ef852cd4b802a9d8659b84e613208635629","id":51584446,"location_subtype":"","month":"2016-09"},{"category":"theft-from-the-person","location_type":"Force","location":{"latitude":"51.433298","street":{"id":937788,"name":"On or near Petrol Station"},"longitude":"-0.184807"},"context":"","outcome_status":{"category":"Investigation complete; no suspect identified","date":"2016-09"},"persistent_id":"436c96c2c71a23bfb9adc5c4d15b6acea0a5f46947da1c1c66280da0ba5e3f43","id":51573831,"location_subtype":"","month":"2016-09"},{"category":"vehicle-crime","location_type":"Force","location":{"latitude":"51.439565","street":{"id":937778,"name":"On or near Isis Street"},"longitude":"-0.185335"},"context":"","outcome_status":{"category":"Investigation complete; no suspect identified","date":"2017-01"},"persistent_id":"ce7d867af5069127dd50af9773eeb392ac23db92b0406e1b9a8e3dcd8841f159","id":51545337,"location_subtype":"","month":"2016-09"},{"category":"vehicle-crime","location_type":"Force","location":{"latitude":"51.444195","street":{"id":939455,"name":"On or near Willow Tree Close"},"longitude":"-0.188749"},"context":"","outcome_status":{"category":"Status update unavailable","date":"2017-01"},"persistent_id":"a7013d3397d8e6a930f4263ab2a30259d415b1e6360fb383f6e4adc2a0e54d87","id":51584330,"location_subtype":"","month":"2016-09"},{"category":"vehicle-crime","location_type":"Force","location":{"latitude":"51.445775","street":{"id":939451,"name":"On or near Winfrith Road"},"longitude":"-0.186284"},"context":"","outcome_status":{"category":"Investigation complete; no suspect identified","date":"2016-09"},"persistent_id":"19ea5e0d9f9fecca12e012376e0ad91398d30674335497d246c5d147f1b087aa","id":51572101,"location_subtype":"","month":"2016-09"},{"category":"vehicle-crime","location_type":"Force","location":{"latitude":"51.434144","street":{"id":937785,"name":"On or near Burmester Road"},"longitude":"-0.183723"},"context":"","outcome_status":{"category":"Status update unavailable","date":"2017-01"},"persistent_id":"bba57cfdda6536ce90a3340c6e824ec561b53ac13de8a20c74d3f6541a136cbf","id":51591846,"location_subtype":"","month":"2016-09"},{"category":"vehicle-crime","location_type":"Force","location":{"latitude":"51.434144","street":{"id":937785,"name":"On or near Burmester Road"},"longitude":"-0.183723"},"context":"","outcome_status":{"category":"Status update unavailable","date":"2017-01"},"persistent_id":"26898c9650bed16ede0aa5c0d43e661aa149b19aa6505c8ed88c1e596af2146e","id":51588500,"location_subtype":"","month":"2016-09"},{"category":"vehicle-crime","location_type":"Force","location":{"latitude":"51.440426","street":{"id":939514,"name":"On or near Waynflete Street"},"longitude":"-0.185200"},"context":"","outcome_status":{"category":"Status update unavailable","date":"2017-01"},"persistent_id":"6e4a542fc31a4d40266d66dd5bf4b7e76477995dd80f4ea57da732d8d3a6c8ff","id":51578875,"location_subtype":"","month":"2016-09"},{"category":"vehicle-crime","location_type":"Force","location":{"latitude":"51.446320","street":{"id":939452,"name":"On or near Winfrith Road"},"longitude":"-0.186636"},"context":"","outcome_status":{"category":"Court result unavailable","date":"2017-06"},"persistent_id":"a040ef2375f4238f836f3a96f441fc6ff92659d5a8278baa5656c881159911f0","id":51578386,"location_subtype":"","month":"2016-09"},{"category":"vehicle-crime","location_type":"Force","location":{"latitude":"51.439565","street":{"id":937778,"name":"On or near Isis Street"},"longitude":"-0.185335"},"context":"","outcome_status":{"category":"Status update unavailable","date":"2017-01"},"persistent_id":"b8705a9c1b740b499af40ff127f632934d68de1036ea4e8434d2c693752b1031","id":51573749,"location_subtype":"","month":"2016-09"},{"category":"vehicle-crime","location_type":"Force","location":{"latitude":"51.435868","street":{"id":937802,"name":"On or near St George's Grove"},"longitude":"-0.177756"},"context":"","outcome_status":{"category":"Status update unavailable","date":"2017-01"},"persistent_id":"3a91f9c505df1b2530747ecf1755f5c34264de179393b34ee8200db656fb8ab3","id":51557114,"location_subtype":"","month":"2016-09"},{"category":"vehicle-crime","location_type":"Force","location":{"latitude":"51.435868","street":{"id":937802,"name":"On or near St George's Grove"},"longitude":"-0.177756"},"context":"","outcome_status":{"category":"Status update unavailable","date":"2017-01"},"persistent_id":"3a91f9c505df1b2530747ecf1755f5c34264de179393b34ee8200db656fb8ab3","id":51557113,"location_subtype":"","month":"2016-09"},{"category":"vehicle-crime","location_type":"Force","location":{"latitude":"51.432385","street":{"id":937758,"name":"On or near Keble Street"},"longitude":"-0.183951"},"context":"","outcome_status":{"category":"Status update unavailable","date":"2017-01"},"persistent_id":"8547970aa0b638f716009837025d558697377cd7d70651f040f6ff9b173c2251","id":51550012,"location_subtype":"","month":"2016-09"},{"category":"vehicle-crime","location_type":"Force","location":{"latitude":"51.440358","street":{"id":939519,"name":"On or near St Andrew's Court"},"longitude":"-0.186067"},"context":"","outcome_status":{"category":"Investigation complete; no suspect identified","date":"2016-10"},"persistent_id":"dd6af26fafe94414779fcd73acc406d01c4e4627d624110f5914a0e076324d85","id":51534466,"location_subtype":"","month":"2016-09"},{"category":"vehicle-crime","location_type":"Force","location":{"latitude":"51.449876","street":{"id":939507,"name":"On or near Aslett Street"},"longitude":"-0.188611"},"context":"","outcome_status":{"category":"Status update unavailable","date":"2017-01"},"persistent_id":"4c1864e726c4c8ea5ea1a992a71e6cfd5cb712c4d408b68f18f0407ee0f74a61","id":51534341,"location_subtype":"","month":"2016-09"},{"category":"vehicle-crime","location_type":"Force","location":{"latitude":"51.445775","street":{"id":939451,"name":"On or near Winfrith Road"},"longitude":"-0.186284"},"context":"","outcome_status":{"category":"Status update unavailable","date":"2017-01"},"persistent_id":"12a75e613012f9ccac006e13e2a4f5aa7d9e77c41dbff3871ddab81437c6f056","id":51534168,"location_subtype":"","month":"2016-09"},{"category":"vehicle-crime","location_type":"Force","location":{"latitude":"51.444124","street":{"id":939526,"name":"On or near Earlsfield Road"},"longitude":"-0.187083"},"context":"","outcome_status":{"category":"Status update unavailable","date":"2017-01"},"persistent_id":"9874dbb7d3f090b0e1c6857b8d7bf2a03d23bf4f62a08d128e3dd14d2e094ac0","id":51534017,"location_subtype":"","month":"2016-09"},{"category":"vehicle-crime","location_type":"Force","location":{"latitude":"51.445775","street":{"id":939451,"name":"On or near Winfrith Road"},"longitude":"-0.186284"},"context":"","outcome_status":{"category":"Status update unavailable","date":"2017-01"},"persistent_id":"343f1718e0d670282846a16666e6e440db0869bd1ec9fe1906338e22298cbe04","id":51539707,"location_subtype":"","month":"2016-09"},{"category":"vehicle-crime","location_type":"Force","location":{"latitude":"51.447830","street":{"id":939468,"name":"On or near Lydden Grove"},"longitude":"-0.191829"},"context":"","outcome_status":{"category":"Status update unavailable","date":"2017-01"},"persistent_id":"df7ff1d33d9574c774e8ee4835237fa7a6bdcce13f94506999eead8c46eb7166","id":51539438,"location_subtype":"","month":"2016-09"},{"category":"violent-crime","location_type":"Force","location":{"latitude":"51.447830","street":{"id":939468,"name":"On or near Lydden Grove"},"longitude":"-0.191829"},"context":"","outcome_status":{"category":"Investigation complete; no suspect identified","date":"2016-11"},"persistent_id":"acf35eb4b794b65e6fd05e93cd4d797f625893f74967b93c1d2b15e8013f9d5e","id":51571450,"location_subtype":"","month":"2016-09"},{"category":"violent-crime","location_type":"Force","location":{"latitude":"51.441304","street":{"id":939529,"name":"On or near Bremans Row"},"longitude":"-0.186734"},"context":"","outcome_status":{"category":"Investigation complete; no suspect identified","date":"2016-09"},"persistent_id":"cc1ad3718a60c7ef3073b9aeaca7fcf97d6db18499fae2c7f3b4c2b98a393504","id":51565323,"location_subtype":"","month":"2016-09"},{"category":"violent-crime","location_type":"Force","location":{"latitude":"51.442987","street":{"id":939556,"name":"On or near Sports\/recreation Area"},"longitude":"-0.181573"},"context":"","outcome_status":{"category":"Investigation complete; no suspect identified","date":"2016-09"},"persistent_id":"07df4012689fc15f50382195c85426398c9425d19a09b86c9aba74632c3aee1c","id":51576458,"location_subtype":"","month":"2016-09"},{"category":"violent-crime","location_type":"Force","location":{"latitude":"51.444195","street":{"id":939455,"name":"On or near Willow Tree Close"},"longitude":"-0.188749"},"context":"","outcome_status":{"category":"Investigation complete; no suspect identified","date":"2016-09"},"persistent_id":"2a8a4c5a45f21bd6e95bde03a1428ecf6976bc56a3f91d5891da1a7fd043d09f","id":51540803,"location_subtype":"","month":"2016-09"},{"category":"violent-crime","location_type":"Force","location":{"latitude":"51.443547","street":{"id":939527,"name":"On or near Duntshill Road"},"longitude":"-0.191034"},"context":"","outcome_status":{"category":"Investigation complete; no suspect identified","date":"2016-10"},"persistent_id":"a0865f6377ef8830e6f3a79b2ebd3dd2be12a1f2a8ae32a63e94fc9f073ecafd","id":51542148,"location_subtype":"","month":"2016-09"},{"category":"violent-crime","location_type":"Force","location":{"latitude":"51.438492","street":{"id":937768,"name":"On or near Steerforth Street"},"longitude":"-0.187493"},"context":"","outcome_status":{"category":"Status update unavailable","date":"2017-01"},"persistent_id":"7047bb1d603e25a23efafcd79beab265d235e012362e13282d68e35ec4af1d12","id":51540515,"location_subtype":"","month":"2016-09"},{"category":"violent-crime","location_type":"Force","location":{"latitude":"51.441112","street":{"id":939512,"name":"On or near Garratt Lane"},"longitude":"-0.187116"},"context":"","outcome_status":{"category":"Status update unavailable","date":"2017-01"},"persistent_id":"53bcd29ee2ee1ee58e0cba6ff28860a532f0dd132ead617660d63a14b0d25dce","id":51572151,"location_subtype":"","month":"2016-09"},{"category":"violent-crime","location_type":"Force","location":{"latitude":"51.446020","street":{"id":939483,"name":"On or near Atheldene Road"},"longitude":"-0.188173"},"context":"","outcome_status":{"category":"Investigation complete; no suspect identified","date":"2016-10"},"persistent_id":"c4eeb3698da21be0c558ab7cc08842218739dbe3271a89928be64cc0027a9ae9","id":51592245,"location_subtype":"","month":"2016-09"},{"category":"violent-crime","location_type":"Force","location":{"latitude":"51.441454","street":{"id":939545,"name":"On or near Headington Road"},"longitude":"-0.181937"},"context":"","outcome_status":{"category":"Investigation complete; no suspect identified","date":"2016-09"},"persistent_id":"32c92fe849c8e2ec06ca60b2ef5e5d4a775323f56287bf82089957550359be1e","id":51579679,"location_subtype":"","month":"2016-09"},{"category":"violent-crime","location_type":"Force","location":{"latitude":"51.434451","street":{"id":937776,"name":"On or near Maskell Road"},"longitude":"-0.186689"},"context":"","outcome_status":{"category":"Offender sent to prison","date":"2016-10"},"persistent_id":"cf9f80e1511a547891e101c1b113031ff5a8a5e7b4502ead438dfefa9dd2d475","id":51562661,"location_subtype":"","month":"2016-09"},{"category":"violent-crime","location_type":"Force","location":{"latitude":"51.434451","street":{"id":937776,"name":"On or near Maskell Road"},"longitude":"-0.186689"},"context":"","outcome_status":{"category":"Status update unavailable","date":"2017-01"},"persistent_id":"6f05e051daa05183d771072d79d5cde50d3e44f2d8a711e34b2a2d92377a5abc","id":51580035,"location_subtype":"","month":"2016-09"},{"category":"violent-crime","location_type":"Force","location":{"latitude":"51.447830","street":{"id":939468,"name":"On or near Lydden Grove"},"longitude":"-0.191829"},"context":"","outcome_status":{"category":"Court result unavailable","date":"2017-03"},"persistent_id":"ffb765bee6a7a2b1aa72001578cc3be68403823480e5ea059483e2e2f7901d23","id":51581283,"location_subtype":"","month":"2016-09"},{"category":"violent-crime","location_type":"Force","location":{"latitude":"51.438492","street":{"id":937768,"name":"On or near Steerforth Street"},"longitude":"-0.187493"},"context":"","outcome_status":{"category":"Court case unable to proceed","date":"2016-11"},"persistent_id":"7047bb1d603e25a23efafcd79beab265d235e012362e13282d68e35ec4af1d12","id":51540516,"location_subtype":"","month":"2016-09"},{"category":"violent-crime","location_type":"Force","location":{"latitude":"51.434451","street":{"id":937776,"name":"On or near Maskell Road"},"longitude":"-0.186689"},"context":"","outcome_status":{"category":"Investigation complete; no suspect identified","date":"2018-05"},"persistent_id":"e2d2901f4fd8a24baac73f11869759a9d5922863f1b6c90ab372bce3195948e4","id":51559311,"location_subtype":"","month":"2016-09"},{"category":"violent-crime","location_type":"Force","location":{"latitude":"51.435868","street":{"id":937802,"name":"On or near St George's Grove"},"longitude":"-0.177756"},"context":"","outcome_status":{"category":"Investigation complete; no suspect identified","date":"2016-12"},"persistent_id":"d4ab685cd6a69f1ac5a4b5aaf6fdcebffc04aeee3c50c5e127b2c29f7f126dfa","id":51590711,"location_subtype":"","month":"2016-09"},{"category":"violent-crime","location_type":"Force","location":{"latitude":"51.447830","street":{"id":939468,"name":"On or near Lydden Grove"},"longitude":"-0.191829"},"context":"","outcome_status":{"category":"Court result unavailable","date":"2018-05"},"persistent_id":"79ec8e66706e2203c6edb6f3054f9d4c757e3b7c269df517effbb6b06ef6eb81","id":51592814,"location_subtype":"","month":"2016-09"},{"category":"violent-crime","location_type":"Force","location":{"latitude":"51.441112","street":{"id":939512,"name":"On or near Garratt Lane"},"longitude":"-0.187116"},"context":"","outcome_status":{"category":"Investigation complete; no suspect identified","date":"2016-10"},"persistent_id":"8d0fe305e02a3ceb37ed324fa739b0914d6d6c59cbc7fad801c9efb6b4330938","id":51578299,"location_subtype":"","month":"2016-09"},{"category":"violent-crime","location_type":"Force","location":{"latitude":"51.434144","street":{"id":937785,"name":"On or near Burmester Road"},"longitude":"-0.183723"},"context":"","outcome_status":{"category":"Investigation complete; no suspect identified","date":"2018-01"},"persistent_id":"59a7f29ce50dbfe5b625bcc1e0218580c98a022c4b850cfc39e5bde039ceb7e2","id":51591903,"location_subtype":"","month":"2016-09"},{"category":"violent-crime","location_type":"Force","location":{"latitude":"51.435020","street":{"id":937805,"name":"On or near Deeside Road"},"longitude":"-0.179904"},"context":"","outcome_status":{"category":"Investigation complete; no suspect identified","date":"2016-11"},"persistent_id":"898ff3c6d06717d20daa3197534ae44fea6e3b984d17e512d8db2cf1371b31d5","id":51536996,"location_subtype":"","month":"2016-09"},{"category":"violent-crime","location_type":"Force","location":{"latitude":"51.437459","street":{"id":937791,"name":"On or near Police Station"},"longitude":"-0.187016"},"context":"","outcome_status":{"category":"Investigation complete; no suspect identified","date":"2016-10"},"persistent_id":"8648b10033cf9d813d1faceb2cf57c51a24daeccaeaace27bb2946255b4dcaf6","id":51590972,"location_subtype":"","month":"2016-09"},{"category":"violent-crime","location_type":"Force","location":{"latitude":"51.444667","street":{"id":939464,"name":"On or near St John's Drive"},"longitude":"-0.191379"},"context":"","outcome_status":{"category":"Offender given conditional discharge","date":"2016-10"},"persistent_id":"97ca55655e5f28b6defddd6c14a3e3bcf06532bfb719549e884bcfb7be5084db","id":51573596,"location_subtype":"","month":"2016-09"},{"category":"violent-crime","location_type":"Force","location":{"latitude":"51.448851","street":{"id":939470,"name":"On or near Kimber Road"},"longitude":"-0.190940"},"context":"","outcome_status":{"category":"Investigation complete; no suspect identified","date":"2017-03"},"persistent_id":"48c26c4e5a0bbd5a02f5c5ffb16ecf370d5de59dcd317c45f190367cf8ebfc9d","id":51571045,"location_subtype":"","month":"2016-09"},{"category":"violent-crime","location_type":"Force","location":{"latitude":"51.447258","street":{"id":939459,"name":"On or near Wardley Street"},"longitude":"-0.189693"},"context":"","outcome_status":{"category":"Investigation complete; no suspect identified","date":"2017-08"},"persistent_id":"fd0da8ef2a8df3159257292fbf6b1124b81297003b3ecd6870b36c0edc6d2406","id":51542413,"location_subtype":"","month":"2016-09"},{"category":"violent-crime","location_type":"Force","location":{"latitude":"51.440509","street":{"id":939517,"name":"On or near Swaby Road"},"longitude":"-0.183024"},"context":"","outcome_status":{"category":"Investigation complete; no suspect identified","date":"2017-08"},"persistent_id":"074043d8371ca114dd7a1dd38410d1319756ca826786090a7622d7f759dedbb3","id":51566600,"location_subtype":"","month":"2016-09"},{"category":"violent-crime","location_type":"Force","location":{"latitude":"51.443679","street":{"id":939530,"name":"On or near Algarve Road"},"longitude":"-0.188554"},"context":"","outcome_status":{"category":"Investigation complete; no suspect identified","date":"2017-08"},"persistent_id":"bab51aff221cc40eb87d7cb6a981d2615a4ab814544b1820a62016571e62fbd7","id":51543773,"location_subtype":"","month":"2016-09"},{"category":"violent-crime","location_type":"Force","location":{"latitude":"51.434144","street":{"id":937785,"name":"On or near Burmester Road"},"longitude":"-0.183723"},"context":"","outcome_status":{"category":"Status update unavailable","date":"2017-01"},"persistent_id":"71bc4c3cc5ebdee40b1b010a0fe98f567f694811cef3b096ba24f901155dbcab","id":51533784,"location_subtype":"","month":"2016-09"},{"category":"violent-crime","location_type":"Force","location":{"latitude":"51.441809","street":{"id":939525,"name":"On or near Groton Road"},"longitude":"-0.189160"},"context":"","outcome_status":{"category":"Status update unavailable","date":"2017-01"},"persistent_id":"6a414159162b648bcceb6c39d4f2a6fce113ab1fa39d86eadb891e3c337101d2","id":51552743,"location_subtype":"","month":"2016-09"},{"category":"violent-crime","location_type":"Force","location":{"latitude":"51.450693","street":{"id":939503,"name":"On or near Crealock Street"},"longitude":"-0.187974"},"context":"","outcome_status":{"category":"Court result unavailable","date":"2017-03"},"persistent_id":"808c4f137535316ab88d0dd53705a77c72f5295aeaff23ea514f0ec3b80eb056","id":51556509,"location_subtype":"","month":"2016-09"},{"category":"violent-crime","location_type":"Force","location":{"latitude":"51.442588","street":{"id":939522,"name":"On or near Penwith Road"},"longitude":"-0.189504"},"context":"","outcome_status":{"category":"Investigation complete; no suspect identified","date":"2016-09"},"persistent_id":"4b00e8aa637070e68e3f4ffc4cb96b08f3af53de84599a9a6b83c03dfb0c06d3","id":51561740,"location_subtype":"","month":"2016-09"},{"category":"violent-crime","location_type":"Force","location":{"latitude":"51.442588","street":{"id":939522,"name":"On or near Penwith Road"},"longitude":"-0.189504"},"context":"","outcome_status":{"category":"Status update unavailable","date":"2017-01"},"persistent_id":"dc611e483ba89a37d9cedb6b0a6145bdb2a3489e32f66a1ea62a848c0215ae8d","id":51566755,"location_subtype":"","month":"2016-09"},{"category":"violent-crime","location_type":"Force","location":{"latitude":"51.442588","street":{"id":939522,"name":"On or near Penwith Road"},"longitude":"-0.189504"},"context":"","outcome_status":{"category":"Status update unavailable","date":"2017-01"},"persistent_id":"dc611e483ba89a37d9cedb6b0a6145bdb2a3489e32f66a1ea62a848c0215ae8d","id":51565853,"location_subtype":"","month":"2016-09"}]