[{"category":"anti-social-behaviour","location_type":"Force","location":{"latitude":"51.567781","street":{"id":972606,"name":"On or near Tudor Close"},"longitude":"-0.263924"},"context":"","outcome_status":null,"persistent_id":"","id":51515005,"location_subtype":"","month":"2016-09"},{"category":"anti-social-behaviour","location_type":"Force","location":{"latitude":"51.571064","street":{"id":972656,"name":"On or near Church Lane"},"longitude":"-0.262731"},"context":"","outcome_status":null,"persistent_id":"","id":51514996,"location_subtype":"","month":"2016-09"},{"category":"anti-social-behaviour","location_type":"Force","location":{"latitude":"51.560420","street":{"id":972705,"name":"On or near Lawrence Way"},"longitude":"-0.262949"},"context":"","outcome_status":null,"persistent_id":"","id":51514995,"location_subtype":"","month":"2016-09"},{"category":"anti-social-behaviour","location_type":"Force","location":{"latitude":"51.564238","street":{"id":972635,"name":"On or near Blackbird Hill"},"longitude":"-0.262082"},"context":"","outcome_status":null,"persistent_id":"","id":51514990,"location_subtype":"","month":"2016-09"},{"category":"anti-social-behaviour","location_type":"Force","location":{"latitude":"51.564238","street":{"id":972635,"name":"On or near Blackbird Hill"},"longitude":"-0.262082"},"context":"","outcome_status":null,"persistent_id":"","id":51514989,"location_subtype":"","month":"2016-09"},{"category":"anti-social-behaviour","location_type":"Force","location":{"latitude":"51.564238","street":{"id":972635,"name":"On or near Blackbird Hill"},"longitude":"-0.262082"},"context":"","outcome_status":null,"persistent_id":"","id":51514988,"location_subtype":"","month":"2016-09"},{"category":"anti-social-behaviour","location_type":"Force","location":{"latitude":"51.564238","street":{"id":972635,"name":"On or near Blackbird Hill"},"longitude":"-0.262082"},"context":"","outcome_status":null,"persistent_id":"","id":51514987,"location_subtype":"","month":"2016-09"},{"category":"anti-social-behaviour","location_type":"Force","location":{"latitude":"51.566140","street":{"id":923781,"name":"On or near Old Church Lane"},"longitude":"-0.262370"},"context":"","outcome_status":null,"persistent_id":"","id":51514984,"location_subtype":"","month":"2016-09"},{"category":"anti-social-behaviour","location_type":"Force","location":{"latitude":"51.572108","street":{"id":972657,"name":"On or near Church Drive"},"longitude":"-0.260945"},"context":"","outcome_status":null,"persistent_id":"","id":51514980,"location_subtype":"","month":"2016-09"},{"category":"anti-social-behaviour","location_type":"Force","location":{"latitude":"51.559356","street":{"id":967227,"name":"On or near Birse Crescent"},"longitude":"-0.251838"},"context":"","outcome_status":null,"persistent_id":"","id":51514898,"location_subtype":"","month":"2016-09"},{"category":"anti-social-behaviour","location_type":"Force","location":{"latitude":"51.563575","street":{"id":972675,"name":"On or near Aboyne Road"},"longitude":"-0.254345"},"context":"","outcome_status":null,"persistent_id":"","id":51514922,"location_subtype":"","month":"2016-09"},{"category":"anti-social-behaviour","location_type":"Force","location":{"latitude":"51.561083","street":{"id":972696,"name":"On or near Jackman Mews"},"longitude":"-0.253690"},"context":"","outcome_status":null,"persistent_id":"","id":51514923,"location_subtype":"","month":"2016-09"},{"category":"anti-social-behaviour","location_type":"Force","location":{"latitude":"51.561083","street":{"id":972696,"name":"On or near Jackman Mews"},"longitude":"-0.253690"},"context":"","outcome_status":null,"persistent_id":"","id":51514924,"location_subtype":"","month":"2016-09"},{"category":"anti-social-behaviour","location_type":"Force","location":{"latitude":"51.561083","street":{"id":972696,"name":"On or near Jackman Mews"},"longitude":"-0.253690"},"context":"","outcome_status":null,"persistent_id":"","id":51514925,"location_subtype":"","month":"2016-09"},{"category":"anti-social-behaviour","location_type":"Force","location":{"latitude":"51.561083","street":{"id":972696,"name":"On or near Jackman Mews"},"longitude":"-0.253690"},"context":"","outcome_status":null,"persistent_id":"","id":51514926,"location_subtype":"","month":"2016-09"},{"category":"anti-social-behaviour","location_type":"Force","location":{"latitude":"51.557949","street":{"id":967231,"name":"On or near Petrol Station"},"longitude":"-0.253998"},"context":"","outcome_status":null,"persistent_id":"","id":51514927,"location_subtype":"","month":"2016-09"},{"category":"anti-social-behaviour","location_type":"Force","location":{"latitude":"51.563575","street":{"id":972675,"name":"On or near Aboyne Road"},"longitude":"-0.254345"},"context":"","outcome_status":null,"persistent_id":"","id":51514931,"location_subtype":"","month":"2016-09"},{"category":"anti-social-behaviour","location_type":"Force","location":{"latitude":"51.561392","street":{"id":972694,"name":"On or near Neasden Lane North"},"longitude":"-0.255698"},"context":"","outcome_status":null,"persistent_id":"","id":51514935,"location_subtype":"","month":"2016-09"},{"category":"anti-social-behaviour","location_type":"Force","location":{"latitude":"51.562803","street":{"id":972660,"name":"On or near Press Road"},"longitude":"-0.256900"},"context":"","outcome_status":null,"persistent_id":"","id":51514938,"location_subtype":"","month":"2016-09"},{"category":"anti-social-behaviour","location_type":"Force","location":{"latitude":"51.565738","street":{"id":972667,"name":"On or near Harp Island Close"},"longitude":"-0.258346"},"context":"","outcome_status":null,"persistent_id":"","id":51514942,"location_subtype":"","month":"2016-09"},{"category":"anti-social-behaviour","location_type":"Force","location":{"latitude":"51.565738","street":{"id":972667,"name":"On or near Harp Island Close"},"longitude":"-0.258346"},"context":"","outcome_status":null,"persistent_id":"","id":51514943,"location_subtype":"","month":"2016-09"},{"category":"anti-social-behaviour","location_type":"Force","location":{"latitude":"51.558585","street":{"id":967220,"name":"On or near Village Way"},"longitude":"-0.256210"},"context":"","outcome_status":null,"persistent_id":"","id":51514945,"location_subtype":"","month":"2016-09"},{"category":"anti-social-behaviour","location_type":"Force","location":{"latitude":"51.567373","street":{"id":972659,"name":"On or near Runbury Circle"},"longitude":"-0.258182"},"context":"","outcome_status":null,"persistent_id":"","id":51514947,"location_subtype":"","month":"2016-09"},{"category":"anti-social-behaviour","location_type":"Force","location":{"latitude":"51.572550","street":{"id":972684,"name":"On or near Doreen Avenue"},"longitude":"-0.258042"},"context":"","outcome_status":null,"persistent_id":"","id":51514948,"location_subtype":"","month":"2016-09"},{"category":"anti-social-behaviour","location_type":"Force","location":{"latitude":"51.572550","street":{"id":972684,"name":"On or near Doreen Avenue"},"longitude":"-0.258042"},"context":"","outcome_status":null,"persistent_id":"","id":51514949,"location_subtype":"","month":"2016-09"},{"category":"anti-social-behaviour","location_type":"Force","location":{"latitude":"51.563112","street":{"id":972665,"name":"On or near Kelly Close"},"longitude":"-0.258316"},"context":"","outcome_status":null,"persistent_id":"","id":51514950,"location_subtype":"","month":"2016-09"},{"category":"anti-social-behaviour","location_type":"Force","location":{"latitude":"51.563112","street":{"id":972665,"name":"On or near Kelly Close"},"longitude":"-0.258316"},"context":"","outcome_status":null,"persistent_id":"","id":51514951,"location_subtype":"","month":"2016-09"},{"category":"anti-social-behaviour","location_type":"Force","location":{"latitude":"51.574743","street":{"id":974303,"name":"On or near Kingsmead Avenue"},"longitude":"-0.258564"},"context":"","outcome_status":null,"persistent_id":"","id":51514964,"location_subtype":"","month":"2016-09"},{"category":"anti-social-behaviour","location_type":"Force","location":{"latitude":"51.572726","street":{"id":972683,"name":"On or near Dors Close"},"longitude":"-0.258988"},"context":"","outcome_status":null,"persistent_id":"","id":51514966,"location_subtype":"","month":"2016-09"},{"category":"anti-social-behaviour","location_type":"Force","location":{"latitude":"51.561549","street":{"id":972692,"name":"On or near Verney Street"},"longitude":"-0.259645"},"context":"","outcome_status":null,"persistent_id":"","id":51514968,"location_subtype":"","month":"2016-09"},{"category":"anti-social-behaviour","location_type":"Force","location":{"latitude":"51.559356","street":{"id":967227,"name":"On or near Birse Crescent"},"longitude":"-0.251838"},"context":"","outcome_status":null,"persistent_id":"","id":51523343,"location_subtype":"","month":"2016-09"},{"category":"anti-social-behaviour","location_type":"Force","location":{"latitude":"51.570314","street":{"id":972652,"name":"On or near Dunster Drive"},"longitude":"-0.265516"},"context":"","outcome_status":null,"persistent_id":"","id":51515024,"location_subtype":"","month":"2016-09"},{"category":"anti-social-behaviour","location_type":"Force","location":{"latitude":"51.567781","street":{"id":972606,"name":"On or near Tudor Close"},"longitude":"-0.263924"},"context":"","outcome_status":null,"persistent_id":"","id":51515006,"location_subtype":"","month":"2016-09"},{"category":"anti-social-behaviour","location_type":"Force","location":{"latitude":"51.569686","street":{"id":972640,"name":"On or near Wells Drive"},"longitude":"-0.261355"},"context":"","outcome_status":null,"persistent_id":"","id":51514998,"location_subtype":"","month":"2016-09"},{"category":"bicycle-theft","location_type":"Force","location":{"latitude":"51.564729","street":{"id":972669,"name":"On or near Braemar Avenue"},"longitude":"-0.257605"},"context":"","outcome_status":{"category":"Investigation complete; no suspect identified","date":"2016-09"},"persistent_id":"413939dd5bca4bfdd6689add28701141cc592d461526b544af731cd9e63d4c07","id":51564443,"location_subtype":"","month":"2016-09"},{"category":"burglary","location_type":"Force","location":{"latitude":"51.574482","street":{"id":974288,"name":"On or near Queensbury Road"},"longitude":"-0.260407"},"context":"","outcome_status":{"category":"Investigation complete; no suspect identified","date":"2017-02"},"persistent_id":"1711e285b5668f41a173885d4def6d9f8d8dfb8f1155d91fd828ba9fb63ef2c6","id":51558522,"location_subtype":"","month":"2016-09"},{"category":"burglary","location_type":"Force","location":{"latitude":"51.560515","street":{"id":972690,"name":"On or near West Way"},"longitude":"-0.257824"},"context":"","outcome_status":{"category":"Status update unavailable","date":"2017-01"},"persistent_id":"fa47119674d503aa0d9ff4d0175ffd36284525545a6921164870597c08e6db39","id":51570583,"location_subtype":"","month":"2016-09"},{"category":"burglary","location_type":"Force","location":{"latitude":"51.562284","street":{"id":972695,"name":"On or near Neasden Lane North"},"longitude":"-0.257020"},"context":"","outcome_status":{"category":"Investigation complete; no suspect identified","date":"2017-02"},"persistent_id":"4270b9098fa069829a899f4511b4e134dbf1ebf95fa9c8e20ff3eb3580d9275d","id":51565497,"location_subtype":"","month":"2016-09"},{"category":"burglary","location_type":"Force","location":{"latitude":"51.573505","street":{"id":974295,"name":"On or near Wood Lane"},"longitude":"-0.256966"},"context":"","outcome_status":{"category":"Offender sent to prison","date":"2016-10"},"persistent_id":"c81a492ddc3ab57cb2518827a3942c9f0fd9af7b4807805c7ad7e69c349e0bbe","id":51567347,"location_subtype":"","month":"2016-09"},{"category":"burglary","location_type":"Force","location":{"latitude":"51.555499","street":{"id":967226,"name":"On or near Brendon Avenue"},"longitude":"-0.251885"},"context":"","outcome_status":{"category":"Status update unavailable","date":"2017-01"},"persistent_id":"e760a31b107e4506e1e86e7a0ff9e9c597fc087d070d31cea87909c85ea9769a","id":51560493,"location_subtype":"","month":"2016-09"},{"category":"burglary","location_type":"Force","location":{"latitude":"51.557446","street":{"id":967222,"name":"On or near Midstrath Road"},"longitude":"-0.251579"},"context":"","outcome_status":{"category":"Offender given suspended prison sentence","date":"2017-02"},"persistent_id":"0ea6373565b25e32121e5723d0ae5b0d7a249e5c9bce60f6620d4898c2a68f04","id":51584748,"location_subtype":"","month":"2016-09"},{"category":"burglary","location_type":"Force","location":{"latitude":"51.562686","street":{"id":972673,"name":"On or near Ardley Close"},"longitude":"-0.253845"},"context":"","outcome_status":{"category":"Investigation complete; no suspect identified","date":"2016-09"},"persistent_id":"71f0e6fe6d34911a9a453aef5b99c4064d44cbbfd484ae9ddcd72440f3ea2d6c","id":51550941,"location_subtype":"","month":"2016-09"},{"category":"burglary","location_type":"Force","location":{"latitude":"51.571380","street":{"id":972648,"name":"On or near Holden Avenue"},"longitude":"-0.265258"},"context":"","outcome_status":{"category":"Investigation complete; no suspect identified","date":"2016-11"},"persistent_id":"56195f21601a46a5f486dc24d657c7d9adc3a5a517ca7198db74a53df7931b5a","id":51541247,"location_subtype":"","month":"2016-09"},{"category":"burglary","location_type":"Force","location":{"latitude":"51.557949","street":{"id":967231,"name":"On or near Petrol Station"},"longitude":"-0.253998"},"context":"","outcome_status":{"category":"Investigation complete; no suspect identified","date":"2016-09"},"persistent_id":"efa2f930825044a018641697203012258a29f125e40f1738122004755fd1072a","id":51588760,"location_subtype":"","month":"2016-09"},{"category":"burglary","location_type":"Force","location":{"latitude":"51.565738","street":{"id":972667,"name":"On or near Harp Island Close"},"longitude":"-0.258346"},"context":"","outcome_status":{"category":"Status update unavailable","date":"2017-01"},"persistent_id":"9daa4d0ee64d35cc59515540015df04ca4d728910dd1c513c1a96ab7603a4bbe","id":51557016,"location_subtype":"","month":"2016-09"},{"category":"burglary","location_type":"Force","location":{"latitude":"51.572108","street":{"id":972657,"name":"On or near Church Drive"},"longitude":"-0.260945"},"context":"","outcome_status":{"category":"Investigation complete; no suspect identified","date":"2016-10"},"persistent_id":"5e79a8c6632b0703ee0992b701742ab7df606cf0904528264c84cbd9de2ff999","id":51547741,"location_subtype":"","month":"2016-09"},{"category":"burglary","location_type":"Force","location":{"latitude":"51.574409","street":{"id":974291,"name":"On or near Mallard Way"},"longitude":"-0.266990"},"context":"","outcome_status":{"category":"Offender sent to prison","date":"2016-10"},"persistent_id":"505697afdebaf45f1ff7c7bece2ab2d21aa10f39cf3507620b198bc41162e953","id":51588564,"location_subtype":"","month":"2016-09"},{"category":"burglary","location_type":"Force","location":{"latitude":"51.569310","street":{"id":972611,"name":"On or near St Andrews Road"},"longitude":"-0.261470"},"context":"","outcome_status":{"category":"Investigation complete; no suspect identified","date":"2016-10"},"persistent_id":"e36c7244f2cc14d455a5135121fea6995af40b2f0045ebabef22fb5d9a2c89d6","id":51566421,"location_subtype":"","month":"2016-09"},{"category":"burglary","location_type":"Force","location":{"latitude":"51.569492","street":{"id":972655,"name":"On or near Deanscroft Avenue"},"longitude":"-0.265879"},"context":"","outcome_status":{"category":"Status update unavailable","date":"2017-01"},"persistent_id":"8ecf6251c67708387ed60434b0dbd71fa528fd610d43b60b5e57af92c2c6661b","id":51577738,"location_subtype":"","month":"2016-09"},{"category":"burglary","location_type":"Force","location":{"latitude":"51.571064","street":{"id":972656,"name":"On or near Church Lane"},"longitude":"-0.262731"},"context":"","outcome_status":{"category":"Status update unavailable","date":"2017-01"},"persistent_id":"cf64f9e73a6271a9b0cddfa13b04abfc2eb078be830357ee226e465ea0995bb2","id":51555058,"location_subtype":"","month":"2016-09"},{"category":"burglary","location_type":"Force","location":{"latitude":"51.564106","street":{"id":972668,"name":"On or near Coombe Road"},"longitude":"-0.259836"},"context":"","outcome_status":{"category":"Status update unavailable","date":"2017-01"},"persistent_id":"add243294845500f3f2c0475b22512342131f8e5e508404fee46104f2f44dbe2","id":51570593,"location_subtype":"","month":"2016-09"},{"category":"criminal-damage-arson","location_type":"Force","location":{"latitude":"51.574544","street":{"id":974300,"name":"On or near Rannock Avenue"},"longitude":"-0.254834"},"context":"","outcome_status":{"category":"Status update unavailable","date":"2017-01"},"persistent_id":"e2c8d79aab33a17773de28ca055ebbdaed3c1432650a3c4aa98a538fbad139e1","id":51573766,"location_subtype":"","month":"2016-09"},{"category":"criminal-damage-arson","location_type":"Force","location":{"latitude":"51.562284","street":{"id":972695,"name":"On or near Neasden Lane North"},"longitude":"-0.257020"},"context":"","outcome_status":{"category":"Status update unavailable","date":"2017-01"},"persistent_id":"d32aaa63d48114f9bbc2faba817706df6561a395ab2a6812bb24f2472f9a88b8","id":51565746,"location_subtype":"","month":"2016-09"},{"category":"criminal-damage-arson","location_type":"Force","location":{"latitude":"51.564292","street":{"id":972677,"name":"On or near Sports\/recreation Area"},"longitude":"-0.254808"},"context":"","outcome_status":{"category":"Status update unavailable","date":"2017-01"},"persistent_id":"102e848313e1d24c12bad45b7ce553d84ebd2b0ab3ca9240d2e69f0b5c051825","id":51553303,"location_subtype":"","month":"2016-09"},{"category":"criminal-damage-arson","location_type":"Force","location":{"latitude":"51.561392","street":{"id":972694,"name":"On or near Neasden Lane North"},"longitude":"-0.255698"},"context":"","outcome_status":{"category":"Investigation complete; no suspect identified","date":"2016-10"},"persistent_id":"ad5c40fb66d1dec3f9e9ca466de728b2cba994229cb2c46074f452a4e3710823","id":51570891,"location_subtype":"","month":"2016-09"},{"category":"criminal-damage-arson","location_type":"Force","location":{"latitude":"51.556379","street":{"id":967329,"name":"On or near Dog Lane"},"longitude":"-0.251202"},"context":"","outcome_status":{"category":"Status update unavailable","date":"2017-01"},"persistent_id":"5cf87d1c8b076f0d940952cee4ecd888cb0299b60b2e5f475b29882d30eeda0b","id":51570127,"location_subtype":"","month":"2016-09"},{"category":"criminal-damage-arson","location_type":"Force","location":{"latitude":"51.564292","street":{"id":972677,"name":"On or near Sports\/recreation Area"},"longitude":"-0.254808"},"context":"","outcome_status":{"category":"Status update unavailable","date":"2017-01"},"persistent_id":"102e848313e1d24c12bad45b7ce553d84ebd2b0ab3ca9240d2e69f0b5c051825","id":51553304,"location_subtype":"","month":"2016-09"},{"category":"drugs","location_type":"Force","location":{"latitude":"51.561083","street":{"id":972696,"name":"On or near Jackman Mews"},"longitude":"-0.253690"},"context":"","outcome_status":{"category":"Court result unavailable","date":"2017-03"},"persistent_id":"9a3841182a54e09a583ea7874513dc925fdbd0801b5e916b4db43d010b99e8be","id":51570330,"location_subtype":"","month":"2016-09"},{"category":"drugs","location_type":"Force","location":{"latitude":"51.554889","street":{"id":967346,"name":"On or near Neasden Close"},"longitude":"-0.250206"},"context":"","outcome_status":{"category":"Investigation complete; no suspect identified","date":"2016-10"},"persistent_id":"a41c8a6d475715f3c89e0e6be52251e28e8f18e904b347ecfa555b4bd69076f6","id":51573890,"location_subtype":"","month":"2016-09"},{"category":"drugs","location_type":"Force","location":{"latitude":"51.561549","street":{"id":972692,"name":"On or near Verney Street"},"longitude":"-0.259645"},"context":"","outcome_status":{"category":"Offender given a drugs possession warning","date":"2016-09"},"persistent_id":"3f6d795bc4ede9a7591876e8bc1548b1f92e8ce22343b797983958f72b17675a","id":51584851,"location_subtype":"","month":"2016-09"},{"category":"drugs","location_type":"Force","location":{"latitude":"51.562795","street":{"id":972663,"name":"On or near Neasden Lane"},"longitude":"-0.258747"},"context":"","outcome_status":{"category":"Offender given a drugs possession warning","date":"2016-10"},"persistent_id":"5a8134983719b5ec1b8cda76ae2fb33e9964eaf2414baf13b416962e2e78c9a6","id":51588708,"location_subtype":"","month":"2016-09"},{"category":"drugs","location_type":"Force","location":{"latitude":"51.560617","street":{"id":972689,"name":"On or near Winslow Close"},"longitude":"-0.254401"},"context":"","outcome_status":{"category":"Offender given a drugs possession warning","date":"2016-09"},"persistent_id":"29de951c7657a83b43cabf7956c509bd0fe2d22b8acbc4744bb773e7e38d0db6","id":51571428,"location_subtype":"","month":"2016-09"},{"category":"drugs","location_type":"Force","location":{"latitude":"51.565738","street":{"id":972667,"name":"On or near Harp Island Close"},"longitude":"-0.258346"},"context":"","outcome_status":{"category":"Local resolution","date":"2016-10"},"persistent_id":"6cd0bcd8d45bfc53c1e031f836f5b170922115bbceae62722994e38d66aa77ca","id":51537600,"location_subtype":"","month":"2016-09"},{"category":"drugs","location_type":"Force","location":{"latitude":"51.568538","street":{"id":972616,"name":"On or near Queens Walk"},"longitude":"-0.265237"},"context":"","outcome_status":{"category":"Offender given a drugs possession warning","date":"2016-09"},"persistent_id":"11226aaf5d91cddd87415a421a6d4d6297e9e9b2d8c585f55ccb38987bcd73a3","id":51562511,"location_subtype":"","month":"2016-09"},{"category":"other-theft","location_type":"Force","location":{"latitude":"51.557949","street":{"id":967231,"name":"On or near Petrol Station"},"longitude":"-0.253998"},"context":"","outcome_status":{"category":"Investigation complete; no suspect identified","date":"2016-10"},"persistent_id":"d30089f3e159645ad817ffbbdf7e9dd5ee9c00bd6d1eb2a366c2966f1336f632","id":51568000,"location_subtype":"","month":"2016-09"},{"category":"other-theft","location_type":"Force","location":{"latitude":"51.560601","street":{"id":972702,"name":"On or near Cambridge Close"},"longitude":"-0.263649"},"context":"","outcome_status":{"category":"Investigation complete; no suspect identified","date":"2016-09"},"persistent_id":"7ebd163c27791806c4d7ed68414ef3a90efe876e2e66e135a2ba87c6e9593b20","id":51540851,"location_subtype":"","month":"2016-09"},{"category":"other-theft","location_type":"Force","location":{"latitude":"51.557949","street":{"id":967231,"name":"On or near Petrol Station"},"longitude":"-0.253998"},"context":"","outcome_status":{"category":"Investigation complete; no suspect identified","date":"2016-09"},"persistent_id":"5e14eb181afaf7da82f6aa08e5dc6080f876fe2b14f1a08149e499d764a5d464","id":51575981,"location_subtype":"","month":"2016-09"},{"category":"other-theft","location_type":"Force","location":{"latitude":"51.562795","street":{"id":972663,"name":"On or near Neasden Lane"},"longitude":"-0.258747"},"context":"","outcome_status":{"category":"Status update unavailable","date":"2017-01"},"persistent_id":"74552839b0aff1bcd5a51b979daeab3d1ced7937cb65d9f5e4f0913eba1edc8d","id":51591593,"location_subtype":"","month":"2016-09"},{"category":"other-theft","location_type":"Force","location":{"latitude":"51.557949","street":{"id":967231,"name":"On or near Petrol Station"},"longitude":"-0.253998"},"context":"","outcome_status":{"category":"Investigation complete; no suspect identified","date":"2016-10"},"persistent_id":"42f77f7f46c80a9f77a7734b278b113f2378676d01d0573d7384b00ad9f7fb8f","id":51569693,"location_subtype":"","month":"2016-09"},{"category":"other-theft","location_type":"Force","location":{"latitude":"51.557949","street":{"id":967231,"name":"On or near Petrol Station"},"longitude":"-0.253998"},"context":"","outcome_status":{"category":"Status update unavailable","date":"2017-01"},"persistent_id":"9ccf951e1392cdeb4dcee038615e5e00055f6dfb50d69f2a88981c7b3b5eced8","id":51571311,"location_subtype":"","month":"2016-09"},{"category":"other-theft","location_type":"Force","location":{"latitude":"51.559356","street":{"id":967227,"name":"On or near Birse Crescent"},"longitude":"-0.251838"},"context":"","outcome_status":{"category":"Status update unavailable","date":"2017-01"},"persistent_id":"2d775a95a62059c7dd036f1a9e0b5ee13b05482536d4a3741407d628a24be046","id":51555568,"location_subtype":"","month":"2016-09"},{"category":"other-theft","location_type":"Force","location":{"latitude":"51.569310","street":{"id":972611,"name":"On or near St Andrews Road"},"longitude":"-0.261470"},"context":"","outcome_status":{"category":"Status update unavailable","date":"2017-01"},"persistent_id":"2051cdf7971f148edc5751a9d2398b302b12f3ae29fee452d044e314f9345f73","id":51564036,"location_subtype":"","month":"2016-09"},{"category":"other-theft","location_type":"Force","location":{"latitude":"51.562795","street":{"id":972663,"name":"On or near Neasden Lane"},"longitude":"-0.258747"},"context":"","outcome_status":{"category":"Investigation complete; no suspect identified","date":"2016-10"},"persistent_id":"b468b32a10d44fbd0d048718b2e75f6357dc3ffed03c598fb4301bd7b4caa701","id":51531608,"location_subtype":"","month":"2016-09"},{"category":"other-theft","location_type":"Force","location":{"latitude":"51.557949","street":{"id":967231,"name":"On or near Petrol Station"},"longitude":"-0.253998"},"context":"","outcome_status":{"category":"Investigation complete; no suspect identified","date":"2016-09"},"persistent_id":"bcb3397d76ee01482c03046250ed64a577d2b07300a015b6bd1bb9fbdd404d21","id":51566747,"location_subtype":"","month":"2016-09"},{"category":"other-theft","location_type":"Force","location":{"latitude":"51.559356","street":{"id":967227,"name":"On or near Birse Crescent"},"longitude":"-0.251838"},"context":"","outcome_status":{"category":"Court case unable to proceed","date":"2016-10"},"persistent_id":"0d6777ae498895225d07fe85ca6687478720bb795f055ce5caf9e46c378a2b5a","id":51560365,"location_subtype":"","month":"2016-09"},{"category":"possession-of-weapons","location_type":"Force","location":{"latitude":"51.560617","street":{"id":972689,"name":"On or near Winslow Close"},"longitude":"-0.254401"},"context":"","outcome_status":{"category":"Court result unavailable","date":"2017-03"},"persistent_id":"fede21c3eb04d278f2981648a2fe3aeaebff8a2883d76f3ec3c4f7338ffe6db1","id":51585668,"location_subtype":"","month":"2016-09"},{"category":"public-order","location_type":"Force","location":{"latitude":"51.573327","street":{"id":972681,"name":"On or near Hillway"},"longitude":"-0.252817"},"context":"","outcome_status":{"category":"Investigation complete; no suspect identified","date":"2016-09"},"persistent_id":"a1597f1abffe1450617ba08a744ae37d0ecc4372e931a18c6cc6408666c723a0","id":51586917,"location_subtype":"","month":"2016-09"},{"category":"public-order","location_type":"Force","location":{"latitude":"51.575298","street":{"id":974299,"name":"On or near Reeves Avenue"},"longitude":"-0.260188"},"context":"","outcome_status":{"category":"Investigation complete; no suspect identified","date":"2016-10"},"persistent_id":"a0c774557d5ef9feeb63c38843ac6a53d76c0f2ad79e962eee98ee176d2f8b15","id":51583411,"location_subtype":"","month":"2016-09"},{"category":"robbery","location_type":"Force","location":{"latitude":"51.563626","street":{"id":972672,"name":"On or near Attewood Avenue"},"longitude":"-0.252973"},"context":"","outcome_status":{"category":"Status update unavailable","date":"2017-01"},"persistent_id":"1c50141a4eee69733778e282b9e05276575a11a69b0457e0b742f5e2cd0afbed","id":51582933,"location_subtype":"","month":"2016-09"},{"category":"shoplifting","location_type":"Force","location":{"latitude":"51.557949","street":{"id":967231,"name":"On or near Petrol Station"},"longitude":"-0.253998"},"context":"","outcome_status":{"category":"Investigation complete; no suspect identified","date":"2016-09"},"persistent_id":"a74087cc2768a0f38ed841e9c50256ed92703ccaa4cae27e98d2b67354cef41d","id":51559613,"location_subtype":"","month":"2016-09"},{"category":"shoplifting","location_type":"Force","location":{"latitude":"51.564238","street":{"id":972635,"name":"On or near Blackbird Hill"},"longitude":"-0.262082"},"context":"","outcome_status":{"category":"Investigation complete; no suspect identified","date":"2016-10"},"persistent_id":"19fa5b7666123fbfd7d78ac4500a0d82371a9c0f1e7f76379262c79cb0e6993c","id":51555570,"location_subtype":"","month":"2016-09"},{"category":"theft-from-the-person","location_type":"Force","location":{"latitude":"51.562803","street":{"id":972660,"name":"On or near Press Road"},"longitude":"-0.256900"},"context":"","outcome_status":{"category":"Status update unavailable","date":"2017-01"},"persistent_id":"011755bab1c6153866df2d2d0f37fbe8dc44234d02e4c5acc5c46d947375cb65","id":51572184,"location_subtype":"","month":"2016-09"},{"category":"vehicle-crime","location_type":"Force","location":{"latitude":"51.556379","street":{"id":967329,"name":"On or near Dog Lane"},"longitude":"-0.251202"},"context":"","outcome_status":{"category":"Investigation complete; no suspect identified","date":"2016-09"},"persistent_id":"dcea82286b0b97f54e171fc1f3de0c5fc50cb87d30c7e48a60b1b22f3965e553","id":51552847,"location_subtype":"","month":"2016-09"},{"category":"vehicle-crime","location_type":"Force","location":{"latitude":"51.567373","street":{"id":972659,"name":"On or near Runbury Circle"},"longitude":"-0.258182"},"context":"","outcome_status":{"category":"Status update unavailable","date":"2017-01"},"persistent_id":"6ebff5d23b4297fd3bd78f2f9fdba8f7d0c3b27f9169a37a7b7bba35886da95f","id":51553849,"location_subtype":"","month":"2016-09"},{"category":"vehicle-crime","location_type":"Force","location":{"latitude":"51.572416","street":{"id":972644,"name":"On or near Lavender Avenue"},"longitude":"-0.265392"},"context":"","outcome_status":{"category":"Investigation complete; no suspect identified","date":"2016-09"},"persistent_id":"abef51b16a36decb8589e19ff9e4f183d327842bd30d2160ef07bdaeff40b73f","id":51549978,"location_subtype":"","month":"2016-09"},{"category":"vehicle-crime","location_type":"Force","location":{"latitude":"51.557566","street":{"id":967353,"name":"On or near Crispian Close"},"longitude":"-0.250002"},"context":"","outcome_status":{"category":"Status update unavailable","date":"2017-01"},"persistent_id":"8d86bd79e7a066703fc6f110b487bb5ed2eac9616137cc8c78fa129d80be600a","id":51555267,"location_subtype":"","month":"2016-09"},{"category":"vehicle-crime","location_type":"Force","location":{"latitude":"51.574613","street":{"id":974297,"name":"On or near Winston Avenue"},"longitude":"-0.254052"},"context":"","outcome_status":{"category":"Status update unavailable","date":"2017-01"},"persistent_id":"a28aea5860db7e31da90a3d3bba91dd625231fd13b92228809692e2bb9f02c16","id":51569290,"location_subtype":"","month":"2016-09"},{"category":"vehicle-crime","location_type":"Force","location":{"latitude":"51.567052","street":{"id":972614,"name":"On or near Salmon Street"},"longitude":"-0.266303"},"context":"","outcome_status":{"category":"Investigation complete; no suspect identified","date":"2016-11"},"persistent_id":"0bbf7fa3cc1eac4674fff13156f66c4a0afb8c8ea49680e36754f76bf257d22b","id":51583183,"location_subtype":"","month":"2016-09"},{"category":"vehicle-crime","location_type":"Force","location":{"latitude":"51.563957","street":{"id":972664,"name":"On or near Lyndhurst Close"},"longitude":"-0.257707"},"context":"","outcome_status":{"category":"Investigation complete; no suspect identified","date":"2016-09"},"persistent_id":"5387c092b8bd16a503c45ef58186966b66e2fb54d7f174fbdfe1c3ab426b3533","id":51565362,"location_subtype":"","month":"2016-09"},{"category":"vehicle-crime","location_type":"Force","location":{"latitude":"51.563957","street":{"id":972664,"name":"On or near Lyndhurst Close"},"longitude":"-0.257707"},"context":"","outcome_status":{"category":"Status update unavailable","date":"2017-01"},"persistent_id":"8ba30398292f08b15e26bde9a8b55565525c452c2bae5f8f0f1f0e3766656cda","id":51541081,"location_subtype":"","month":"2016-09"},{"category":"vehicle-crime","location_type":"Force","location":{"latitude":"51.554889","street":{"id":967346,"name":"On or near Neasden Close"},"longitude":"-0.250206"},"context":"","outcome_status":{"category":"Status update unavailable","date":"2017-01"},"persistent_id":"5aeef9998e7c0c7818945d1b88b5bf345c87b48bc498234b34a41ef846e7ec3c","id":51589589,"location_subtype":"","month":"2016-09"},{"category":"vehicle-crime","location_type":"Force","location":{"latitude":"51.572984","street":{"id":972679,"name":"On or near Parkfields Avenue"},"longitude":"-0.255154"},"context":"","outcome_status":{"category":"Investigation complete; no suspect identified","date":"2016-10"},"persistent_id":"18ad68573363f0bb74b9731bd157e9eeb46e349c36b48a848965f35a0dfaaf9a","id":51587740,"location_subtype":"","month":"2016-09"},{"category":"vehicle-crime","location_type":"Force","location":{"latitude":"51.569310","street":{"id":972611,"name":"On or near St Andrews Road"},"longitude":"-0.261470"},"context":"","outcome_status":{"category":"Investigation complete; no suspect identified","date":"2017-06"},"persistent_id":"9d1fbe97febe8d62e325287f5ad7c109bab4b11741cd15066cb78a4d755f3f4d","id":51561368,"location_subtype":"","month":"2016-09"},{"category":"vehicle-crime","location_type":"Force","location":{"latitude":"51.573995","street":{"id":974296,"name":"On or near Wood Close"},"longitude":"-0.257857"},"context":"","outcome_status":{"category":"Status update unavailable","date":"2017-01"},"persistent_id":"f03e07820d3cb0467c9bf6868bb12553fb8910058c1ebf8fa37975fb1e929404","id":51533589,"location_subtype":"","month":"2016-09"},{"category":"violent-crime","location_type":"Force","location":{"latitude":"51.565738","street":{"id":972667,"name":"On or near Harp Island Close"},"longitude":"-0.258346"},"context":"","outcome_status":{"category":"Investigation complete; no suspect identified","date":"2016-09"},"persistent_id":"884c98869db083c240f9249894d601307a1fa035aed889c3586acbcca8a6651c","id":51561383,"location_subtype":"","month":"2016-09"},{"category":"violent-crime","location_type":"Force","location":{"latitude":"51.554889","street":{"id":967346,"name":"On or near Neasden Close"},"longitude":"-0.250206"},"context":"","outcome_status":{"category":"Investigation complete; no suspect identified","date":"2016-10"},"persistent_id":"831340d3d05931f00db53a987f21ffc5710ebd9e060ee4744ba492515122d017","id":51533379,"location_subtype":"","month":"2016-09"},{"category":"violent-crime","location_type":"Force","location":{"latitude":"51.560805","street":{"id":972706,"name":"On or near Harrington Close"},"longitude":"-0.262848"},"context":"","outcome_status":{"category":"Defendant found not guilty","date":"2017-02"},"persistent_id":"da31c203df15ea4dfa466fb09964304c2ed3e9748432e50bef2a68f68f560f81","id":51537038,"location_subtype":"","month":"2016-09"},{"category":"violent-crime","location_type":"Force","location":{"latitude":"51.561392","street":{"id":972694,"name":"On or near Neasden Lane North"},"longitude":"-0.255698"},"context":"","outcome_status":{"category":"Offender given a caution","date":"2016-09"},"persistent_id":"acaeb4ff9cdb0bb54f5dfd24b544999ccb8b0f28b96ab048b60adf50bd9b2fda","id":51583296,"location_subtype":"","month":"2016-09"},{"category":"violent-crime","location_type":"Force","location":{"latitude":"51.561083","street":{"id":972696,"name":"On or near Jackman Mews"},"longitude":"-0.253690"},"context":"","outcome_status":{"category":"Court result unavailable","date":"2017-06"},"persistent_id":"a1d78916493a1e1f82057810e30ad107c1433b40b1ce6424b8d410bef06d6b47","id":51587032,"location_subtype":"","month":"2016-09"},{"category":"violent-crime","location_type":"Force","location":{"latitude":"51.561083","street":{"id":972696,"name":"On or near Jackman Mews"},"longitude":"-0.253690"},"context":"","outcome_status":{"category":"Investigation complete; no suspect identified","date":"2016-11"},"persistent_id":"91dc0f69163c3674557d1a89c777af806fcfca5f3e6fed316f315fb833acd22e","id":51588113,"location_subtype":"","month":"2016-09"},{"category":"violent-crime","location_type":"Force","location":{"latitude":"51.569310","street":{"id":972611,"name":"On or near St Andrews Road"},"longitude":"-0.261470"},"context":"","outcome_status":{"category":"Offender given a caution","date":"2016-09"},"persistent_id":"59d8350237c682c3a9819d326b5a6ae92c40b60a1f7a6d173c71ed0f6b10bc2f","id":51584953,"location_subtype":"","month":"2016-09"},{"category":"violent-crime","location_type":"Force","location":{"latitude":"51.562686","street":{"id":972673,"name":"On or near Ardley Close"},"longitude":"-0.253845"},"context":"","outcome_status":{"category":"Status update unavailable","date":"2017-01"},"persistent_id":"68bc07b1a0fdfda45f2e221b298603d36013882d26fddaca05cde9304c9d9739","id":51535291,"location_subtype":"","month":"2016-09"},{"category":"violent-crime","location_type":"Force","location":{"latitude":"51.572474","street":{"id":972682,"name":"On or near Glenwood Avenue"},"longitude":"-0.254163"},"context":"","outcome_status":{"category":"Status update unavailable","date":"2017-01"},"persistent_id":"bb6a0c39ad87c44779bbb4ae540234d7dbcc3e7b65a8d9dfd86c29a0f1d410ef","id":51535279,"location_subtype":"","month":"2016-09"},{"category":"violent-crime","location_type":"Force","location":{"latitude":"51.561939","street":{"id":972699,"name":"On or near Annesley Close"},"longitude":"-0.254437"},"context":"","outcome_status":{"category":"Investigation complete; no suspect identified","date":"2016-11"},"persistent_id":"aace5e403d73351786745a8ecb553ba7da9b103be3f36b6d0b7d274630588a23","id":51538928,"location_subtype":"","month":"2016-09"},{"category":"violent-crime","location_type":"Force","location":{"latitude":"51.564292","street":{"id":972677,"name":"On or near Sports\/recreation Area"},"longitude":"-0.254808"},"context":"","outcome_status":{"category":"Court result unavailable","date":"2017-03"},"persistent_id":"dedb0ef7b5f6738455cefc2daf7bb24a9cd179d8d830f1dc484bf9f5a134690c","id":51590053,"location_subtype":"","month":"2016-09"},{"category":"violent-crime","location_type":"Force","location":{"latitude":"51.561083","street":{"id":972696,"name":"On or near Jackman Mews"},"longitude":"-0.253690"},"context":"","outcome_status":{"category":"Investigation complete; no suspect identified","date":"2016-09"},"persistent_id":"208fd4062e4d8ba9987901cb1e005daf118dea071f7e9eed22cc7bfc6d4ae6ff","id":51557250,"location_subtype":"","month":"2016-09"},{"category":"violent-crime","location_type":"Force","location":{"latitude":"51.573693","street":{"id":974292,"name":"On or near Church Lane"},"longitude":"-0.262342"},"context":"","outcome_status":{"category":"Status update unavailable","date":"2017-01"},"persistent_id":"3832231ed480c04651ac0015e9758527158de0091771782aeb0875c4f026abe1","id":51547493,"location_subtype":"","month":"2016-09"},{"category":"violent-crime","location_type":"Force","location":{"latitude":"51.559356","street":{"id":967227,"name":"On or near Birse Crescent"},"longitude":"-0.251838"},"context":"","outcome_status":{"category":"Defendant found not guilty","date":"2017-02"},"persistent_id":"2d775a95a62059c7dd036f1a9e0b5ee13b05482536d4a3741407d628a24be046","id":51556318,"location_subtype":"","month":"2016-09"},{"category":"violent-crime","location_type":"Force","location":{"latitude":"51.555499","street":{"id":967226,"name":"On or near Brendon Avenue"},"longitude":"-0.251885"},"context":"","outcome_status":{"category":"Investigation complete; no suspect identified","date":"2017-08"},"persistent_id":"36e6005162f0cf22768eb7ea70fcd6ec07b1ada6d0fe220e764b97f5de78ee43","id":51575877,"location_subtype":"","month":"2016-09"},{"category":"violent-crime","location_type":"Force","location":{"latitude":"51.564238","street":{"id":972635,"name":"On or near Blackbird Hill"},"longitude":"-0.262082"},"context":"","outcome_status":{"category":"Investigation complete; no suspect identified","date":"2016-10"},"persistent_id":"930feec07d96bbad2700239dffec1b484b43a96f5395f3baf966a096a4c8b94a","id":51572372,"location_subtype":"","month":"2016-09"},{"category":"violent-crime","location_type":"Force","location":{"latitude":"51.561140","street":{"id":972698,"name":"On or near Aylesbury Street"},"longitude":"-0.258723"},"context":"","outcome_status":{"category":"Investigation complete; no suspect identified","date":"2016-11"},"persistent_id":"cc033b66612ec194222b95dd376a1ab488721f8774c2ba41409ca69eedbf5965","id":51553283,"location_subtype":"","month":"2016-09"},{"category":"violent-crime","location_type":"Force","location":{"latitude":"51.565738","street":{"id":972667,"name":"On or near Harp Island Close"},"longitude":"-0.258346"},"context":"","outcome_status":{"category":"Investigation complete; no suspect identified","date":"2016-09"},"persistent_id":"c0c317eb6ef8d1e5ded695412cee7ef8b3172e2effd8db177448ef77943ac961","id":51573165,"location_subtype":"","month":"2016-09"},{"category":"violent-crime","location_type":"Force","location":{"latitude":"51.563112","street":{"id":972665,"name":"On or near Kelly Close"},"longitude":"-0.258316"},"context":"","outcome_status":{"category":"Investigation complete; no suspect identified","date":"2016-12"},"persistent_id":"a1c3a3ea6ca6a5b3806285f607d3e9be41a102a4b7306ae102bfc526c9243bc5","id":51573396,"location_subtype":"","month":"2016-09"},{"category":"violent-crime","location_type":"Force","location":{"latitude":"51.573505","street":{"id":974295,"name":"On or near Wood Lane"},"longitude":"-0.256966"},"context":"","outcome_status":{"category":"Investigation complete; no suspect identified","date":"2016-09"},"persistent_id":"3ed309e0da09c9d6a969fe83061b6c4a196159a65fd896ee51dd5a932d55d9b6","id":51576081,"location_subtype":"","month":"2016-09"},{"category":"violent-crime","location_type":"Force","location":{"latitude":"51.560211","street":{"id":967225,"name":"On or near Chesham Street"},"longitude":"-0.260331"},"context":"","outcome_status":{"category":"Investigation complete; no suspect identified","date":"2016-11"},"persistent_id":"91b40d20541a0a9c42922a46b0e2175780f39c2502722ce65d7ce66bac63e802","id":51571376,"location_subtype":"","month":"2016-09"},{"category":"violent-crime","location_type":"Force","location":{"latitude":"51.560420","street":{"id":972705,"name":"On or near Lawrence Way"},"longitude":"-0.262949"},"context":"","outcome_status":{"category":"Investigation complete; no suspect identified","date":"2018-05"},"persistent_id":"098fd227ce91518cb77266ae60eae639e03fc57aea6356b602aff05d5e395973","id":51576559,"location_subtype":"","month":"2016-09"},{"category":"violent-crime","location_type":"Force","location":{"latitude":"51.572550","street":{"id":972684,"name":"On or near Doreen Avenue"},"longitude":"-0.258042"},"context":"","outcome_status":{"category":"Status update unavailable","date":"2017-01"},"persistent_id":"2955e1d8ad2854edf37792544a4d8a5db6e6b8f38752392cbebbf35b22e7a919","id":51561727,"location_subtype":"","month":"2016-09"}]