[{"category":"anti-social-behaviour","location_type":"Force","location":{"latitude":"51.383190","street":{"id":929288,"name":"On or near Glastonbury Road"},"longitude":"-0.198129"},"context":"","outcome_status":null,"persistent_id":"","id":51509465,"location_subtype":"","month":"2016-09"},{"category":"anti-social-behaviour","location_type":"Force","location":{"latitude":"51.380756","street":{"id":929004,"name":"On or near Green Wrythe Lane"},"longitude":"-0.171668"},"context":"","outcome_status":null,"persistent_id":"","id":51509365,"location_subtype":"","month":"2016-09"},{"category":"anti-social-behaviour","location_type":"Force","location":{"latitude":"51.380756","street":{"id":929004,"name":"On or near Green Wrythe Lane"},"longitude":"-0.171668"},"context":"","outcome_status":null,"persistent_id":"","id":51509366,"location_subtype":"","month":"2016-09"},{"category":"anti-social-behaviour","location_type":"Force","location":{"latitude":"51.384047","street":{"id":929182,"name":"On or near Assembly Walk"},"longitude":"-0.174512"},"context":"","outcome_status":null,"persistent_id":"","id":51509367,"location_subtype":"","month":"2016-09"},{"category":"anti-social-behaviour","location_type":"Force","location":{"latitude":"51.384047","street":{"id":929182,"name":"On or near Assembly Walk"},"longitude":"-0.174512"},"context":"","outcome_status":null,"persistent_id":"","id":51509368,"location_subtype":"","month":"2016-09"},{"category":"anti-social-behaviour","location_type":"Force","location":{"latitude":"51.379582","street":{"id":929154,"name":"On or near Woburn Road"},"longitude":"-0.174215"},"context":"","outcome_status":null,"persistent_id":"","id":51509371,"location_subtype":"","month":"2016-09"},{"category":"anti-social-behaviour","location_type":"Force","location":{"latitude":"51.379665","street":{"id":929158,"name":"On or near Welbeck Road"},"longitude":"-0.176655"},"context":"","outcome_status":null,"persistent_id":"","id":51509377,"location_subtype":"","month":"2016-09"},{"category":"anti-social-behaviour","location_type":"Force","location":{"latitude":"51.382573","street":{"id":929129,"name":"On or near Rosehill Avenue"},"longitude":"-0.189028"},"context":"","outcome_status":null,"persistent_id":"","id":51509418,"location_subtype":"","month":"2016-09"},{"category":"anti-social-behaviour","location_type":"Force","location":{"latitude":"51.382573","street":{"id":929129,"name":"On or near Rosehill Avenue"},"longitude":"-0.189028"},"context":"","outcome_status":null,"persistent_id":"","id":51509419,"location_subtype":"","month":"2016-09"},{"category":"anti-social-behaviour","location_type":"Force","location":{"latitude":"51.382573","street":{"id":929129,"name":"On or near Rosehill Avenue"},"longitude":"-0.189028"},"context":"","outcome_status":null,"persistent_id":"","id":51509420,"location_subtype":"","month":"2016-09"},{"category":"anti-social-behaviour","location_type":"Force","location":{"latitude":"51.382573","street":{"id":929129,"name":"On or near Rosehill Avenue"},"longitude":"-0.189028"},"context":"","outcome_status":null,"persistent_id":"","id":51509421,"location_subtype":"","month":"2016-09"},{"category":"anti-social-behaviour","location_type":"Force","location":{"latitude":"51.385482","street":{"id":929223,"name":"On or near Sports\/recreation Area"},"longitude":"-0.193986"},"context":"","outcome_status":null,"persistent_id":"","id":51509446,"location_subtype":"","month":"2016-09"},{"category":"anti-social-behaviour","location_type":"Force","location":{"latitude":"51.384047","street":{"id":929165,"name":"On or near Titchfield Walk"},"longitude":"-0.177386"},"context":"","outcome_status":null,"persistent_id":"","id":51509375,"location_subtype":"","month":"2016-09"},{"category":"anti-social-behaviour","location_type":"Force","location":{"latitude":"51.384047","street":{"id":929165,"name":"On or near Titchfield Walk"},"longitude":"-0.177386"},"context":"","outcome_status":null,"persistent_id":"","id":51509383,"location_subtype":"","month":"2016-09"},{"category":"anti-social-behaviour","location_type":"Force","location":{"latitude":"51.384047","street":{"id":929165,"name":"On or near Titchfield Walk"},"longitude":"-0.177386"},"context":"","outcome_status":null,"persistent_id":"","id":51509384,"location_subtype":"","month":"2016-09"},{"category":"anti-social-behaviour","location_type":"Force","location":{"latitude":"51.384047","street":{"id":929165,"name":"On or near Titchfield Walk"},"longitude":"-0.177386"},"context":"","outcome_status":null,"persistent_id":"","id":51509385,"location_subtype":"","month":"2016-09"},{"category":"anti-social-behaviour","location_type":"Force","location":{"latitude":"51.382573","street":{"id":929129,"name":"On or near Rosehill Avenue"},"longitude":"-0.189028"},"context":"","outcome_status":null,"persistent_id":"","id":51509417,"location_subtype":"","month":"2016-09"},{"category":"anti-social-behaviour","location_type":"Force","location":{"latitude":"51.376993","street":{"id":929199,"name":"On or near Duke Of Edinburgh Road"},"longitude":"-0.181761"},"context":"","outcome_status":null,"persistent_id":"","id":51509388,"location_subtype":"","month":"2016-09"},{"category":"anti-social-behaviour","location_type":"Force","location":{"latitude":"51.380554","street":{"id":924063,"name":"On or near Wrythe Lane"},"longitude":"-0.182957"},"context":"","outcome_status":null,"persistent_id":"","id":51509392,"location_subtype":"","month":"2016-09"},{"category":"bicycle-theft","location_type":"Force","location":{"latitude":"51.380554","street":{"id":924063,"name":"On or near Wrythe Lane"},"longitude":"-0.182957"},"context":"","outcome_status":{"category":"Investigation complete; no suspect identified","date":"2017-07"},"persistent_id":"48dd05ce5d37cc88258f627adb55686e16eba95486e70f195718dd203c17fa0a","id":51564848,"location_subtype":"","month":"2016-09"},{"category":"burglary","location_type":"Force","location":{"latitude":"51.383800","street":{"id":929140,"name":"On or near Kinloss Road"},"longitude":"-0.186364"},"context":"","outcome_status":{"category":"Status update unavailable","date":"2017-01"},"persistent_id":"4f78fccf97f62088b83e927161f464272a68b6fdd0f337bf71a0d0e69c442a92","id":51577186,"location_subtype":"","month":"2016-09"},{"category":"burglary","location_type":"Force","location":{"latitude":"51.381966","street":{"id":929176,"name":"On or near Winchcombe Road"},"longitude":"-0.173675"},"context":"","outcome_status":{"category":"Status update unavailable","date":"2017-01"},"persistent_id":"6c7ffdd3ab7a3e23cf4f422c3390e12a151acafa43a0ebc3b9779b99b21045bb","id":51557008,"location_subtype":"","month":"2016-09"},{"category":"burglary","location_type":"Force","location":{"latitude":"51.378663","street":{"id":929193,"name":"On or near Wendling Road"},"longitude":"-0.180460"},"context":"","outcome_status":{"category":"Investigation complete; no suspect identified","date":"2016-10"},"persistent_id":"fa581a50c16f9d7a4c12d06629c7d57712bf57218ea5c1d9e54e61df030fdc14","id":51583449,"location_subtype":"","month":"2016-09"},{"category":"burglary","location_type":"Force","location":{"latitude":"51.378265","street":{"id":929190,"name":"On or near Whitby Road"},"longitude":"-0.180892"},"context":"","outcome_status":{"category":"Status update unavailable","date":"2017-01"},"persistent_id":"293477976ace4d70ec93f2364ffa958db6899919aa0121c7b32ce88a2d302d36","id":51582666,"location_subtype":"","month":"2016-09"},{"category":"burglary","location_type":"Force","location":{"latitude":"51.380554","street":{"id":924063,"name":"On or near Wrythe Lane"},"longitude":"-0.182957"},"context":"","outcome_status":{"category":"Status update unavailable","date":"2017-01"},"persistent_id":"46bebdcd4905d3c6c7fae22893e9311dbc86800bb98ad065ffacfd614bfc6b66","id":51538987,"location_subtype":"","month":"2016-09"},{"category":"criminal-damage-arson","location_type":"Force","location":{"latitude":"51.380381","street":{"id":929162,"name":"On or near Tavistock Road"},"longitude":"-0.176986"},"context":"","outcome_status":{"category":"Offender given a caution","date":"2016-09"},"persistent_id":"c996b6bdf610c0e02ecca4da4f69e53bdce74123f12b3372eb6a3df8d508829a","id":51571576,"location_subtype":"","month":"2016-09"},{"category":"criminal-damage-arson","location_type":"Force","location":{"latitude":"51.379805","street":{"id":929157,"name":"On or near Whitland Road"},"longitude":"-0.178733"},"context":"","outcome_status":{"category":"Investigation complete; no suspect identified","date":"2016-10"},"persistent_id":"75a1758d659468c159da8beaff7bbc9a9e5c3f6a0aa5e57b08d9d1fb85af51ac","id":51538054,"location_subtype":"","month":"2016-09"},{"category":"criminal-damage-arson","location_type":"Force","location":{"latitude":"51.379805","street":{"id":929157,"name":"On or near Whitland Road"},"longitude":"-0.178733"},"context":"","outcome_status":{"category":"Investigation complete; no suspect identified","date":"2016-10"},"persistent_id":"22632bf564408fa819a8a0b00e1f012be927d4d35252fb1b5caa77163ebf9db9","id":51531966,"location_subtype":"","month":"2016-09"},{"category":"criminal-damage-arson","location_type":"Force","location":{"latitude":"51.384054","street":{"id":929152,"name":"On or near Supermarket"},"longitude":"-0.189429"},"context":"","outcome_status":{"category":"Investigation complete; no suspect identified","date":"2016-10"},"persistent_id":"c01202e406712d7f09d17f18e8989701a9617841caafe6556d874c30b9132d12","id":51592614,"location_subtype":"","month":"2016-09"},{"category":"criminal-damage-arson","location_type":"Force","location":{"latitude":"51.381410","street":{"id":929160,"name":"On or near Tintern Road"},"longitude":"-0.177850"},"context":"","outcome_status":{"category":"Status update unavailable","date":"2017-01"},"persistent_id":"7836e81609d48d65b98ab2ccba5245d37c34eda4a413ebe3a23325eca394a3d9","id":51577995,"location_subtype":"","month":"2016-09"},{"category":"criminal-damage-arson","location_type":"Force","location":{"latitude":"51.381966","street":{"id":929176,"name":"On or near Winchcombe Road"},"longitude":"-0.173675"},"context":"","outcome_status":{"category":"Status update unavailable","date":"2017-01"},"persistent_id":"7cc978a22045b3c5e837141772278220aad1db91c14051e99647a5454bb67f58","id":51579421,"location_subtype":"","month":"2016-09"},{"category":"criminal-damage-arson","location_type":"Force","location":{"latitude":"51.387423","street":{"id":930354,"name":"On or near Middleton Road"},"longitude":"-0.181679"},"context":"","outcome_status":{"category":"Status update unavailable","date":"2017-01"},"persistent_id":"e6ce41140f00b570a5dd88da9c9ff50604bb91ab32813d131278949683814de9","id":51575894,"location_subtype":"","month":"2016-09"},{"category":"criminal-damage-arson","location_type":"Force","location":{"latitude":"51.384170","street":{"id":929181,"name":"On or near Assembly Walk"},"longitude":"-0.174909"},"context":"","outcome_status":{"category":"Status update unavailable","date":"2017-01"},"persistent_id":"890461e4bc947dcfae8400ed00cc47bf870237118ccd894f23042cbad7c8a6fa","id":51577272,"location_subtype":"","month":"2016-09"},{"category":"criminal-damage-arson","location_type":"Force","location":{"latitude":"51.379381","street":{"id":929155,"name":"On or near Wigmore Road"},"longitude":"-0.175718"},"context":"","outcome_status":{"category":"Status update unavailable","date":"2017-01"},"persistent_id":"155f0d0d2f039ee047263430f4e7b32cf32aa8be8ba7ba9f326b9fedf4041fca","id":51556030,"location_subtype":"","month":"2016-09"},{"category":"criminal-damage-arson","location_type":"Force","location":{"latitude":"51.379381","street":{"id":929155,"name":"On or near Wigmore Road"},"longitude":"-0.175718"},"context":"","outcome_status":{"category":"Status update unavailable","date":"2017-01"},"persistent_id":"f2b27e9828a3f227c256933d345c5cb76ace1bc39a968b46063e774857cd16b3","id":51552334,"location_subtype":"","month":"2016-09"},{"category":"criminal-damage-arson","location_type":"Force","location":{"latitude":"51.382573","street":{"id":929129,"name":"On or near Rosehill Avenue"},"longitude":"-0.189028"},"context":"","outcome_status":{"category":"Investigation complete; no suspect identified","date":"2016-10"},"persistent_id":"a2b9adb8aaa66ebe82417ba3e27452b00028f04df75086dd83888a88090a4714","id":51531748,"location_subtype":"","month":"2016-09"},{"category":"criminal-damage-arson","location_type":"Force","location":{"latitude":"51.384047","street":{"id":929182,"name":"On or near Assembly Walk"},"longitude":"-0.174512"},"context":"","outcome_status":{"category":"Investigation complete; no suspect identified","date":"2016-09"},"persistent_id":"5309e9d238d6512decdf850220ef5e4e94b20e37ccb231ee495828f0d699b69f","id":51555246,"location_subtype":"","month":"2016-09"},{"category":"criminal-damage-arson","location_type":"Force","location":{"latitude":"51.381540","street":{"id":929159,"name":"On or near Waltham Road"},"longitude":"-0.176350"},"context":"","outcome_status":{"category":"Status update unavailable","date":"2017-01"},"persistent_id":"3f5fe70e38cc6d55f8b07ef2b28d7b0708db3fc69f134bc9a091fbab7cf3fbaa","id":51540604,"location_subtype":"","month":"2016-09"},{"category":"criminal-damage-arson","location_type":"Force","location":{"latitude":"51.380554","street":{"id":924063,"name":"On or near Wrythe Lane"},"longitude":"-0.182957"},"context":"","outcome_status":{"category":"Offender ordered to pay compensation","date":"2016-11"},"persistent_id":"cda41b9ecd7102fd9ec7e89184a00f0065eb54cec8b69b8d3528f8fab475499d","id":51537874,"location_subtype":"","month":"2016-09"},{"category":"drugs","location_type":"Force","location":{"latitude":"51.384963","street":{"id":929132,"name":"On or near Newstead Walk"},"longitude":"-0.185412"},"context":"","outcome_status":{"category":"Offender given a caution","date":"2016-09"},"persistent_id":"02fd8a943c2b0e35d8f3670393fac5bff84d1d12ed5f02b789c0cf06caacf447","id":51533211,"location_subtype":"","month":"2016-09"},{"category":"drugs","location_type":"Force","location":{"latitude":"51.379381","street":{"id":929155,"name":"On or near Wigmore Road"},"longitude":"-0.175718"},"context":"","outcome_status":{"category":"Investigation complete; no suspect identified","date":"2016-09"},"persistent_id":"c94ff21c5852a124ce594829089085fe97a614529d8fdc11081e244da0473e90","id":51555282,"location_subtype":"","month":"2016-09"},{"category":"drugs","location_type":"Force","location":{"latitude":"51.379582","street":{"id":929154,"name":"On or near Woburn Road"},"longitude":"-0.174215"},"context":"","outcome_status":{"category":"Offender given a drugs possession warning","date":"2016-09"},"persistent_id":"cc5df9ebed883d5faa43197f6007622da01ccd98eaf4c6e774b0429835b24560","id":51553399,"location_subtype":"","month":"2016-09"},{"category":"drugs","location_type":"Force","location":{"latitude":"51.384047","street":{"id":929165,"name":"On or near Titchfield Walk"},"longitude":"-0.177386"},"context":"","outcome_status":{"category":"Offender given community sentence","date":"2016-10"},"persistent_id":"d87cffd05c3b0de3063002f59c3f3256bf3f98242ce9f285902a1abfe6b0738f","id":51577391,"location_subtype":"","month":"2016-09"},{"category":"drugs","location_type":"Force","location":{"latitude":"51.377060","street":{"id":929192,"name":"On or near Westminster Road"},"longitude":"-0.181428"},"context":"","outcome_status":{"category":"Offender given a drugs possession warning","date":"2016-09"},"persistent_id":"a376acb9b9ce676ed15efa64f45eba16358277370db630445776cde5ae05ab71","id":51559001,"location_subtype":"","month":"2016-09"},{"category":"other-theft","location_type":"Force","location":{"latitude":"51.381598","street":{"id":929161,"name":"On or near Tewkesbury Road"},"longitude":"-0.178935"},"context":"","outcome_status":{"category":"Investigation complete; no suspect identified","date":"2016-09"},"persistent_id":"54da6861809af0b402377dfb254e259dc086d345465de18992ea4b14413b43b0","id":51549893,"location_subtype":"","month":"2016-09"},{"category":"other-theft","location_type":"Force","location":{"latitude":"51.380554","street":{"id":924063,"name":"On or near Wrythe Lane"},"longitude":"-0.182957"},"context":"","outcome_status":{"category":"Investigation complete; no suspect identified","date":"2016-10"},"persistent_id":"3ecda1a2f13538e960d811c0840c85536f83ea7b7d27f1b19be6879da0fb0c02","id":51544293,"location_subtype":"","month":"2016-09"},{"category":"other-theft","location_type":"Force","location":{"latitude":"51.384054","street":{"id":929152,"name":"On or near Supermarket"},"longitude":"-0.189429"},"context":"","outcome_status":{"category":"Status update unavailable","date":"2017-01"},"persistent_id":"81cb59e59d8881a4bfaca9ded6493992db4de20aaf0ecabe5c7c9f83849ef31f","id":51574894,"location_subtype":"","month":"2016-09"},{"category":"other-theft","location_type":"Force","location":{"latitude":"51.379665","street":{"id":929158,"name":"On or near Welbeck Road"},"longitude":"-0.176655"},"context":"","outcome_status":{"category":"Investigation complete; no suspect identified","date":"2016-11"},"persistent_id":"56d91bc7a85890f2814023890dcfc478ff847aeee0c925871ff95c92da9a5594","id":51582606,"location_subtype":"","month":"2016-09"},{"category":"other-theft","location_type":"Force","location":{"latitude":"51.380554","street":{"id":924063,"name":"On or near Wrythe Lane"},"longitude":"-0.182957"},"context":"","outcome_status":{"category":"Status update unavailable","date":"2017-01"},"persistent_id":"bb49ae7adedfea48b8f403b9c39c6aeb27dd3d5024b1853841f195c08defcde9","id":51584530,"location_subtype":"","month":"2016-09"},{"category":"other-theft","location_type":"Force","location":{"latitude":"51.383065","street":{"id":929146,"name":"On or near Cleeve Way"},"longitude":"-0.191221"},"context":"","outcome_status":{"category":"Investigation complete; no suspect identified","date":"2017-01"},"persistent_id":"ac688721d16eca170aa10bf44032888eb1af1e1fccb5af23f67c848bb9178029","id":51585698,"location_subtype":"","month":"2016-09"},{"category":"other-theft","location_type":"Force","location":{"latitude":"51.384047","street":{"id":929165,"name":"On or near Titchfield Walk"},"longitude":"-0.177386"},"context":"","outcome_status":{"category":"Status update unavailable","date":"2017-01"},"persistent_id":"62c9ef25ada178264e909e93d049332f05fc0bb7fc2364372d0668ad343bfa3e","id":51547774,"location_subtype":"","month":"2016-09"},{"category":"other-theft","location_type":"Force","location":{"latitude":"51.384054","street":{"id":929152,"name":"On or near Supermarket"},"longitude":"-0.189429"},"context":"","outcome_status":{"category":"Investigation complete; no suspect identified","date":"2016-11"},"persistent_id":"e1824ed06e77653c5211ea358ef94c3a47b794abdbdb13149a7e224c018fcc50","id":51534151,"location_subtype":"","month":"2016-09"},{"category":"possession-of-weapons","location_type":"Force","location":{"latitude":"51.387423","street":{"id":930354,"name":"On or near Middleton Road"},"longitude":"-0.181679"},"context":"","outcome_status":{"category":"Offender given community sentence","date":"2016-09"},"persistent_id":"6f1872946fd139215a16051f8f072798b06b1c9bfc91ae8230100d9234b4e990","id":51565121,"location_subtype":"","month":"2016-09"},{"category":"public-order","location_type":"Force","location":{"latitude":"51.383439","street":{"id":929139,"name":"On or near Lindores Road"},"longitude":"-0.186895"},"context":"","outcome_status":{"category":"Investigation complete; no suspect identified","date":"2017-01"},"persistent_id":"a41da5c137fff6e6d723bac9c9b77a71e71790b84a3589e7f1087610ac23a96b","id":51584831,"location_subtype":"","month":"2016-09"},{"category":"public-order","location_type":"Force","location":{"latitude":"51.380554","street":{"id":924063,"name":"On or near Wrythe Lane"},"longitude":"-0.182957"},"context":"","outcome_status":{"category":"Status update unavailable","date":"2017-01"},"persistent_id":"560cd1a8d708558f99b318d622d817275a1d47ffbed383873bcadfb97045eea3","id":51554611,"location_subtype":"","month":"2016-09"},{"category":"public-order","location_type":"Force","location":{"latitude":"51.384170","street":{"id":929181,"name":"On or near Assembly Walk"},"longitude":"-0.174909"},"context":"","outcome_status":{"category":"Offender fined","date":"2016-10"},"persistent_id":"97a78035f691dcbb2c5e6d2e30ce6582b098c8d9fac2e75f00c9c246230d9d3e","id":51558896,"location_subtype":"","month":"2016-09"},{"category":"public-order","location_type":"Force","location":{"latitude":"51.382573","street":{"id":929129,"name":"On or near Rosehill Avenue"},"longitude":"-0.189028"},"context":"","outcome_status":{"category":"Investigation complete; no suspect identified","date":"2016-09"},"persistent_id":"dcbfb9d6003d833e6514358aab2042a49850a453c9f18021d341a4398dc5e09b","id":51550478,"location_subtype":"","month":"2016-09"},{"category":"public-order","location_type":"Force","location":{"latitude":"51.380554","street":{"id":924063,"name":"On or near Wrythe Lane"},"longitude":"-0.182957"},"context":"","outcome_status":{"category":"Court result unavailable","date":"2017-06"},"persistent_id":"560cd1a8d708558f99b318d622d817275a1d47ffbed383873bcadfb97045eea3","id":51554612,"location_subtype":"","month":"2016-09"},{"category":"public-order","location_type":"Force","location":{"latitude":"51.384054","street":{"id":929152,"name":"On or near Supermarket"},"longitude":"-0.189429"},"context":"","outcome_status":{"category":"Offender sent to prison","date":"2016-10"},"persistent_id":"240bab389dd18a0bfa8249bd2db2fbeb12f53a0c026871e08edfbba2678f11d3","id":51589835,"location_subtype":"","month":"2016-09"},{"category":"public-order","location_type":"Force","location":{"latitude":"51.383180","street":{"id":929130,"name":"On or near Rose Hill"},"longitude":"-0.190513"},"context":"","outcome_status":{"category":"Investigation complete; no suspect identified","date":"2017-01"},"persistent_id":"bacf7ad39d9f16070bc717469942834e977efda9d4b62a49b87f4a8112d68bcc","id":51533362,"location_subtype":"","month":"2016-09"},{"category":"robbery","location_type":"Force","location":{"latitude":"51.384170","street":{"id":929181,"name":"On or near Assembly Walk"},"longitude":"-0.174909"},"context":"","outcome_status":{"category":"Defendant found not guilty","date":"2017-01"},"persistent_id":"a9ad52c040934ea1b9ee9c8b53fc75fd6cd54ad5354e40bd1fe1c30a38d40352","id":51578627,"location_subtype":"","month":"2016-09"},{"category":"robbery","location_type":"Force","location":{"latitude":"51.385408","street":{"id":929126,"name":"On or near St Helier Avenue"},"longitude":"-0.189764"},"context":"","outcome_status":{"category":"Investigation complete; no suspect identified","date":"2016-10"},"persistent_id":"b53e3075afdf0270bab2003e6edbdc459907892cdddb55e7f4f2fe574d80c640","id":51541034,"location_subtype":"","month":"2016-09"},{"category":"vehicle-crime","location_type":"Force","location":{"latitude":"51.383180","street":{"id":929130,"name":"On or near Rose Hill"},"longitude":"-0.190513"},"context":"","outcome_status":{"category":"Investigation complete; no suspect identified","date":"2016-10"},"persistent_id":"39bb6ff6ab14ff5462fefd2a0bfea76bd4c47b257c7da40544f6016b53efd97a","id":51546111,"location_subtype":"","month":"2016-09"},{"category":"vehicle-crime","location_type":"Force","location":{"latitude":"51.382094","street":{"id":929167,"name":"On or near Thornton Road"},"longitude":"-0.177866"},"context":"","outcome_status":{"category":"Status update unavailable","date":"2017-01"},"persistent_id":"d38b3115e286edcebb25ad335e269a7cad0f142d68139ec3d3c6b5b5497ac843","id":51575047,"location_subtype":"","month":"2016-09"},{"category":"vehicle-crime","location_type":"Force","location":{"latitude":"51.383439","street":{"id":929139,"name":"On or near Lindores Road"},"longitude":"-0.186895"},"context":"","outcome_status":{"category":"Status update unavailable","date":"2017-01"},"persistent_id":"4f4061cbd4f5acada8c01bd820c101b97c66d9030be2fe2963c97845475e3281","id":51577786,"location_subtype":"","month":"2016-09"},{"category":"violent-crime","location_type":"Force","location":{"latitude":"51.385474","street":{"id":929153,"name":"On or near Hospital"},"longitude":"-0.189373"},"context":"","outcome_status":{"category":"Investigation complete; no suspect identified","date":"2016-10"},"persistent_id":"c95b184b47225700621b5659e695fd831b5396f35f567690163b48fd42d10256","id":51571256,"location_subtype":"","month":"2016-09"},{"category":"violent-crime","location_type":"Force","location":{"latitude":"51.378663","street":{"id":929193,"name":"On or near Wendling Road"},"longitude":"-0.180460"},"context":"","outcome_status":{"category":"Investigation complete; no suspect identified","date":"2016-09"},"persistent_id":"e8b611fd406344904f674e555616dcef49b3d18b578729208da640cc528e2906","id":51569838,"location_subtype":"","month":"2016-09"},{"category":"violent-crime","location_type":"Force","location":{"latitude":"51.378847","street":{"id":929156,"name":"On or near Welhouse Road"},"longitude":"-0.174906"},"context":"","outcome_status":{"category":"Investigation complete; no suspect identified","date":"2016-10"},"persistent_id":"7b4248ee16dd61c4b0d4b3d168aea22eaeb931d1dbd2d96b97ef01b4ad29c278","id":51579616,"location_subtype":"","month":"2016-09"},{"category":"violent-crime","location_type":"Force","location":{"latitude":"51.380554","street":{"id":924063,"name":"On or near Wrythe Lane"},"longitude":"-0.182957"},"context":"","outcome_status":{"category":"Investigation complete; no suspect identified","date":"2016-10"},"persistent_id":"6fc048d692521bb0cd36971690ba17fa3d81e7be75c23b8fd54784764849094f","id":51552360,"location_subtype":"","month":"2016-09"},{"category":"violent-crime","location_type":"Force","location":{"latitude":"51.387423","street":{"id":930354,"name":"On or near Middleton Road"},"longitude":"-0.181679"},"context":"","outcome_status":{"category":"Court result unavailable","date":"2017-06"},"persistent_id":"7ed7256cf8d7deec680bddfbdb060ee3a94097500096d11d78154bb374d50558","id":51587020,"location_subtype":"","month":"2016-09"},{"category":"violent-crime","location_type":"Force","location":{"latitude":"51.382573","street":{"id":929129,"name":"On or near Rosehill Avenue"},"longitude":"-0.189028"},"context":"","outcome_status":{"category":"Status update unavailable","date":"2017-01"},"persistent_id":"4e8e285fd320dacaf8a5fb8581cee21e49134971f412fcfa697fe6d153ae3b1f","id":51589543,"location_subtype":"","month":"2016-09"},{"category":"violent-crime","location_type":"Force","location":{"latitude":"51.382573","street":{"id":929129,"name":"On or near Rosehill Avenue"},"longitude":"-0.189028"},"context":"","outcome_status":{"category":"Investigation complete; no suspect identified","date":"2016-09"},"persistent_id":"1e51ad1caf5803f84e614d169f8c7fe05e8c69ee56fa14e6d3af83b5630302cb","id":51563333,"location_subtype":"","month":"2016-09"},{"category":"violent-crime","location_type":"Force","location":{"latitude":"51.379582","street":{"id":929154,"name":"On or near Woburn Road"},"longitude":"-0.174215"},"context":"","outcome_status":{"category":"Offender given community sentence","date":"2016-10"},"persistent_id":"4e07519b4b377ed2a10a7494b4eac44a6b7d026f904fdd9e275fb17705b6a717","id":51558238,"location_subtype":"","month":"2016-09"},{"category":"violent-crime","location_type":"Force","location":{"latitude":"51.385474","street":{"id":929153,"name":"On or near Hospital"},"longitude":"-0.189373"},"context":"","outcome_status":{"category":"Status update unavailable","date":"2017-01"},"persistent_id":"940814c281f099327fe5bdb9514018119ff149f8c4cc692e4b102dc47db4d29e","id":51540757,"location_subtype":"","month":"2016-09"},{"category":"violent-crime","location_type":"Force","location":{"latitude":"51.385272","street":{"id":929284,"name":"On or near Hartland Road"},"longitude":"-0.197860"},"context":"","outcome_status":{"category":"Status update unavailable","date":"2017-01"},"persistent_id":"d651ede28b70221fc758a81d70d565b3ac447036f53441c101200a9f175ff92e","id":51545767,"location_subtype":"","month":"2016-09"},{"category":"violent-crime","location_type":"Force","location":{"latitude":"51.384705","street":{"id":929168,"name":"On or near Robertsbridge Road"},"longitude":"-0.183856"},"context":"","outcome_status":{"category":"Defendant found not guilty","date":"2017-02"},"persistent_id":"a099c6c26732dfdb7239c293a2e02b981136dbbdaf8a5795cfd3f4e5411b25bb","id":51532592,"location_subtype":"","month":"2016-09"},{"category":"violent-crime","location_type":"Force","location":{"latitude":"51.382493","street":{"id":929166,"name":"On or near Titchfield Road"},"longitude":"-0.178641"},"context":"","outcome_status":{"category":"Offender given community sentence","date":"2016-09"},"persistent_id":"05ab102d6b8e3e5a9c3adfaf8e1160d7d8b8ff8b829d795f75bd6c7703d675ca","id":51559113,"location_subtype":"","month":"2016-09"},{"category":"violent-crime","location_type":"Force","location":{"latitude":"51.385474","street":{"id":929153,"name":"On or near Hospital"},"longitude":"-0.189373"},"context":"","outcome_status":{"category":"Investigation complete; no suspect identified","date":"2016-10"},"persistent_id":"940814c281f099327fe5bdb9514018119ff149f8c4cc692e4b102dc47db4d29e","id":51543222,"location_subtype":"","month":"2016-09"},{"category":"violent-crime","location_type":"Force","location":{"latitude":"51.384047","street":{"id":929182,"name":"On or near Assembly Walk"},"longitude":"-0.174512"},"context":"","outcome_status":{"category":"Investigation complete; no suspect identified","date":"2016-10"},"persistent_id":"5b275f59bee76045d053c8df33647f8d25adcab76d6abe8ebc4bdf6371b1358f","id":51581335,"location_subtype":"","month":"2016-09"},{"category":"violent-crime","location_type":"Force","location":{"latitude":"51.378402","street":{"id":929191,"name":"On or near Whitby Gardens"},"longitude":"-0.181591"},"context":"","outcome_status":{"category":"Offender sent to prison","date":"2017-02"},"persistent_id":"97d347686b49a4b561ebc62e0aa31cdbb371a5d2d8090fecb8b17c01dc7c74f1","id":51570497,"location_subtype":"","month":"2016-09"},{"category":"other-crime","location_type":"Force","location":{"latitude":"51.378663","street":{"id":929193,"name":"On or near Wendling Road"},"longitude":"-0.180460"},"context":"","outcome_status":{"category":"Court result unavailable","date":"2017-04"},"persistent_id":"4c8180a312c492dcb0b7fcf7994ab27852ca20515fb5676eb477caf76daa5512","id":51556150,"location_subtype":"","month":"2016-09"}]