[{"category":"anti-social-behaviour","location_type":"Force","location":{"latitude":"51.566699","street":{"id":976677,"name":"On or near Emerson Drive"},"longitude":"0.217695"},"context":"","outcome_status":null,"persistent_id":"","id":51522681,"location_subtype":"","month":"2016-09"},{"category":"anti-social-behaviour","location_type":"Force","location":{"latitude":"51.565738","street":{"id":976678,"name":"On or near Billet Lane"},"longitude":"0.218601"},"context":"","outcome_status":null,"persistent_id":"","id":51522696,"location_subtype":"","month":"2016-09"},{"category":"anti-social-behaviour","location_type":"Force","location":{"latitude":"51.560745","street":{"id":970340,"name":"On or near Sandown Avenue"},"longitude":"0.217276"},"context":"","outcome_status":null,"persistent_id":"","id":51522704,"location_subtype":"","month":"2016-09"},{"category":"anti-social-behaviour","location_type":"Force","location":{"latitude":"51.567705","street":{"id":976670,"name":"On or near Cromer Road"},"longitude":"0.216345"},"context":"","outcome_status":null,"persistent_id":"","id":51522718,"location_subtype":"","month":"2016-09"},{"category":"anti-social-behaviour","location_type":"Force","location":{"latitude":"51.557377","street":{"id":970460,"name":"On or near Parkhill Close"},"longitude":"0.207504"},"context":"","outcome_status":null,"persistent_id":"","id":51523708,"location_subtype":"","month":"2016-09"},{"category":"anti-social-behaviour","location_type":"Force","location":{"latitude":"51.551131","street":{"id":970083,"name":"On or near Diban Avenue"},"longitude":"0.202485"},"context":"","outcome_status":null,"persistent_id":"","id":51523731,"location_subtype":"","month":"2016-09"},{"category":"anti-social-behaviour","location_type":"Force","location":{"latitude":"51.558345","street":{"id":970373,"name":"On or near Hacton Lane"},"longitude":"0.229061"},"context":"","outcome_status":null,"persistent_id":"","id":51522625,"location_subtype":"","month":"2016-09"},{"category":"anti-social-behaviour","location_type":"Force","location":{"latitude":"51.557022","street":{"id":923800,"name":"On or near Ravenscourt Grove"},"longitude":"0.224842"},"context":"","outcome_status":null,"persistent_id":"","id":51522642,"location_subtype":"","month":"2016-09"},{"category":"anti-social-behaviour","location_type":"Force","location":{"latitude":"51.560745","street":{"id":970340,"name":"On or near Sandown Avenue"},"longitude":"0.217276"},"context":"","outcome_status":null,"persistent_id":"","id":51522712,"location_subtype":"","month":"2016-09"},{"category":"anti-social-behaviour","location_type":"Force","location":{"latitude":"51.562865","street":{"id":970388,"name":"On or near Westland Avenue"},"longitude":"0.224983"},"context":"","outcome_status":null,"persistent_id":"","id":51522644,"location_subtype":"","month":"2016-09"},{"category":"anti-social-behaviour","location_type":"Force","location":{"latitude":"51.563044","street":{"id":970397,"name":"On or near Leather Lane"},"longitude":"0.219797"},"context":"","outcome_status":null,"persistent_id":"","id":51522667,"location_subtype":"","month":"2016-09"},{"category":"anti-social-behaviour","location_type":"Force","location":{"latitude":"51.563044","street":{"id":970397,"name":"On or near Leather Lane"},"longitude":"0.219797"},"context":"","outcome_status":null,"persistent_id":"","id":51522668,"location_subtype":"","month":"2016-09"},{"category":"anti-social-behaviour","location_type":"Force","location":{"latitude":"51.563044","street":{"id":970397,"name":"On or near Leather Lane"},"longitude":"0.219797"},"context":"","outcome_status":null,"persistent_id":"","id":51522669,"location_subtype":"","month":"2016-09"},{"category":"anti-social-behaviour","location_type":"Force","location":{"latitude":"51.563044","street":{"id":970397,"name":"On or near Leather Lane"},"longitude":"0.219797"},"context":"","outcome_status":null,"persistent_id":"","id":51522670,"location_subtype":"","month":"2016-09"},{"category":"anti-social-behaviour","location_type":"Force","location":{"latitude":"51.563044","street":{"id":970397,"name":"On or near Leather Lane"},"longitude":"0.219797"},"context":"","outcome_status":null,"persistent_id":"","id":51522671,"location_subtype":"","month":"2016-09"},{"category":"anti-social-behaviour","location_type":"Force","location":{"latitude":"51.563044","street":{"id":970397,"name":"On or near Leather Lane"},"longitude":"0.219797"},"context":"","outcome_status":null,"persistent_id":"","id":51522672,"location_subtype":"","month":"2016-09"},{"category":"anti-social-behaviour","location_type":"Force","location":{"latitude":"51.563044","street":{"id":970397,"name":"On or near Leather Lane"},"longitude":"0.219797"},"context":"","outcome_status":null,"persistent_id":"","id":51522673,"location_subtype":"","month":"2016-09"},{"category":"anti-social-behaviour","location_type":"Force","location":{"latitude":"51.563044","street":{"id":970397,"name":"On or near Leather Lane"},"longitude":"0.219797"},"context":"","outcome_status":null,"persistent_id":"","id":51522674,"location_subtype":"","month":"2016-09"},{"category":"anti-social-behaviour","location_type":"Force","location":{"latitude":"51.563044","street":{"id":970397,"name":"On or near Leather Lane"},"longitude":"0.219797"},"context":"","outcome_status":null,"persistent_id":"","id":51522675,"location_subtype":"","month":"2016-09"},{"category":"anti-social-behaviour","location_type":"Force","location":{"latitude":"51.563044","street":{"id":970397,"name":"On or near Leather Lane"},"longitude":"0.219797"},"context":"","outcome_status":null,"persistent_id":"","id":51522676,"location_subtype":"","month":"2016-09"},{"category":"anti-social-behaviour","location_type":"Force","location":{"latitude":"51.561360","street":{"id":970387,"name":"On or near Wingletye Lane"},"longitude":"0.231287"},"context":"","outcome_status":null,"persistent_id":"","id":51522613,"location_subtype":"","month":"2016-09"},{"category":"anti-social-behaviour","location_type":"Force","location":{"latitude":"51.561360","street":{"id":970387,"name":"On or near Wingletye Lane"},"longitude":"0.231287"},"context":"","outcome_status":null,"persistent_id":"","id":51522614,"location_subtype":"","month":"2016-09"},{"category":"anti-social-behaviour","location_type":"Force","location":{"latitude":"51.557395","street":{"id":970370,"name":"On or near Kenley Gardens"},"longitude":"0.230313"},"context":"","outcome_status":null,"persistent_id":"","id":51522624,"location_subtype":"","month":"2016-09"},{"category":"burglary","location_type":"Force","location":{"latitude":"51.560986","street":{"id":970471,"name":"On or near White Gates"},"longitude":"0.212584"},"context":"","outcome_status":{"category":"Investigation complete; no suspect identified","date":"2016-12"},"persistent_id":"09066a6d6bb76fbc45a3786c666a86b793caf5a8337900dc075c60f7b2848ae6","id":51555142,"location_subtype":"","month":"2016-09"},{"category":"burglary","location_type":"Force","location":{"latitude":"51.563096","street":{"id":970353,"name":"On or near Supermarket"},"longitude":"0.217982"},"context":"","outcome_status":{"category":"Investigation complete; no suspect identified","date":"2017-02"},"persistent_id":"55c155dbda530847147974c410db0470463ac84fe5c42a5010263d116f7fba68","id":51535512,"location_subtype":"","month":"2016-09"},{"category":"burglary","location_type":"Force","location":{"latitude":"51.558448","street":{"id":970366,"name":"On or near Mill Park Avenue"},"longitude":"0.222690"},"context":"","outcome_status":{"category":"Investigation complete; no suspect identified","date":"2016-10"},"persistent_id":"d1ab40ffc9d4febba4e93294b7ac921c9ba293ab5e301f8db3c60480ce4c68b6","id":51570631,"location_subtype":"","month":"2016-09"},{"category":"burglary","location_type":"Force","location":{"latitude":"51.560893","street":{"id":970334,"name":"On or near Parking Area"},"longitude":"0.219433"},"context":"","outcome_status":{"category":"Status update unavailable","date":"2017-01"},"persistent_id":"8b5a30bc1defa2e4c86c8e5eb5ef4f9e7d4ae8d45d91813572ffac910e166499","id":51551778,"location_subtype":"","month":"2016-09"},{"category":"burglary","location_type":"Force","location":{"latitude":"51.557022","street":{"id":923800,"name":"On or near Ravenscourt Grove"},"longitude":"0.224842"},"context":"","outcome_status":{"category":"Status update unavailable","date":"2017-01"},"persistent_id":"90109cc130381fa596a098b86da4525ab1e4e576db6b6d968a73fa9516e7da7d","id":51559211,"location_subtype":"","month":"2016-09"},{"category":"burglary","location_type":"Force","location":{"latitude":"51.561264","street":{"id":970485,"name":"On or near Abbs Cross Gardens"},"longitude":"0.213593"},"context":"","outcome_status":{"category":"Status update unavailable","date":"2017-01"},"persistent_id":"2280d5cf63c10dbaba7668c2fccd85ee507fdab52147f181d1aaacba19347a90","id":51555071,"location_subtype":"","month":"2016-09"},{"category":"burglary","location_type":"Force","location":{"latitude":"51.557022","street":{"id":923800,"name":"On or near Ravenscourt Grove"},"longitude":"0.224842"},"context":"","outcome_status":{"category":"Investigation complete; no suspect identified","date":"2016-10"},"persistent_id":"12e5109047e7ffc1f0ab5c49ed3c6fd3c168ad4781eb1a5108bb0871661d5115","id":51574584,"location_subtype":"","month":"2016-09"},{"category":"burglary","location_type":"Force","location":{"latitude":"51.553242","street":{"id":970519,"name":"On or near St Nicholas Avenue"},"longitude":"0.197826"},"context":"","outcome_status":{"category":"Status update unavailable","date":"2017-01"},"persistent_id":"2e888df87d2126f1f7006602fcd17d58fa556dcdfc7f3547b0b9ff9018489cea","id":51538011,"location_subtype":"","month":"2016-09"},{"category":"burglary","location_type":"Force","location":{"latitude":"51.563096","street":{"id":970353,"name":"On or near Supermarket"},"longitude":"0.217982"},"context":"","outcome_status":{"category":"Court result unavailable","date":"2017-03"},"persistent_id":"52154fd15f2d3d1efd9122e671b2ef3a86067533d3f7027c470fe7ed57eb0c92","id":51570303,"location_subtype":"","month":"2016-09"},{"category":"burglary","location_type":"Force","location":{"latitude":"51.563568","street":{"id":970346,"name":"On or near Parking Area"},"longitude":"0.215884"},"context":"","outcome_status":{"category":"Investigation complete; no suspect identified","date":"2016-11"},"persistent_id":"997729575905fbcfef3799219754c998dcf04838a674b425729b46838960caa8","id":51569438,"location_subtype":"","month":"2016-09"},{"category":"criminal-damage-arson","location_type":"Force","location":{"latitude":"51.558345","street":{"id":970373,"name":"On or near Hacton Lane"},"longitude":"0.229061"},"context":"","outcome_status":{"category":"Investigation complete; no suspect identified","date":"2016-10"},"persistent_id":"0ec5f969c4d7a698fa56e5852d9c9d917f9f7473a39a54c84c7ffac4543a0038","id":51539553,"location_subtype":"","month":"2016-09"},{"category":"criminal-damage-arson","location_type":"Force","location":{"latitude":"51.558345","street":{"id":970373,"name":"On or near Hacton Lane"},"longitude":"0.229061"},"context":"","outcome_status":{"category":"Investigation complete; no suspect identified","date":"2016-09"},"persistent_id":"458d55de75bdf285744b1a9a10c1bda3435279b26a3e347b80f03dde7c872b37","id":51557410,"location_subtype":"","month":"2016-09"},{"category":"drugs","location_type":"Force","location":{"latitude":"51.550358","street":{"id":970065,"name":"On or near The Broadway"},"longitude":"0.199101"},"context":"","outcome_status":{"category":"Offender given penalty notice","date":"2016-09"},"persistent_id":"a4451c00e6bf76cc54dc138290b7ec65ae2115ef7329e5f9fc5d708e4cfed3f9","id":51573485,"location_subtype":"","month":"2016-09"},{"category":"drugs","location_type":"Force","location":{"latitude":"51.550358","street":{"id":970065,"name":"On or near The Broadway"},"longitude":"0.199101"},"context":"","outcome_status":{"category":"Offender given a drugs possession warning","date":"2016-09"},"persistent_id":"5f0648049c6420694b6e7f224d4e9977209c22161d16f5ff502fe1f682e2cf77","id":51561490,"location_subtype":"","month":"2016-09"},{"category":"other-theft","location_type":"Force","location":{"latitude":"51.563044","street":{"id":970397,"name":"On or near Leather Lane"},"longitude":"0.219797"},"context":"","outcome_status":{"category":"Investigation complete; no suspect identified","date":"2016-10"},"persistent_id":"b6762bd2b4e14b65a9413b4441c24feac48783a97e62c4dc58f4f45555d7d177","id":51540260,"location_subtype":"","month":"2016-09"},{"category":"other-theft","location_type":"Force","location":{"latitude":"51.562886","street":{"id":970486,"name":"On or near Walnut Grove"},"longitude":"0.214379"},"context":"","outcome_status":{"category":"Investigation complete; no suspect identified","date":"2017-01"},"persistent_id":"e8a0a00c4ca8118a34361a5d552f3d1c080e90451e84dc78c039b70287c50a2e","id":51542814,"location_subtype":"","month":"2016-09"},{"category":"other-theft","location_type":"Force","location":{"latitude":"51.568220","street":{"id":976675,"name":"On or near Supermarket"},"longitude":"0.219516"},"context":"","outcome_status":{"category":"Investigation complete; no suspect identified","date":"2016-09"},"persistent_id":"a85c2c64c2be687c5430c804a101d8103362c008dffcc522bfbc557ae5cf9f1e","id":51574200,"location_subtype":"","month":"2016-09"},{"category":"other-theft","location_type":"Force","location":{"latitude":"51.568220","street":{"id":976675,"name":"On or near Supermarket"},"longitude":"0.219516"},"context":"","outcome_status":{"category":"Investigation complete; no suspect identified","date":"2016-09"},"persistent_id":"8bbf79c239ff9c6673789327e39fa2b98861eac62041c377a1b772020a74772a","id":51563431,"location_subtype":"","month":"2016-09"},{"category":"other-theft","location_type":"Force","location":{"latitude":"51.560745","street":{"id":970340,"name":"On or near Sandown Avenue"},"longitude":"0.217276"},"context":"","outcome_status":{"category":"Status update unavailable","date":"2017-01"},"persistent_id":"9d6997c0ceb91756c359d1d437072d460d001faec39b17e780861b3efc74bb6c","id":51561960,"location_subtype":"","month":"2016-09"},{"category":"other-theft","location_type":"Force","location":{"latitude":"51.557377","street":{"id":970460,"name":"On or near Parkhill Close"},"longitude":"0.207504"},"context":"","outcome_status":{"category":"Status update unavailable","date":"2017-01"},"persistent_id":"f0b7eebc23253ecac5c70cfd2b17de6dcecc0bd0e231d8ae0469e87d2bdadb06","id":51552057,"location_subtype":"","month":"2016-09"},{"category":"other-theft","location_type":"Force","location":{"latitude":"51.568220","street":{"id":976675,"name":"On or near Supermarket"},"longitude":"0.219516"},"context":"","outcome_status":{"category":"Investigation complete; no suspect identified","date":"2016-09"},"persistent_id":"32771ab3f3671782d49e843ca2b255eb19f2dee359026f89030d38cebbf8d2cd","id":51549796,"location_subtype":"","month":"2016-09"},{"category":"other-theft","location_type":"Force","location":{"latitude":"51.568220","street":{"id":976675,"name":"On or near Supermarket"},"longitude":"0.219516"},"context":"","outcome_status":{"category":"Investigation complete; no suspect identified","date":"2016-09"},"persistent_id":"640fd5a9fba9ed0e2b8f1f547eeba9ba41e30f494f648d046f685082f384adeb","id":51550639,"location_subtype":"","month":"2016-09"},{"category":"other-theft","location_type":"Force","location":{"latitude":"51.552329","street":{"id":970081,"name":"On or near Elm Park Avenue"},"longitude":"0.202845"},"context":"","outcome_status":{"category":"Status update unavailable","date":"2017-01"},"persistent_id":"8d692d9df815132c8274edc48f4be35ec88c4e321ec95e6cccd2411a5944d283","id":51539398,"location_subtype":"","month":"2016-09"},{"category":"other-theft","location_type":"Force","location":{"latitude":"51.565305","street":{"id":970352,"name":"On or near Theatre\/concert Hall"},"longitude":"0.219619"},"context":"","outcome_status":{"category":"Investigation complete; no suspect identified","date":"2016-10"},"persistent_id":"ea519bce9a2a6bd8858a6133a37293bc7318fe850405cf9c1dd736eba9aa5016","id":51546669,"location_subtype":"","month":"2016-09"},{"category":"other-theft","location_type":"Force","location":{"latitude":"51.560332","street":{"id":970356,"name":"On or near The Walk"},"longitude":"0.234309"},"context":"","outcome_status":{"category":"Offender given suspended prison sentence","date":"2016-10"},"persistent_id":"47a8e3dc5ef4bddf2832d3637f508c185b95364905b88b5890881f573fc09257","id":51557551,"location_subtype":"","month":"2016-09"},{"category":"possession-of-weapons","location_type":"Force","location":{"latitude":"51.560427","street":{"id":970383,"name":"On or near Further\/higher Educational Building"},"longitude":"0.232583"},"context":"","outcome_status":{"category":"Status update unavailable","date":"2017-01"},"persistent_id":"645d1af15926f27c3ecf3595f0860a44a6e7ce80e807cc19d883fd1caae551c7","id":51563770,"location_subtype":"","month":"2016-09"},{"category":"public-order","location_type":"Force","location":{"latitude":"51.557022","street":{"id":923800,"name":"On or near Ravenscourt Grove"},"longitude":"0.224842"},"context":"","outcome_status":{"category":"Investigation complete; no suspect identified","date":"2016-09"},"persistent_id":"9adaa8fa33f41014572b1eadb7445cef981a515eec9c405f7872dac7b4ab8367","id":51544583,"location_subtype":"","month":"2016-09"},{"category":"public-order","location_type":"Force","location":{"latitude":"51.560986","street":{"id":970471,"name":"On or near White Gates"},"longitude":"0.212584"},"context":"","outcome_status":{"category":"Investigation complete; no suspect identified","date":"2017-01"},"persistent_id":"eaf4c4942819220044122335c69ce15f587c831a97055f4f551af8cc17c30126","id":51560424,"location_subtype":"","month":"2016-09"},{"category":"robbery","location_type":"Force","location":{"latitude":"51.554832","street":{"id":970469,"name":"On or near Sports\/recreation Area"},"longitude":"0.205606"},"context":"","outcome_status":{"category":"Investigation complete; no suspect identified","date":"2016-12"},"persistent_id":"475c7800e0359f1e247cb5965504d1ce0a2de7d1bf028e28ac8e2ba494270924","id":51571146,"location_subtype":"","month":"2016-09"},{"category":"robbery","location_type":"Force","location":{"latitude":"51.562058","street":{"id":970488,"name":"On or near Victor Approach"},"longitude":"0.215334"},"context":"","outcome_status":{"category":"Investigation complete; no suspect identified","date":"2016-10"},"persistent_id":"4d0f7862e15b6b70726e14618564af021bad820fbd06263ac12eeb26802da300","id":51550104,"location_subtype":"","month":"2016-09"},{"category":"shoplifting","location_type":"Force","location":{"latitude":"51.562156","street":{"id":970345,"name":"On or near Parking Area"},"longitude":"0.217777"},"context":"","outcome_status":{"category":"Investigation complete; no suspect identified","date":"2016-10"},"persistent_id":"9648f3b74dcc9631d972f4c221e763115ceb34e3dadddabaa5d907b51be2de67","id":51558249,"location_subtype":"","month":"2016-09"},{"category":"shoplifting","location_type":"Force","location":{"latitude":"51.563096","street":{"id":970353,"name":"On or near Supermarket"},"longitude":"0.217982"},"context":"","outcome_status":{"category":"Status update unavailable","date":"2017-01"},"persistent_id":"7e9718dcb26d24f54233c69a1cd5de575375a94b0ea9934182279d7e42d2f3cc","id":51544648,"location_subtype":"","month":"2016-09"},{"category":"shoplifting","location_type":"Force","location":{"latitude":"51.562156","street":{"id":970345,"name":"On or near Parking Area"},"longitude":"0.217777"},"context":"","outcome_status":{"category":"Offender given penalty notice","date":"2016-09"},"persistent_id":"6ddc3515e6bfda33a2887545d48467e03c59af7fdcc891b89dd969c7e9bc117c","id":51559830,"location_subtype":"","month":"2016-09"},{"category":"theft-from-the-person","location_type":"Force","location":{"latitude":"51.563443","street":{"id":970392,"name":"On or near Patricia Drive"},"longitude":"0.227247"},"context":"","outcome_status":{"category":"Status update unavailable","date":"2017-01"},"persistent_id":"a091d9112034087900df0e4cfa380ca009aa2b731bf94cba3939dd8886f352cc","id":51548579,"location_subtype":"","month":"2016-09"},{"category":"vehicle-crime","location_type":"Force","location":{"latitude":"51.550358","street":{"id":970065,"name":"On or near The Broadway"},"longitude":"0.199101"},"context":"","outcome_status":{"category":"Investigation complete; no suspect identified","date":"2016-10"},"persistent_id":"9982c214bf22a8fc6b232788cf977166e3c6fee46a5fd39d5b9cbd2e8c9c94e6","id":51554752,"location_subtype":"","month":"2016-09"},{"category":"vehicle-crime","location_type":"Force","location":{"latitude":"51.567529","street":{"id":976645,"name":"On or near Kershaw Close"},"longitude":"0.221372"},"context":"","outcome_status":{"category":"Status update unavailable","date":"2017-01"},"persistent_id":"3213f85556bbe7189c5f16bbc7244d7c1de5ea043e5543219c6c0dbae6181a7c","id":51551483,"location_subtype":"","month":"2016-09"},{"category":"vehicle-crime","location_type":"Force","location":{"latitude":"51.560318","street":{"id":970367,"name":"On or near Mavis Grove"},"longitude":"0.221771"},"context":"","outcome_status":{"category":"Status update unavailable","date":"2017-01"},"persistent_id":"cd48b6a26a95391953be4a4feae6d3312d6d393d985716deff74235399be2d0b","id":51558206,"location_subtype":"","month":"2016-09"},{"category":"vehicle-crime","location_type":"Force","location":{"latitude":"51.568712","street":{"id":976671,"name":"On or near Butts Green Road"},"longitude":"0.219655"},"context":"","outcome_status":{"category":"Investigation complete; no suspect identified","date":"2016-11"},"persistent_id":"cbefff75fe6d9b1b139ba11677415ba3d767251c9b05b95751a701abfef7fcba","id":51549053,"location_subtype":"","month":"2016-09"},{"category":"vehicle-crime","location_type":"Force","location":{"latitude":"51.556214","street":{"id":970361,"name":"On or near Ravenscourt Drive"},"longitude":"0.223821"},"context":"","outcome_status":{"category":"Status update unavailable","date":"2017-01"},"persistent_id":"f10eaed829b291af6a2ad3a2433e2e06cd1c0e8d61ac584b477efb3ff72c615e","id":51573169,"location_subtype":"","month":"2016-09"},{"category":"vehicle-crime","location_type":"Force","location":{"latitude":"51.562156","street":{"id":970345,"name":"On or near Parking Area"},"longitude":"0.217777"},"context":"","outcome_status":{"category":"Status update unavailable","date":"2017-01"},"persistent_id":"9dbd67066429ebf134141152e41acfc6284456817ddd662202cc62c2c02bcb0c","id":51543760,"location_subtype":"","month":"2016-09"},{"category":"vehicle-crime","location_type":"Force","location":{"latitude":"51.567806","street":{"id":976534,"name":"On or near Boscombe Avenue"},"longitude":"0.213839"},"context":"","outcome_status":{"category":"Status update unavailable","date":"2017-01"},"persistent_id":"25c5be755993cb2bab0114989c733c0ee34da3ae2999e05ecd23f6af119aa86f","id":51542878,"location_subtype":"","month":"2016-09"},{"category":"violent-crime","location_type":"Force","location":{"latitude":"51.562066","street":{"id":970487,"name":"On or near Victor Close"},"longitude":"0.213517"},"context":"","outcome_status":{"category":"Investigation complete; no suspect identified","date":"2016-11"},"persistent_id":"8b483e10c226a14212b6fe03ea7430d68e20288ba38db795d67058ce89869c53","id":51566539,"location_subtype":"","month":"2016-09"},{"category":"violent-crime","location_type":"Force","location":{"latitude":"51.563096","street":{"id":970353,"name":"On or near Supermarket"},"longitude":"0.217982"},"context":"","outcome_status":{"category":"Status update unavailable","date":"2017-01"},"persistent_id":"52154fd15f2d3d1efd9122e671b2ef3a86067533d3f7027c470fe7ed57eb0c92","id":51568394,"location_subtype":"","month":"2016-09"},{"category":"violent-crime","location_type":"Force","location":{"latitude":"51.556328","street":{"id":970458,"name":"On or near Priors Park"},"longitude":"0.209228"},"context":"","outcome_status":{"category":"Investigation complete; no suspect identified","date":"2017-03"},"persistent_id":"31bfec9d1c935042efb56ed46e332284a808ced8ea4757f5782ac0248bc24037","id":51557786,"location_subtype":"","month":"2016-09"},{"category":"violent-crime","location_type":"Force","location":{"latitude":"51.562066","street":{"id":970487,"name":"On or near Victor Close"},"longitude":"0.213517"},"context":"","outcome_status":{"category":"Investigation complete; no suspect identified","date":"2016-09"},"persistent_id":"bb12f5928786facfb475531cbd62187ee904d4e3c6794e1ad6039241ee43eb36","id":51548615,"location_subtype":"","month":"2016-09"},{"category":"violent-crime","location_type":"Force","location":{"latitude":"51.558345","street":{"id":970373,"name":"On or near Hacton Lane"},"longitude":"0.229061"},"context":"","outcome_status":{"category":"Investigation complete; no suspect identified","date":"2016-10"},"persistent_id":"0f656b240348c3423d079e6338af7215021ad977d19c77d4c8ec57842692d555","id":51556554,"location_subtype":"","month":"2016-09"},{"category":"violent-crime","location_type":"Force","location":{"latitude":"51.561559","street":{"id":970398,"name":"On or near Inskip Drive"},"longitude":"0.225078"},"context":"","outcome_status":{"category":"Court result unavailable","date":"2017-09"},"persistent_id":"89c1edb3a13c246b2b1e03da2a4bab003c985892bdf523c792ba9ed44566b46b","id":51549107,"location_subtype":"","month":"2016-09"},{"category":"violent-crime","location_type":"Force","location":{"latitude":"51.560986","street":{"id":970471,"name":"On or near White Gates"},"longitude":"0.212584"},"context":"","outcome_status":{"category":"Status update unavailable","date":"2017-01"},"persistent_id":"5b622fc1824201638cbad9777d7772e25e8ccbe130cd1e6f6bdd4e51cedc1664","id":51551303,"location_subtype":"","month":"2016-09"},{"category":"violent-crime","location_type":"Force","location":{"latitude":"51.550358","street":{"id":970065,"name":"On or near The Broadway"},"longitude":"0.199101"},"context":"","outcome_status":{"category":"Investigation complete; no suspect identified","date":"2017-01"},"persistent_id":"431323097f28093819d8afab37ddb4e09b2e28900232dc9db7332403c1cb641d","id":51583066,"location_subtype":"","month":"2016-09"},{"category":"violent-crime","location_type":"Force","location":{"latitude":"51.562271","street":{"id":970407,"name":"On or near Brendans Close"},"longitude":"0.224074"},"context":"","outcome_status":{"category":"Investigation complete; no suspect identified","date":"2016-10"},"persistent_id":"a0faec5cb5094cb775d0cc9b5883b0203fb59f04941aaf214d3fc99569f7b32e","id":51554768,"location_subtype":"","month":"2016-09"},{"category":"violent-crime","location_type":"Force","location":{"latitude":"51.561803","street":{"id":970399,"name":"On or near High Street"},"longitude":"0.220776"},"context":"","outcome_status":{"category":"Investigation complete; no suspect identified","date":"2016-10"},"persistent_id":"97a95892882c09e76b80935ca185796e911fa52f7ff09b16f89fe4a8c2957e5a","id":51589905,"location_subtype":"","month":"2016-09"},{"category":"violent-crime","location_type":"Force","location":{"latitude":"51.565738","street":{"id":976678,"name":"On or near Billet Lane"},"longitude":"0.218601"},"context":"","outcome_status":{"category":"Investigation complete; no suspect identified","date":"2016-09"},"persistent_id":"0c82963d03f24a40f53f67fa837165d30e4034613aa9e42520b13477b5872989","id":51553547,"location_subtype":"","month":"2016-09"},{"category":"violent-crime","location_type":"Force","location":{"latitude":"51.561803","street":{"id":970399,"name":"On or near High Street"},"longitude":"0.220776"},"context":"","outcome_status":{"category":"Investigation complete; no suspect identified","date":"2017-01"},"persistent_id":"2230ea8707eb4c970ab8a8d5a02679bf247437d22733808fb341a8469c32a383","id":51561510,"location_subtype":"","month":"2016-09"},{"category":"violent-crime","location_type":"Force","location":{"latitude":"51.551993","street":{"id":970091,"name":"On or near Brian Close"},"longitude":"0.203017"},"context":"","outcome_status":{"category":"Investigation complete; no suspect identified","date":"2016-10"},"persistent_id":"69cbcad37b4aa808e8d75cce6ce605eb309c25b5d3b19ae44e7fabb34f6c6951","id":51561615,"location_subtype":"","month":"2016-09"},{"category":"violent-crime","location_type":"Force","location":{"latitude":"51.563096","street":{"id":970353,"name":"On or near Supermarket"},"longitude":"0.217982"},"context":"","outcome_status":{"category":"Investigation complete; no suspect identified","date":"2016-12"},"persistent_id":"2fc0f7789def992c31735cc7eb2299bc06c820eff518a2b22a485994ac077546","id":51565213,"location_subtype":"","month":"2016-09"},{"category":"other-crime","location_type":"Force","location":{"latitude":"51.564105","street":{"id":970347,"name":"On or near Parking Area"},"longitude":"0.217901"},"context":"","outcome_status":{"category":"Investigation complete; no suspect identified","date":"2016-10"},"persistent_id":"2536a510f2925838a17a2307a3a63f36b7b45b90c1534c5440fc765ff132256d","id":51557651,"location_subtype":"","month":"2016-09"}]