[{"category":"anti-social-behaviour","location_type":"Force","location":{"latitude":"51.607655","street":{"id":983035,"name":"On or near Boxmoor Road"},"longitude":"0.166990"},"context":"","outcome_status":null,"persistent_id":"","id":53835933,"location_subtype":"","month":"2016-12"},{"category":"anti-social-behaviour","location_type":"Force","location":{"latitude":"51.616405","street":{"id":983013,"name":"On or near Wellingtonia Avenue"},"longitude":"0.181592"},"context":"","outcome_status":null,"persistent_id":"","id":53835281,"location_subtype":"","month":"2016-12"},{"category":"anti-social-behaviour","location_type":"Force","location":{"latitude":"51.604426","street":{"id":982646,"name":"On or near Bushy Close"},"longitude":"0.178707"},"context":"","outcome_status":null,"persistent_id":"","id":53835305,"location_subtype":"","month":"2016-12"},{"category":"anti-social-behaviour","location_type":"Force","location":{"latitude":"51.604426","street":{"id":982646,"name":"On or near Bushy Close"},"longitude":"0.178707"},"context":"","outcome_status":null,"persistent_id":"","id":53835303,"location_subtype":"","month":"2016-12"},{"category":"anti-social-behaviour","location_type":"Force","location":{"latitude":"51.603860","street":{"id":982615,"name":"On or near Havering Road"},"longitude":"0.180139"},"context":"","outcome_status":null,"persistent_id":"","id":53835294,"location_subtype":"","month":"2016-12"},{"category":"anti-social-behaviour","location_type":"Force","location":{"latitude":"51.602551","street":{"id":982508,"name":"On or near Philan Way"},"longitude":"0.173101"},"context":"","outcome_status":null,"persistent_id":"","id":53835332,"location_subtype":"","month":"2016-12"},{"category":"anti-social-behaviour","location_type":"Force","location":{"latitude":"51.609428","street":{"id":983027,"name":"On or near St Johns Road"},"longitude":"0.169862"},"context":"","outcome_status":null,"persistent_id":"","id":53835931,"location_subtype":"","month":"2016-12"},{"category":"anti-social-behaviour","location_type":"Force","location":{"latitude":"51.602551","street":{"id":982508,"name":"On or near Philan Way"},"longitude":"0.173101"},"context":"","outcome_status":null,"persistent_id":"","id":53835333,"location_subtype":"","month":"2016-12"},{"category":"anti-social-behaviour","location_type":"Force","location":{"latitude":"51.604516","street":{"id":982537,"name":"On or near Dominion Drive"},"longitude":"0.163129"},"context":"","outcome_status":null,"persistent_id":"","id":53835943,"location_subtype":"","month":"2016-12"},{"category":"anti-social-behaviour","location_type":"Force","location":{"latitude":"51.604516","street":{"id":982537,"name":"On or near Dominion Drive"},"longitude":"0.163129"},"context":"","outcome_status":null,"persistent_id":"","id":53835944,"location_subtype":"","month":"2016-12"},{"category":"anti-social-behaviour","location_type":"Force","location":{"latitude":"51.604516","street":{"id":982537,"name":"On or near Dominion Drive"},"longitude":"0.163129"},"context":"","outcome_status":null,"persistent_id":"","id":53835945,"location_subtype":"","month":"2016-12"},{"category":"anti-social-behaviour","location_type":"Force","location":{"latitude":"51.609499","street":{"id":983030,"name":"On or near Patmore Way"},"longitude":"0.160160"},"context":"","outcome_status":null,"persistent_id":"","id":53835949,"location_subtype":"","month":"2016-12"},{"category":"anti-social-behaviour","location_type":"Force","location":{"latitude":"51.600948","street":{"id":982563,"name":"On or near Taylor Close"},"longitude":"0.154237"},"context":"","outcome_status":null,"persistent_id":"","id":53835957,"location_subtype":"","month":"2016-12"},{"category":"anti-social-behaviour","location_type":"Force","location":{"latitude":"51.603860","street":{"id":982615,"name":"On or near Havering Road"},"longitude":"0.180139"},"context":"","outcome_status":null,"persistent_id":"","id":53835293,"location_subtype":"","month":"2016-12"},{"category":"anti-social-behaviour","location_type":"Force","location":{"latitude":"51.604426","street":{"id":982646,"name":"On or near Bushy Close"},"longitude":"0.178707"},"context":"","outcome_status":null,"persistent_id":"","id":53835304,"location_subtype":"","month":"2016-12"},{"category":"burglary","location_type":"Force","location":{"latitude":"51.599452","street":{"id":982554,"name":"On or near B174"},"longitude":"0.163192"},"context":"","outcome_status":{"category":"Status update unavailable","date":"2017-04"},"persistent_id":"b3c9d81b509866e1107944140d9cc4ba70a08745c9476744cd26021e331b2c06","id":53854853,"location_subtype":"","month":"2016-12"},{"category":"burglary","location_type":"Force","location":{"latitude":"51.601900","street":{"id":982503,"name":"On or near Sheila Close"},"longitude":"0.160174"},"context":"","outcome_status":{"category":"Status update unavailable","date":"2017-04"},"persistent_id":"3100b88eceffa01e3e6a9b4898d39fb902ea1472629eb627f1c2b2e15b732fb6","id":53864269,"location_subtype":"","month":"2016-12"},{"category":"burglary","location_type":"Force","location":{"latitude":"51.605027","street":{"id":982527,"name":"On or near Harlow Gardens"},"longitude":"0.168121"},"context":"","outcome_status":{"category":"Investigation complete; no suspect identified","date":"2017-01"},"persistent_id":"c3046c3dcf305412822d48df58127b2540a7e30692c78efa446280fb442e99f2","id":53862324,"location_subtype":"","month":"2016-12"},{"category":"burglary","location_type":"Force","location":{"latitude":"51.609428","street":{"id":983027,"name":"On or near St Johns Road"},"longitude":"0.169862"},"context":"","outcome_status":{"category":"Investigation complete; no suspect identified","date":"2017-02"},"persistent_id":"ec503ce63c9ba4da876496e65b8926a094f2ba6e52e1f0820f0d44e7540fef02","id":53899786,"location_subtype":"","month":"2016-12"},{"category":"burglary","location_type":"Force","location":{"latitude":"51.616405","street":{"id":983013,"name":"On or near Wellingtonia Avenue"},"longitude":"0.181592"},"context":"","outcome_status":{"category":"Status update unavailable","date":"2017-04"},"persistent_id":"2d7ceef89acd9271cfe1b279ad17a34d36bfbc719a2645de3dfe8da4e50d50e4","id":53903705,"location_subtype":"","month":"2016-12"},{"category":"criminal-damage-arson","location_type":"Force","location":{"latitude":"51.605027","street":{"id":982527,"name":"On or near Harlow Gardens"},"longitude":"0.168121"},"context":"","outcome_status":{"category":"Investigation complete; no suspect identified","date":"2017-04"},"persistent_id":"3b54d1ea6c373188d596220d359402a7e4d9d8f6777c59177f824ed45ce726d2","id":53857803,"location_subtype":"","month":"2016-12"},{"category":"criminal-damage-arson","location_type":"Force","location":{"latitude":"51.603403","street":{"id":982645,"name":"On or near Chase Cross Road"},"longitude":"0.176145"},"context":"","outcome_status":{"category":"Investigation complete; no suspect identified","date":"2017-01"},"persistent_id":"cbceb084db9edc54f3e016c7d3d3e16a34c8b14b33519e0d6f5fa006042168f0","id":53888047,"location_subtype":"","month":"2016-12"},{"category":"criminal-damage-arson","location_type":"Force","location":{"latitude":"51.607375","street":{"id":983010,"name":"On or near Ashvale Gardens"},"longitude":"0.176306"},"context":"","outcome_status":{"category":"Status update unavailable","date":"2017-04"},"persistent_id":"3993c16af5b372c842b7e9646ce6a389bc428341d1c83830a59ba47073b69e30","id":53889652,"location_subtype":"","month":"2016-12"},{"category":"criminal-damage-arson","location_type":"Force","location":{"latitude":"51.607188","street":{"id":983041,"name":"On or near Vernon Road"},"longitude":"0.171373"},"context":"","outcome_status":{"category":"Investigation complete; no suspect identified","date":"2017-09"},"persistent_id":"c10c23923f7744549d84ba327e9cfbf4a6c6b90ec9ed9bd9fb51becdbdca65c5","id":53871869,"location_subtype":"","month":"2016-12"},{"category":"criminal-damage-arson","location_type":"Force","location":{"latitude":"51.601478","street":{"id":982577,"name":"On or near Carter Close"},"longitude":"0.157699"},"context":"","outcome_status":{"category":"Status update unavailable","date":"2017-04"},"persistent_id":"3d07f3b4bd21ae01367d26e21ab4b3790f9815e744c691969604abc31d8112b3","id":53856102,"location_subtype":"","month":"2016-12"},{"category":"other-theft","location_type":"Force","location":{"latitude":"51.605237","street":{"id":982516,"name":"On or near Larchwood Close"},"longitude":"0.166470"},"context":"","outcome_status":{"category":"Status update unavailable","date":"2017-04"},"persistent_id":"d9384ee5a8e8a8d840388a37ef603bb9f33b0c08a0cb5e883606e86583206fc1","id":53884031,"location_subtype":"","month":"2016-12"},{"category":"other-theft","location_type":"Force","location":{"latitude":"51.603117","street":{"id":982578,"name":"On or near Bacon Link"},"longitude":"0.158514"},"context":"","outcome_status":{"category":"Investigation complete; no suspect identified","date":"2017-08"},"persistent_id":"bcbd6ddbd2a42371ee684e8bd69818fffc4a278b64b9fc59f41f54e6e52a87b8","id":53849460,"location_subtype":"","month":"2016-12"},{"category":"other-theft","location_type":"Force","location":{"latitude":"51.608438","street":{"id":983025,"name":"On or near Trescoe Gardens"},"longitude":"0.170378"},"context":"","outcome_status":{"category":"Investigation complete; no suspect identified","date":"2016-12"},"persistent_id":"14169a106859627bc6884a9a39fa8d67699bbb2ca7f44d64b46d5b188d7f80e0","id":53849734,"location_subtype":"","month":"2016-12"},{"category":"other-theft","location_type":"Force","location":{"latitude":"51.602661","street":{"id":982543,"name":"On or near Burland Road"},"longitude":"0.167691"},"context":"","outcome_status":{"category":"Status update unavailable","date":"2017-04"},"persistent_id":"bdeb251c59781aa209ed561b023f57ea497e41c77964a12f76bb984726777575","id":53855025,"location_subtype":"","month":"2016-12"},{"category":"other-theft","location_type":"Force","location":{"latitude":"51.600853","street":{"id":982641,"name":"On or near Gobions Avenue"},"longitude":"0.175460"},"context":"","outcome_status":{"category":"Status update unavailable","date":"2017-04"},"persistent_id":"8cbbf96df2715f28ec4f821c6fc0a21c84bd1db3eda24ca1aa9a102e694f1a98","id":53853853,"location_subtype":"","month":"2016-12"},{"category":"public-order","location_type":"Force","location":{"latitude":"51.599699","street":{"id":982648,"name":"On or near Bower Close"},"longitude":"0.176113"},"context":"","outcome_status":{"category":"Investigation complete; no suspect identified","date":"2016-12"},"persistent_id":"9b880a8c7bd66a489589d825d03c622af2ebcb65a8f7c444eaf64084c1ea6427","id":53852693,"location_subtype":"","month":"2016-12"},{"category":"robbery","location_type":"Force","location":{"latitude":"51.600068","street":{"id":982529,"name":"On or near Hampden Road"},"longitude":"0.163423"},"context":"","outcome_status":{"category":"Investigation complete; no suspect identified","date":"2017-01"},"persistent_id":"6f3ab65270094a797ad7ae829717b4971a129b34f462d5dd630a668522e6b28c","id":53862475,"location_subtype":"","month":"2016-12"},{"category":"vehicle-crime","location_type":"Force","location":{"latitude":"51.605772","street":{"id":982538,"name":"On or near Clockhouse Lane"},"longitude":"0.165759"},"context":"","outcome_status":{"category":"Status update unavailable","date":"2017-04"},"persistent_id":"febde8bf58d607a75e74d75290103f86b9ea51e849bd0bb3ef2dc425a6dabeac","id":53856639,"location_subtype":"","month":"2016-12"},{"category":"vehicle-crime","location_type":"Force","location":{"latitude":"51.616405","street":{"id":983013,"name":"On or near Wellingtonia Avenue"},"longitude":"0.181592"},"context":"","outcome_status":{"category":"Status update unavailable","date":"2017-04"},"persistent_id":"8240a1f46f619b92a9e72cdc576c72f5e62968c66567b207ce2c29668fd48000","id":53857725,"location_subtype":"","month":"2016-12"},{"category":"vehicle-crime","location_type":"Force","location":{"latitude":"51.602486","street":{"id":982642,"name":"On or near Galleywood Crescent"},"longitude":"0.178600"},"context":"","outcome_status":{"category":"Status update unavailable","date":"2017-04"},"persistent_id":"40f25c4a638bbc4e83cc18233888601b297d12b36e993038c6d262dc9789f68f","id":53857592,"location_subtype":"","month":"2016-12"},{"category":"vehicle-crime","location_type":"Force","location":{"latitude":"51.605027","street":{"id":982527,"name":"On or near Harlow Gardens"},"longitude":"0.168121"},"context":"","outcome_status":{"category":"Status update unavailable","date":"2017-04"},"persistent_id":"e377d7c68007f96fa5968c106844b9ca3d3600c2aeada75ae573045a02a907c2","id":53853626,"location_subtype":"","month":"2016-12"},{"category":"vehicle-crime","location_type":"Force","location":{"latitude":"51.606487","street":{"id":983051,"name":"On or near Carter Drive"},"longitude":"0.161591"},"context":"","outcome_status":{"category":"Status update unavailable","date":"2017-04"},"persistent_id":"774e53f826852408dfd1717a73c1d24547f6563cdc1a407afa77afab527fc0f8","id":53882845,"location_subtype":"","month":"2016-12"},{"category":"vehicle-crime","location_type":"Force","location":{"latitude":"51.600853","street":{"id":982641,"name":"On or near Gobions Avenue"},"longitude":"0.175460"},"context":"","outcome_status":{"category":"Investigation complete; no suspect identified","date":"2017-01"},"persistent_id":"d17c18d2e22898da91bb563318334f27ba7614bf1b5d0692af4a9e6fac356d55","id":53847304,"location_subtype":"","month":"2016-12"},{"category":"vehicle-crime","location_type":"Force","location":{"latitude":"51.599713","street":{"id":982547,"name":"On or near Berkeley Avenue"},"longitude":"0.171002"},"context":"","outcome_status":{"category":"Status update unavailable","date":"2017-04"},"persistent_id":"bf0c219161b2ec158306b3e2fd4473c3eeab94767a3df5330734aabdd9633e72","id":53886080,"location_subtype":"","month":"2016-12"},{"category":"vehicle-crime","location_type":"Force","location":{"latitude":"51.601478","street":{"id":982577,"name":"On or near Carter Close"},"longitude":"0.157699"},"context":"","outcome_status":{"category":"Status update unavailable","date":"2017-04"},"persistent_id":"7652d418327addb639960dc602a4d83dded0cdddc02894417064e1b9d2cb6d37","id":53846680,"location_subtype":"","month":"2016-12"},{"category":"vehicle-crime","location_type":"Force","location":{"latitude":"51.600889","street":{"id":982569,"name":"On or near Penn Gardens"},"longitude":"0.154523"},"context":"","outcome_status":{"category":"Investigation complete; no suspect identified","date":"2017-01"},"persistent_id":"10daa4f00b6f602e777c595c2cc935858f7102cc28f50dcc0273f3eacc99b686","id":53862346,"location_subtype":"","month":"2016-12"},{"category":"vehicle-crime","location_type":"Force","location":{"latitude":"51.599713","street":{"id":982547,"name":"On or near Berkeley Avenue"},"longitude":"0.171002"},"context":"","outcome_status":{"category":"Investigation complete; no suspect identified","date":"2017-02"},"persistent_id":"c8985e302bd09d5ddf11450e212efdd9a1cc6c552118d932879ffabf7b6346bd","id":53872468,"location_subtype":"","month":"2016-12"},{"category":"vehicle-crime","location_type":"Force","location":{"latitude":"51.603657","street":{"id":982509,"name":"On or near Paceheath Close"},"longitude":"0.172157"},"context":"","outcome_status":{"category":"Status update unavailable","date":"2017-04"},"persistent_id":"9de7b2de59bdf59e8178c2b4d2b4a68249da7c6fc6488dfa72a4dd20cb099f80","id":53848067,"location_subtype":"","month":"2016-12"},{"category":"vehicle-crime","location_type":"Force","location":{"latitude":"51.604088","street":{"id":982575,"name":"On or near Defoe Way"},"longitude":"0.157563"},"context":"","outcome_status":{"category":"Status update unavailable","date":"2017-04"},"persistent_id":"4a69836a3bc9c44a198246538f8f2ecd826371f10cdd2bce147b622ccf765005","id":53893421,"location_subtype":"","month":"2016-12"},{"category":"violent-crime","location_type":"Force","location":{"latitude":"51.605237","street":{"id":982516,"name":"On or near Larchwood Close"},"longitude":"0.166470"},"context":"","outcome_status":{"category":"Investigation complete; no suspect identified","date":"2018-04"},"persistent_id":"51b6d75b112df8e29a6961a8ebcc24352b67c1d6576f064707b60b61816e0726","id":53877756,"location_subtype":"","month":"2016-12"},{"category":"violent-crime","location_type":"Force","location":{"latitude":"51.606953","street":{"id":983053,"name":"On or near Pennington Close"},"longitude":"0.155793"},"context":"","outcome_status":{"category":"Status update unavailable","date":"2017-04"},"persistent_id":"c8d2edff8c7feafcda34f2062ac3f731bbf637c3233e962f2ef5db604913015d","id":53868307,"location_subtype":"","month":"2016-12"},{"category":"violent-crime","location_type":"Force","location":{"latitude":"51.600948","street":{"id":982563,"name":"On or near Taylor Close"},"longitude":"0.154237"},"context":"","outcome_status":{"category":"Status update unavailable","date":"2017-04"},"persistent_id":"eea69feb7e2be9d35c976d2980dc27a130fae238f194605c547343c87edbea33","id":53849262,"location_subtype":"","month":"2016-12"},{"category":"violent-crime","location_type":"Force","location":{"latitude":"51.604891","street":{"id":982521,"name":"On or near Highfield Road"},"longitude":"0.170599"},"context":"","outcome_status":{"category":"Investigation complete; no suspect identified","date":"2017-03"},"persistent_id":"7e2a4ad6886f91d91523375e77878a607f8e9a877ccf94baa499451b4cdc7ffd","id":53851719,"location_subtype":"","month":"2016-12"},{"category":"violent-crime","location_type":"Force","location":{"latitude":"51.605772","street":{"id":982538,"name":"On or near Clockhouse Lane"},"longitude":"0.165759"},"context":"","outcome_status":{"category":"Investigation complete; no suspect identified","date":"2017-01"},"persistent_id":"923cb830fcd5e6c294d7413df09a4b38db47b9c320550f19f4a62f199cc1a03b","id":53855736,"location_subtype":"","month":"2016-12"},{"category":"violent-crime","location_type":"Force","location":{"latitude":"51.607271","street":{"id":983055,"name":"On or near Lodge Lane"},"longitude":"0.156125"},"context":"","outcome_status":{"category":"Investigation complete; no suspect identified","date":"2017-04"},"persistent_id":"4c8a6446c5cbc8a869c683db427f000d649651e4554209dc6c5eefbdccd02f48","id":53859927,"location_subtype":"","month":"2016-12"},{"category":"violent-crime","location_type":"Force","location":{"latitude":"51.600068","street":{"id":982529,"name":"On or near Hampden Road"},"longitude":"0.163423"},"context":"","outcome_status":{"category":"Investigation complete; no suspect identified","date":"2017-03"},"persistent_id":"24c9d82beb08339a225a666d548f54d133c5752f0cc2848a742875ab6afb745a","id":53869196,"location_subtype":"","month":"2016-12"},{"category":"violent-crime","location_type":"Force","location":{"latitude":"51.609428","street":{"id":983027,"name":"On or near St Johns Road"},"longitude":"0.169862"},"context":"","outcome_status":{"category":"Investigation complete; no suspect identified","date":"2017-01"},"persistent_id":"831c0757a363b247343323cb3961d8bd7d466e6b478522dd6d5d24eed21fda17","id":53870345,"location_subtype":"","month":"2016-12"},{"category":"violent-crime","location_type":"Force","location":{"latitude":"51.600854","street":{"id":982542,"name":"On or near Cardiff Close"},"longitude":"0.172977"},"context":"","outcome_status":{"category":"Investigation complete; no suspect identified","date":"2017-01"},"persistent_id":"c8b227e672560f6e74b34dea302ce3ba9fcbf3716559ae10e4bd95e2ca6fe11a","id":53861508,"location_subtype":"","month":"2016-12"},{"category":"violent-crime","location_type":"Force","location":{"latitude":"51.602084","street":{"id":982512,"name":"On or near Lynwood Drive"},"longitude":"0.161916"},"context":"","outcome_status":{"category":"Investigation complete; no suspect identified","date":"2016-12"},"persistent_id":"0c8bfc6fdec54d53d8b05ae0e8e0094182ad6695914b23d1d48608c0479c62f5","id":53861457,"location_subtype":"","month":"2016-12"},{"category":"violent-crime","location_type":"Force","location":{"latitude":"51.600068","street":{"id":982529,"name":"On or near Hampden Road"},"longitude":"0.163423"},"context":"","outcome_status":{"category":"Investigation complete; no suspect identified","date":"2017-02"},"persistent_id":"e5d08c7e800cffbd6d00b475f7c1fd4fb08eb5eb0eef4975c5ebc0ac49b906c2","id":53862554,"location_subtype":"","month":"2016-12"},{"category":"violent-crime","location_type":"Force","location":{"latitude":"51.607271","street":{"id":983055,"name":"On or near Lodge Lane"},"longitude":"0.156125"},"context":"","outcome_status":{"category":"Investigation complete; no suspect identified","date":"2017-04"},"persistent_id":"8b9bbe9a23bd2f4038508e39dd981913b4e4088b26525f5c7f15ade83dc24f96","id":53864638,"location_subtype":"","month":"2016-12"},{"category":"violent-crime","location_type":"Force","location":{"latitude":"51.601703","street":{"id":982647,"name":"On or near Broomfield Close"},"longitude":"0.177624"},"context":"","outcome_status":{"category":"Offender given a caution","date":"2017-03"},"persistent_id":"4f4a31a27c3bdaf716d4fd42cfab804b1881d9cc2532a8c737ad4d4b148e9780","id":53868758,"location_subtype":"","month":"2016-12"},{"category":"violent-crime","location_type":"Force","location":{"latitude":"51.605027","street":{"id":982527,"name":"On or near Harlow Gardens"},"longitude":"0.168121"},"context":"","outcome_status":{"category":"Status update unavailable","date":"2017-04"},"persistent_id":"c92a65396c601d26621ee44229a2ec7833e47eb041bf968b55d4c4015abe7fa4","id":53890627,"location_subtype":"","month":"2016-12"},{"category":"violent-crime","location_type":"Force","location":{"latitude":"51.602631","street":{"id":982552,"name":"On or near Ascension Road"},"longitude":"0.170245"},"context":"","outcome_status":{"category":"Investigation complete; no suspect identified","date":"2017-04"},"persistent_id":"1e83088a8549c2b0a4940d98b0907dc0f77b0c206e949e025e634e0c1d46b337","id":53897635,"location_subtype":"","month":"2016-12"},{"category":"violent-crime","location_type":"Force","location":{"latitude":"51.606488","street":{"id":983044,"name":"On or near Hillrise Road"},"longitude":"0.171282"},"context":"","outcome_status":{"category":"Investigation complete; no suspect identified","date":"2017-01"},"persistent_id":"715fccca1deecb64bc8f3492739853da8511177df305ac50c358c37914f1fea5","id":53899514,"location_subtype":"","month":"2016-12"},{"category":"violent-crime","location_type":"Force","location":{"latitude":"51.600948","street":{"id":982563,"name":"On or near Taylor Close"},"longitude":"0.154237"},"context":"","outcome_status":{"category":"Investigation complete; no suspect identified","date":"2017-02"},"persistent_id":"26363e7f04a9d022cfec299fe160c39bd0fa2b7295b6a81ca6ef1df5ad431b34","id":53900175,"location_subtype":"","month":"2016-12"},{"category":"violent-crime","location_type":"Force","location":{"latitude":"51.604963","street":{"id":982637,"name":"On or near Kew Close"},"longitude":"0.179354"},"context":"","outcome_status":{"category":"Investigation complete; no suspect identified","date":"2016-12"},"persistent_id":"5df3473dab84029f8e3d838121b539632a683c03f619b26729d71327f3ebfa55","id":53855674,"location_subtype":"","month":"2016-12"},{"category":"violent-crime","location_type":"Force","location":{"latitude":"51.608856","street":{"id":983023,"name":"On or near Cornell Way"},"longitude":"0.158959"},"context":"","outcome_status":{"category":"Investigation complete; no suspect identified","date":"2016-12"},"persistent_id":"91c6c9a654203095ae419af9a5d8a31422c72c5ea313074b0006597fccabc5ac","id":53846441,"location_subtype":"","month":"2016-12"},{"category":"violent-crime","location_type":"Force","location":{"latitude":"51.608980","street":{"id":983033,"name":"On or near Firbank Road"},"longitude":"0.163428"},"context":"","outcome_status":{"category":"Investigation complete; no suspect identified","date":"2016-12"},"persistent_id":"1f93de340558e45f5c30c3e79952bf74a05fecd05d5a1bd3d0af07346acc33d2","id":53844652,"location_subtype":"","month":"2016-12"},{"category":"violent-crime","location_type":"Force","location":{"latitude":"51.612851","street":{"id":983014,"name":"On or near Orange Tree Hill"},"longitude":"0.180714"},"context":"","outcome_status":{"category":"Investigation complete; no suspect identified","date":"2017-02"},"persistent_id":"4956e60e9ff157bbfd13fc52352693f79dab31c3352b9287c0c5e55358993103","id":53848567,"location_subtype":"","month":"2016-12"},{"category":"violent-crime","location_type":"Force","location":{"latitude":"51.605027","street":{"id":982527,"name":"On or near Harlow Gardens"},"longitude":"0.168121"},"context":"","outcome_status":{"category":"Investigation complete; no suspect identified","date":"2016-12"},"persistent_id":"cf780f8053d7a9590a6ffc79a335fa033591dad6878fa1311405e574f29369bb","id":53898063,"location_subtype":"","month":"2016-12"}]