[{"category":"anti-social-behaviour","location_type":"Force","location":{"latitude":"51.577473","street":{"id":976466,"name":"On or near Shopping Area"},"longitude":"0.182166"},"context":"","outcome_status":null,"persistent_id":"","id":60670654,"location_subtype":"","month":"2017-10"},{"category":"anti-social-behaviour","location_type":"Force","location":{"latitude":"51.573710","street":{"id":976405,"name":"On or near Milton Road"},"longitude":"0.192983"},"context":"","outcome_status":null,"persistent_id":"","id":60670572,"location_subtype":"","month":"2017-10"},{"category":"anti-social-behaviour","location_type":"Force","location":{"latitude":"51.571139","street":{"id":976411,"name":"On or near Kyme Road"},"longitude":"0.189107"},"context":"","outcome_status":null,"persistent_id":"","id":60670582,"location_subtype":"","month":"2017-10"},{"category":"anti-social-behaviour","location_type":"Force","location":{"latitude":"51.578773","street":{"id":976476,"name":"On or near Shopping Area"},"longitude":"0.186270"},"context":"","outcome_status":null,"persistent_id":"","id":60670594,"location_subtype":"","month":"2017-10"},{"category":"anti-social-behaviour","location_type":"Force","location":{"latitude":"51.583189","street":{"id":977034,"name":"On or near Main Road"},"longitude":"0.190105"},"context":"","outcome_status":null,"persistent_id":"","id":60670581,"location_subtype":"","month":"2017-10"},{"category":"anti-social-behaviour","location_type":"Force","location":{"latitude":"51.566895","street":{"id":976509,"name":"On or near South Street"},"longitude":"0.186652"},"context":"","outcome_status":null,"persistent_id":"","id":60670599,"location_subtype":"","month":"2017-10"},{"category":"anti-social-behaviour","location_type":"Force","location":{"latitude":"51.566895","street":{"id":976509,"name":"On or near South Street"},"longitude":"0.186652"},"context":"","outcome_status":null,"persistent_id":"","id":60670598,"location_subtype":"","month":"2017-10"},{"category":"anti-social-behaviour","location_type":"Force","location":{"latitude":"51.566895","street":{"id":976509,"name":"On or near South Street"},"longitude":"0.186652"},"context":"","outcome_status":null,"persistent_id":"","id":60670597,"location_subtype":"","month":"2017-10"},{"category":"anti-social-behaviour","location_type":"Force","location":{"latitude":"51.573956","street":{"id":976417,"name":"On or near Hearn Road"},"longitude":"0.186573"},"context":"","outcome_status":null,"persistent_id":"","id":60670596,"location_subtype":"","month":"2017-10"},{"category":"anti-social-behaviour","location_type":"Force","location":{"latitude":"51.578773","street":{"id":976476,"name":"On or near Shopping Area"},"longitude":"0.186270"},"context":"","outcome_status":null,"persistent_id":"","id":60670595,"location_subtype":"","month":"2017-10"},{"category":"anti-social-behaviour","location_type":"Force","location":{"latitude":"51.575926","street":{"id":976424,"name":"On or near Corbridge Mews"},"longitude":"0.188457"},"context":"","outcome_status":null,"persistent_id":"","id":60670589,"location_subtype":"","month":"2017-10"},{"category":"anti-social-behaviour","location_type":"Force","location":{"latitude":"51.575926","street":{"id":976424,"name":"On or near Corbridge Mews"},"longitude":"0.188457"},"context":"","outcome_status":null,"persistent_id":"","id":60670588,"location_subtype":"","month":"2017-10"},{"category":"anti-social-behaviour","location_type":"Force","location":{"latitude":"51.575509","street":{"id":976429,"name":"On or near Broadfield Close"},"longitude":"0.192002"},"context":"","outcome_status":null,"persistent_id":"","id":60670579,"location_subtype":"","month":"2017-10"},{"category":"anti-social-behaviour","location_type":"Force","location":{"latitude":"51.584633","street":{"id":976896,"name":"On or near St Ivians Drive"},"longitude":"0.195588"},"context":"","outcome_status":null,"persistent_id":"","id":60670578,"location_subtype":"","month":"2017-10"},{"category":"anti-social-behaviour","location_type":"Force","location":{"latitude":"51.584633","street":{"id":976896,"name":"On or near St Ivians Drive"},"longitude":"0.195588"},"context":"","outcome_status":null,"persistent_id":"","id":60670577,"location_subtype":"","month":"2017-10"},{"category":"anti-social-behaviour","location_type":"Force","location":{"latitude":"51.577476","street":{"id":976404,"name":"On or near Monkwood Close"},"longitude":"0.193583"},"context":"","outcome_status":null,"persistent_id":"","id":60670576,"location_subtype":"","month":"2017-10"},{"category":"anti-social-behaviour","location_type":"Force","location":{"latitude":"51.583436","street":{"id":977018,"name":"On or near Parking Area"},"longitude":"0.191762"},"context":"","outcome_status":null,"persistent_id":"","id":60670575,"location_subtype":"","month":"2017-10"},{"category":"anti-social-behaviour","location_type":"Force","location":{"latitude":"51.579702","street":{"id":977053,"name":"On or near Market Link"},"longitude":"0.180786"},"context":"","outcome_status":null,"persistent_id":"","id":60670665,"location_subtype":"","month":"2017-10"},{"category":"anti-social-behaviour","location_type":"Force","location":{"latitude":"51.573754","street":{"id":976465,"name":"On or near Supermarket"},"longitude":"0.182912"},"context":"","outcome_status":null,"persistent_id":"","id":60670620,"location_subtype":"","month":"2017-10"},{"category":"anti-social-behaviour","location_type":"Force","location":{"latitude":"51.575852","street":{"id":976583,"name":"On or near Rushdon Close"},"longitude":"0.197243"},"context":"","outcome_status":null,"persistent_id":"","id":60670559,"location_subtype":"","month":"2017-10"},{"category":"anti-social-behaviour","location_type":"Force","location":{"latitude":"51.575852","street":{"id":976583,"name":"On or near Rushdon Close"},"longitude":"0.197243"},"context":"","outcome_status":null,"persistent_id":"","id":60670558,"location_subtype":"","month":"2017-10"},{"category":"anti-social-behaviour","location_type":"Force","location":{"latitude":"51.580781","street":{"id":977055,"name":"On or near Bus\/coach Station"},"longitude":"0.181300"},"context":"","outcome_status":null,"persistent_id":"","id":60670664,"location_subtype":"","month":"2017-10"},{"category":"anti-social-behaviour","location_type":"Force","location":{"latitude":"51.580781","street":{"id":977055,"name":"On or near Bus\/coach Station"},"longitude":"0.181300"},"context":"","outcome_status":null,"persistent_id":"","id":60670663,"location_subtype":"","month":"2017-10"},{"category":"anti-social-behaviour","location_type":"Force","location":{"latitude":"51.573754","street":{"id":976465,"name":"On or near Supermarket"},"longitude":"0.182912"},"context":"","outcome_status":null,"persistent_id":"","id":60670622,"location_subtype":"","month":"2017-10"},{"category":"anti-social-behaviour","location_type":"Force","location":{"latitude":"51.576862","street":{"id":976494,"name":"On or near Logan Mews"},"longitude":"0.178269"},"context":"","outcome_status":null,"persistent_id":"","id":60670681,"location_subtype":"","month":"2017-10"},{"category":"anti-social-behaviour","location_type":"Force","location":{"latitude":"51.576862","street":{"id":976494,"name":"On or near Logan Mews"},"longitude":"0.178269"},"context":"","outcome_status":null,"persistent_id":"","id":60670680,"location_subtype":"","month":"2017-10"},{"category":"anti-social-behaviour","location_type":"Force","location":{"latitude":"51.576862","street":{"id":976494,"name":"On or near Logan Mews"},"longitude":"0.178269"},"context":"","outcome_status":null,"persistent_id":"","id":60670679,"location_subtype":"","month":"2017-10"},{"category":"anti-social-behaviour","location_type":"Force","location":{"latitude":"51.573754","street":{"id":976465,"name":"On or near Supermarket"},"longitude":"0.182912"},"context":"","outcome_status":null,"persistent_id":"","id":60670623,"location_subtype":"","month":"2017-10"},{"category":"anti-social-behaviour","location_type":"Force","location":{"latitude":"51.580187","street":{"id":977063,"name":"On or near Pedestrian Subway"},"longitude":"0.178385"},"context":"","outcome_status":null,"persistent_id":"","id":60670678,"location_subtype":"","month":"2017-10"},{"category":"anti-social-behaviour","location_type":"Force","location":{"latitude":"51.574697","street":{"id":976485,"name":"On or near Waterloo Gardens"},"longitude":"0.177646"},"context":"","outcome_status":null,"persistent_id":"","id":60670677,"location_subtype":"","month":"2017-10"},{"category":"anti-social-behaviour","location_type":"Force","location":{"latitude":"51.573754","street":{"id":976465,"name":"On or near Supermarket"},"longitude":"0.182912"},"context":"","outcome_status":null,"persistent_id":"","id":60670624,"location_subtype":"","month":"2017-10"},{"category":"anti-social-behaviour","location_type":"Force","location":{"latitude":"51.572513","street":{"id":976445,"name":"On or near Waterloo Road"},"longitude":"0.179547"},"context":"","outcome_status":null,"persistent_id":"","id":60670673,"location_subtype":"","month":"2017-10"},{"category":"anti-social-behaviour","location_type":"Force","location":{"latitude":"51.572513","street":{"id":976445,"name":"On or near Waterloo Road"},"longitude":"0.179547"},"context":"","outcome_status":null,"persistent_id":"","id":60670672,"location_subtype":"","month":"2017-10"},{"category":"anti-social-behaviour","location_type":"Force","location":{"latitude":"51.572513","street":{"id":976445,"name":"On or near Waterloo Road"},"longitude":"0.179547"},"context":"","outcome_status":null,"persistent_id":"","id":60670671,"location_subtype":"","month":"2017-10"},{"category":"anti-social-behaviour","location_type":"Force","location":{"latitude":"51.575316","street":{"id":976464,"name":"On or near Nightclub"},"longitude":"0.182611"},"context":"","outcome_status":null,"persistent_id":"","id":60670632,"location_subtype":"","month":"2017-10"},{"category":"anti-social-behaviour","location_type":"Force","location":{"latitude":"51.578657","street":{"id":976460,"name":"On or near Angel Way"},"longitude":"0.178947"},"context":"","outcome_status":null,"persistent_id":"","id":60670670,"location_subtype":"","month":"2017-10"},{"category":"anti-social-behaviour","location_type":"Force","location":{"latitude":"51.580976","street":{"id":977054,"name":"On or near Haysoms Close"},"longitude":"0.179029"},"context":"","outcome_status":null,"persistent_id":"","id":60670669,"location_subtype":"","month":"2017-10"},{"category":"anti-social-behaviour","location_type":"Force","location":{"latitude":"51.580976","street":{"id":977054,"name":"On or near Haysoms Close"},"longitude":"0.179029"},"context":"","outcome_status":null,"persistent_id":"","id":60670668,"location_subtype":"","month":"2017-10"},{"category":"anti-social-behaviour","location_type":"Force","location":{"latitude":"51.572513","street":{"id":976445,"name":"On or near Waterloo Road"},"longitude":"0.179547"},"context":"","outcome_status":null,"persistent_id":"","id":60670666,"location_subtype":"","month":"2017-10"},{"category":"anti-social-behaviour","location_type":"Force","location":{"latitude":"51.580781","street":{"id":977055,"name":"On or near Bus\/coach Station"},"longitude":"0.181300"},"context":"","outcome_status":null,"persistent_id":"","id":60670662,"location_subtype":"","month":"2017-10"},{"category":"anti-social-behaviour","location_type":"Force","location":{"latitude":"51.580781","street":{"id":977055,"name":"On or near Bus\/coach Station"},"longitude":"0.181300"},"context":"","outcome_status":null,"persistent_id":"","id":60670661,"location_subtype":"","month":"2017-10"},{"category":"anti-social-behaviour","location_type":"Force","location":{"latitude":"51.576989","street":{"id":976468,"name":"On or near Shopping Area"},"longitude":"0.180137"},"context":"","outcome_status":null,"persistent_id":"","id":60670660,"location_subtype":"","month":"2017-10"},{"category":"anti-social-behaviour","location_type":"Force","location":{"latitude":"51.580061","street":{"id":977050,"name":"On or near Shopping Area"},"longitude":"0.182305"},"context":"","outcome_status":null,"persistent_id":"","id":60670633,"location_subtype":"","month":"2017-10"},{"category":"anti-social-behaviour","location_type":"Force","location":{"latitude":"51.577473","street":{"id":976466,"name":"On or near Shopping Area"},"longitude":"0.182166"},"context":"","outcome_status":null,"persistent_id":"","id":60670659,"location_subtype":"","month":"2017-10"},{"category":"anti-social-behaviour","location_type":"Force","location":{"latitude":"51.577473","street":{"id":976466,"name":"On or near Shopping Area"},"longitude":"0.182166"},"context":"","outcome_status":null,"persistent_id":"","id":60670658,"location_subtype":"","month":"2017-10"},{"category":"anti-social-behaviour","location_type":"Force","location":{"latitude":"51.577473","street":{"id":976466,"name":"On or near Shopping Area"},"longitude":"0.182166"},"context":"","outcome_status":null,"persistent_id":"","id":60670657,"location_subtype":"","month":"2017-10"},{"category":"anti-social-behaviour","location_type":"Force","location":{"latitude":"51.577473","street":{"id":976466,"name":"On or near Shopping Area"},"longitude":"0.182166"},"context":"","outcome_status":null,"persistent_id":"","id":60670656,"location_subtype":"","month":"2017-10"},{"category":"anti-social-behaviour","location_type":"Force","location":{"latitude":"51.574004","street":{"id":976461,"name":"On or near Bus\/coach Station"},"longitude":"0.182043"},"context":"","outcome_status":null,"persistent_id":"","id":60670642,"location_subtype":"","month":"2017-10"},{"category":"anti-social-behaviour","location_type":"Force","location":{"latitude":"51.577473","street":{"id":976466,"name":"On or near Shopping Area"},"longitude":"0.182166"},"context":"","outcome_status":null,"persistent_id":"","id":60670655,"location_subtype":"","month":"2017-10"},{"category":"anti-social-behaviour","location_type":"Force","location":{"latitude":"51.577473","street":{"id":976466,"name":"On or near Shopping Area"},"longitude":"0.182166"},"context":"","outcome_status":null,"persistent_id":"","id":60670651,"location_subtype":"","month":"2017-10"},{"category":"anti-social-behaviour","location_type":"Force","location":{"latitude":"51.577473","street":{"id":976466,"name":"On or near Shopping Area"},"longitude":"0.182166"},"context":"","outcome_status":null,"persistent_id":"","id":60670650,"location_subtype":"","month":"2017-10"},{"category":"anti-social-behaviour","location_type":"Force","location":{"latitude":"51.577473","street":{"id":976466,"name":"On or near Shopping Area"},"longitude":"0.182166"},"context":"","outcome_status":null,"persistent_id":"","id":60670649,"location_subtype":"","month":"2017-10"},{"category":"anti-social-behaviour","location_type":"Force","location":{"latitude":"51.574004","street":{"id":976461,"name":"On or near Bus\/coach Station"},"longitude":"0.182043"},"context":"","outcome_status":null,"persistent_id":"","id":60670647,"location_subtype":"","month":"2017-10"},{"category":"anti-social-behaviour","location_type":"Force","location":{"latitude":"51.574004","street":{"id":976461,"name":"On or near Bus\/coach Station"},"longitude":"0.182043"},"context":"","outcome_status":null,"persistent_id":"","id":60670646,"location_subtype":"","month":"2017-10"},{"category":"anti-social-behaviour","location_type":"Force","location":{"latitude":"51.574004","street":{"id":976461,"name":"On or near Bus\/coach Station"},"longitude":"0.182043"},"context":"","outcome_status":null,"persistent_id":"","id":60670645,"location_subtype":"","month":"2017-10"},{"category":"anti-social-behaviour","location_type":"Force","location":{"latitude":"51.566895","street":{"id":976509,"name":"On or near South Street"},"longitude":"0.186652"},"context":"","outcome_status":null,"persistent_id":"","id":60670604,"location_subtype":"","month":"2017-10"},{"category":"anti-social-behaviour","location_type":"Force","location":{"latitude":"51.580061","street":{"id":977050,"name":"On or near Shopping Area"},"longitude":"0.182305"},"context":"","outcome_status":null,"persistent_id":"","id":60670640,"location_subtype":"","month":"2017-10"},{"category":"anti-social-behaviour","location_type":"Force","location":{"latitude":"51.577473","street":{"id":976466,"name":"On or near Shopping Area"},"longitude":"0.182166"},"context":"","outcome_status":null,"persistent_id":"","id":60670652,"location_subtype":"","month":"2017-10"},{"category":"anti-social-behaviour","location_type":"Force","location":{"latitude":"51.580061","street":{"id":977050,"name":"On or near Shopping Area"},"longitude":"0.182305"},"context":"","outcome_status":null,"persistent_id":"","id":60670639,"location_subtype":"","month":"2017-10"},{"category":"anti-social-behaviour","location_type":"Force","location":{"latitude":"51.566895","street":{"id":976509,"name":"On or near South Street"},"longitude":"0.186652"},"context":"","outcome_status":null,"persistent_id":"","id":60670603,"location_subtype":"","month":"2017-10"},{"category":"anti-social-behaviour","location_type":"Force","location":{"latitude":"51.580061","street":{"id":977050,"name":"On or near Shopping Area"},"longitude":"0.182305"},"context":"","outcome_status":null,"persistent_id":"","id":60670638,"location_subtype":"","month":"2017-10"},{"category":"anti-social-behaviour","location_type":"Force","location":{"latitude":"51.580061","street":{"id":977050,"name":"On or near Shopping Area"},"longitude":"0.182305"},"context":"","outcome_status":null,"persistent_id":"","id":60670637,"location_subtype":"","month":"2017-10"},{"category":"anti-social-behaviour","location_type":"Force","location":{"latitude":"51.566895","street":{"id":976509,"name":"On or near South Street"},"longitude":"0.186652"},"context":"","outcome_status":null,"persistent_id":"","id":60670602,"location_subtype":"","month":"2017-10"},{"category":"anti-social-behaviour","location_type":"Force","location":{"latitude":"51.580061","street":{"id":977050,"name":"On or near Shopping Area"},"longitude":"0.182305"},"context":"","outcome_status":null,"persistent_id":"","id":60670636,"location_subtype":"","month":"2017-10"},{"category":"anti-social-behaviour","location_type":"Force","location":{"latitude":"51.580061","street":{"id":977050,"name":"On or near Shopping Area"},"longitude":"0.182305"},"context":"","outcome_status":null,"persistent_id":"","id":60670635,"location_subtype":"","month":"2017-10"},{"category":"anti-social-behaviour","location_type":"Force","location":{"latitude":"51.580061","street":{"id":977050,"name":"On or near Shopping Area"},"longitude":"0.182305"},"context":"","outcome_status":null,"persistent_id":"","id":60670634,"location_subtype":"","month":"2017-10"},{"category":"anti-social-behaviour","location_type":"Force","location":{"latitude":"51.575316","street":{"id":976464,"name":"On or near Nightclub"},"longitude":"0.182611"},"context":"","outcome_status":null,"persistent_id":"","id":60670631,"location_subtype":"","month":"2017-10"},{"category":"anti-social-behaviour","location_type":"Force","location":{"latitude":"51.575316","street":{"id":976464,"name":"On or near Nightclub"},"longitude":"0.182611"},"context":"","outcome_status":null,"persistent_id":"","id":60670630,"location_subtype":"","month":"2017-10"},{"category":"anti-social-behaviour","location_type":"Force","location":{"latitude":"51.575316","street":{"id":976464,"name":"On or near Nightclub"},"longitude":"0.182611"},"context":"","outcome_status":null,"persistent_id":"","id":60670629,"location_subtype":"","month":"2017-10"},{"category":"anti-social-behaviour","location_type":"Force","location":{"latitude":"51.578943","street":{"id":976475,"name":"On or near Shopping Area"},"longitude":"0.182901"},"context":"","outcome_status":null,"persistent_id":"","id":60670627,"location_subtype":"","month":"2017-10"},{"category":"anti-social-behaviour","location_type":"Force","location":{"latitude":"51.573754","street":{"id":976465,"name":"On or near Supermarket"},"longitude":"0.182912"},"context":"","outcome_status":null,"persistent_id":"","id":60670625,"location_subtype":"","month":"2017-10"},{"category":"anti-social-behaviour","location_type":"Force","location":{"latitude":"51.577473","street":{"id":976466,"name":"On or near Shopping Area"},"longitude":"0.182166"},"context":"","outcome_status":null,"persistent_id":"","id":60670653,"location_subtype":"","month":"2017-10"},{"category":"anti-social-behaviour","location_type":"Force","location":{"latitude":"51.573754","street":{"id":976465,"name":"On or near Supermarket"},"longitude":"0.182912"},"context":"","outcome_status":null,"persistent_id":"","id":60670621,"location_subtype":"","month":"2017-10"},{"category":"anti-social-behaviour","location_type":"Force","location":{"latitude":"51.576452","street":{"id":976420,"name":"On or near Eastern Road"},"longitude":"0.186779"},"context":"","outcome_status":null,"persistent_id":"","id":60670611,"location_subtype":"","month":"2017-10"},{"category":"anti-social-behaviour","location_type":"Force","location":{"latitude":"51.573710","street":{"id":976405,"name":"On or near Milton Road"},"longitude":"0.192983"},"context":"","outcome_status":null,"persistent_id":"","id":60670573,"location_subtype":"","month":"2017-10"},{"category":"anti-social-behaviour","location_type":"Force","location":{"latitude":"51.578773","street":{"id":976476,"name":"On or near Shopping Area"},"longitude":"0.186270"},"context":"","outcome_status":null,"persistent_id":"","id":60670610,"location_subtype":"","month":"2017-10"},{"category":"anti-social-behaviour","location_type":"Force","location":{"latitude":"51.580345","street":{"id":977062,"name":"On or near Dolphin Approach"},"longitude":"0.186822"},"context":"","outcome_status":null,"persistent_id":"","id":60670609,"location_subtype":"","month":"2017-10"},{"category":"anti-social-behaviour","location_type":"Force","location":{"latitude":"51.574453","street":{"id":976415,"name":"On or near King Edward Road"},"longitude":"0.186900"},"context":"","outcome_status":null,"persistent_id":"","id":60670608,"location_subtype":"","month":"2017-10"},{"category":"anti-social-behaviour","location_type":"Force","location":{"latitude":"51.566895","street":{"id":976509,"name":"On or near South Street"},"longitude":"0.186652"},"context":"","outcome_status":null,"persistent_id":"","id":60670606,"location_subtype":"","month":"2017-10"},{"category":"anti-social-behaviour","location_type":"Force","location":{"latitude":"51.566895","street":{"id":976509,"name":"On or near South Street"},"longitude":"0.186652"},"context":"","outcome_status":null,"persistent_id":"","id":60670605,"location_subtype":"","month":"2017-10"},{"category":"anti-social-behaviour","location_type":"Force","location":{"latitude":"51.566895","street":{"id":976509,"name":"On or near South Street"},"longitude":"0.186652"},"context":"","outcome_status":null,"persistent_id":"","id":60670601,"location_subtype":"","month":"2017-10"},{"category":"anti-social-behaviour","location_type":"Force","location":{"latitude":"51.566895","street":{"id":976509,"name":"On or near South Street"},"longitude":"0.186652"},"context":"","outcome_status":null,"persistent_id":"","id":60670600,"location_subtype":"","month":"2017-10"},{"category":"bicycle-theft","location_type":"Force","location":{"latitude":"51.577287","street":{"id":976416,"name":"On or near Heath Park Road"},"longitude":"0.194584"},"context":"","outcome_status":{"category":"Status update unavailable","date":"2018-02"},"persistent_id":"6bd3cd90817227aaf5353724e7507cdaa2769f812cb115cb62f3721bc5a60c1d","id":60685413,"location_subtype":"","month":"2017-10"},{"category":"burglary","location_type":"Force","location":{"latitude":"51.570287","street":{"id":976421,"name":"On or near Dymoke Road"},"longitude":"0.187998"},"context":"","outcome_status":{"category":"Status update unavailable","date":"2018-02"},"persistent_id":"01bb18bef43535c929bc539611e0f3e835c8823018d38e30cd0ac35f6b2f75a5","id":60686827,"location_subtype":"","month":"2017-10"},{"category":"burglary","location_type":"Force","location":{"latitude":"51.569787","street":{"id":976402,"name":"On or near Park Crescent"},"longitude":"0.194079"},"context":"","outcome_status":{"category":"Status update unavailable","date":"2018-02"},"persistent_id":"e824b9295b448d74a8c48ddfb1771daf334fe2aead2cb9ea280d9dee479814c0","id":60678376,"location_subtype":"","month":"2017-10"},{"category":"burglary","location_type":"Force","location":{"latitude":"51.581508","street":{"id":976887,"name":"On or near Woodfield Drive"},"longitude":"0.199681"},"context":"","outcome_status":{"category":"Status update unavailable","date":"2018-02"},"persistent_id":"5d971d927a4a34c1d794f07696c4b3213045ea7fa67fe663cb33b207eea6e87d","id":60677751,"location_subtype":"","month":"2017-10"},{"category":"burglary","location_type":"Force","location":{"latitude":"51.576092","street":{"id":976456,"name":"On or near Exchange Street"},"longitude":"0.181494"},"context":"","outcome_status":{"category":"Status update unavailable","date":"2018-02"},"persistent_id":"6b451a343ad62d9df4618531088983de36af7d401d4bb5d05896458ccc551696","id":60673688,"location_subtype":"","month":"2017-10"},{"category":"burglary","location_type":"Force","location":{"latitude":"51.581171","street":{"id":977036,"name":"On or near Lodge Avenue"},"longitude":"0.193631"},"context":"","outcome_status":{"category":"Investigation complete; no suspect identified","date":"2017-11"},"persistent_id":"902c4d8731789b0d413d87b5d417c038d6efda72700e70dd0e42be46fc08496a","id":60682121,"location_subtype":"","month":"2017-10"},{"category":"burglary","location_type":"Force","location":{"latitude":"51.580202","street":{"id":977048,"name":"On or near Pedestrian Subway"},"longitude":"0.184361"},"context":"","outcome_status":{"category":"Investigation complete; no suspect identified","date":"2017-11"},"persistent_id":"0b760e4ee6a8053ac5e4dd1c2e2ff9a78c158183c371758fb90a4632b6f614eb","id":60676079,"location_subtype":"","month":"2017-10"},{"category":"burglary","location_type":"Force","location":{"latitude":"51.573956","street":{"id":976417,"name":"On or near Hearn Road"},"longitude":"0.186573"},"context":"","outcome_status":{"category":"Status update unavailable","date":"2018-02"},"persistent_id":"1672658f1e53534bff821258e9a6dbd9d03a901b25a4c63d209186f02c2b8537","id":60738664,"location_subtype":"","month":"2017-10"},{"category":"burglary","location_type":"Force","location":{"latitude":"51.577645","street":{"id":976454,"name":"On or near High Street"},"longitude":"0.178754"},"context":"","outcome_status":{"category":"Status update unavailable","date":"2018-02"},"persistent_id":"dd9b67899de9ff03b1f34f31859d05b0656444d00838689fda82506225322fe3","id":60700175,"location_subtype":"","month":"2017-10"},{"category":"burglary","location_type":"Force","location":{"latitude":"51.573637","street":{"id":976358,"name":"On or near Eastbury Road"},"longitude":"0.171779"},"context":"","outcome_status":{"category":"Investigation complete; no suspect identified","date":"2017-12"},"persistent_id":"97187130d61775ca101de31ba52037d9df16bd8e4e11f69d3c3b81456691068f","id":60686481,"location_subtype":"","month":"2017-10"},{"category":"burglary","location_type":"Force","location":{"latitude":"51.577473","street":{"id":976466,"name":"On or near Shopping Area"},"longitude":"0.182166"},"context":"","outcome_status":{"category":"Court result unavailable","date":"2018-04"},"persistent_id":"1c944ec8923ce7f7e9542a82999547a0348abbc9836b55eeb79b93f7d741c964","id":60682115,"location_subtype":"","month":"2017-10"},{"category":"burglary","location_type":"Force","location":{"latitude":"51.575578","street":{"id":976393,"name":"On or near Victoria Road"},"longitude":"0.188787"},"context":"","outcome_status":{"category":"Status update unavailable","date":"2018-02"},"persistent_id":"e38537780df8b89ea11095dc071b87f940aa2694b47158faa185cb1722dc9f32","id":60676346,"location_subtype":"","month":"2017-10"},{"category":"criminal-damage-arson","location_type":"Force","location":{"latitude":"51.582121","street":{"id":977044,"name":"On or near Petrol Station"},"longitude":"0.187051"},"context":"","outcome_status":{"category":"Status update unavailable","date":"2018-02"},"persistent_id":"9917d1a3a35f6119ca55d3265b213a685cf8a2a21e51094935e05b9780a19b9b","id":60699918,"location_subtype":"","month":"2017-10"},{"category":"criminal-damage-arson","location_type":"Force","location":{"latitude":"51.576002","street":{"id":976458,"name":"On or near Chandlers Way"},"longitude":"0.183438"},"context":"","outcome_status":{"category":"Investigation complete; no suspect identified","date":"2017-12"},"persistent_id":"5783470069ed89a4d12b36017f55902616b5de2ad798e64c4651b9b752e383fb","id":60693149,"location_subtype":"","month":"2017-10"},{"category":"criminal-damage-arson","location_type":"BTP","location":{"latitude":"51.574600","street":{"id":1486612,"name":"Romford (station)"},"longitude":"0.182422"},"context":"","outcome_status":{"category":"Status update unavailable","date":"2018-02"},"persistent_id":"","id":66361939,"location_subtype":"STATION","month":"2017-10"},{"category":"criminal-damage-arson","location_type":"Force","location":{"latitude":"51.578657","street":{"id":976460,"name":"On or near Angel Way"},"longitude":"0.178947"},"context":"","outcome_status":{"category":"Investigation complete; no suspect identified","date":"2017-10"},"persistent_id":"bb7c7058df82129538e82bde8290e094035348eddebe890302f370f4867f8662","id":60693090,"location_subtype":"","month":"2017-10"},{"category":"criminal-damage-arson","location_type":"Force","location":{"latitude":"51.576092","street":{"id":976456,"name":"On or near Exchange Street"},"longitude":"0.181494"},"context":"","outcome_status":{"category":"Investigation complete; no suspect identified","date":"2017-10"},"persistent_id":"c8fe8a0ebd77803ae701949a8f06b56b9f4fcd49f7973eb00f6d1807b85520bb","id":60728368,"location_subtype":"","month":"2017-10"},{"category":"criminal-damage-arson","location_type":"Force","location":{"latitude":"51.579467","street":{"id":977051,"name":"On or near The Mews"},"longitude":"0.179866"},"context":"","outcome_status":{"category":"Investigation complete; no suspect identified","date":"2017-11"},"persistent_id":"1fa22fb6a0994cbb1aa8566bd554f9c4490444b1d20d1ae058f6aa6f2eb4e19b","id":60679988,"location_subtype":"","month":"2017-10"},{"category":"criminal-damage-arson","location_type":"Force","location":{"latitude":"51.572513","street":{"id":976445,"name":"On or near Waterloo Road"},"longitude":"0.179547"},"context":"","outcome_status":{"category":"Investigation complete; no suspect identified","date":"2017-10"},"persistent_id":"ee996fd5ac998475a48aaf6ab541cea1fd64dc7bf12639caf8331f8ab026d394","id":60678722,"location_subtype":"","month":"2017-10"},{"category":"criminal-damage-arson","location_type":"Force","location":{"latitude":"51.579448","street":{"id":977056,"name":"On or near Shopping Area"},"longitude":"0.181395"},"context":"","outcome_status":{"category":"Status update unavailable","date":"2018-02"},"persistent_id":"c0166d8bcf403359177c83aed2c9879f976902c7eecc6483236cc2f9863286ba","id":60682385,"location_subtype":"","month":"2017-10"},{"category":"criminal-damage-arson","location_type":"Force","location":{"latitude":"51.570931","street":{"id":976457,"name":"On or near Davidson Way"},"longitude":"0.183354"},"context":"","outcome_status":{"category":"Investigation complete; no suspect identified","date":"2018-05"},"persistent_id":"2da90e5657e88bdf583bbf31525de3d5adcf393302d5da9aa852183ff9338a67","id":60692603,"location_subtype":"","month":"2017-10"},{"category":"criminal-damage-arson","location_type":"Force","location":{"latitude":"51.575761","street":{"id":976442,"name":"On or near Parking Area"},"longitude":"0.180886"},"context":"","outcome_status":{"category":"Awaiting court outcome","date":"2018-05"},"persistent_id":"6378e3fa9e1499ad318f1548f069f19aea633044611096581495c5a716a9da71","id":60693420,"location_subtype":"","month":"2017-10"},{"category":"criminal-damage-arson","location_type":"BTP","location":{"latitude":"51.574600","street":{"id":1486612,"name":"Romford (station)"},"longitude":"0.182422"},"context":"","outcome_status":{"category":"Status update unavailable","date":"2018-02"},"persistent_id":"","id":66361943,"location_subtype":"STATION","month":"2017-10"},{"category":"criminal-damage-arson","location_type":"BTP","location":{"latitude":"51.574600","street":{"id":1486612,"name":"Romford (station)"},"longitude":"0.182422"},"context":"","outcome_status":{"category":"Status update unavailable","date":"2018-02"},"persistent_id":"","id":66361942,"location_subtype":"STATION","month":"2017-10"},{"category":"criminal-damage-arson","location_type":"BTP","location":{"latitude":"51.574600","street":{"id":1486612,"name":"Romford (station)"},"longitude":"0.182422"},"context":"","outcome_status":{"category":"Status update unavailable","date":"2018-02"},"persistent_id":"","id":66361941,"location_subtype":"STATION","month":"2017-10"},{"category":"criminal-damage-arson","location_type":"BTP","location":{"latitude":"51.574600","street":{"id":1486612,"name":"Romford (station)"},"longitude":"0.182422"},"context":"","outcome_status":{"category":"Status update unavailable","date":"2018-02"},"persistent_id":"","id":66361940,"location_subtype":"STATION","month":"2017-10"},{"category":"criminal-damage-arson","location_type":"Force","location":{"latitude":"51.582121","street":{"id":977044,"name":"On or near Petrol Station"},"longitude":"0.187051"},"context":"","outcome_status":{"category":"Court result unavailable","date":"2018-04"},"persistent_id":"1ed437cff228cf86f4180a9967e850f2fec1b23e324979cfe215bb0bc792111b","id":60684200,"location_subtype":"","month":"2017-10"},{"category":"criminal-damage-arson","location_type":"Force","location":{"latitude":"51.582121","street":{"id":977044,"name":"On or near Petrol Station"},"longitude":"0.187051"},"context":"","outcome_status":{"category":"Court result unavailable","date":"2018-04"},"persistent_id":"5f6de7c9dd192d4cf3daa41b52ab0a026f0181a9e47bdf6a0ad66976b6028f4a","id":60687111,"location_subtype":"","month":"2017-10"},{"category":"criminal-damage-arson","location_type":"Force","location":{"latitude":"51.573594","street":{"id":976434,"name":"On or near Alexandra Road"},"longitude":"0.186209"},"context":"","outcome_status":{"category":"Status update unavailable","date":"2018-02"},"persistent_id":"da166f4e12732677cc5203a00affffad5b0228a714b1f70a7271920a365e239c","id":60674090,"location_subtype":"","month":"2017-10"},{"category":"criminal-damage-arson","location_type":"Force","location":{"latitude":"51.575316","street":{"id":976464,"name":"On or near Nightclub"},"longitude":"0.182611"},"context":"","outcome_status":{"category":"Investigation complete; no suspect identified","date":"2017-11"},"persistent_id":"3361f6efb4200775f4ce054735650eb2516b1b0192f08abe30228365d8032ca0","id":60688119,"location_subtype":"","month":"2017-10"},{"category":"criminal-damage-arson","location_type":"Force","location":{"latitude":"51.580080","street":{"id":977052,"name":"On or near St Edwards Way"},"longitude":"0.179318"},"context":"","outcome_status":{"category":"Status update unavailable","date":"2018-02"},"persistent_id":"558b2666543f759dc28ff560da424e4eb3d088b9c44f1a12672be7219f02e2dc","id":60676784,"location_subtype":"","month":"2017-10"},{"category":"criminal-damage-arson","location_type":"Force","location":{"latitude":"51.575431","street":{"id":976462,"name":"On or near Nightclub"},"longitude":"0.183642"},"context":"","outcome_status":{"category":"Status update unavailable","date":"2018-02"},"persistent_id":"dc53e7a747c6c44c47d90121ed7f4997856ea5e2718292eb1c35d3e72800e22d","id":60697989,"location_subtype":"","month":"2017-10"},{"category":"drugs","location_type":"Force","location":{"latitude":"51.572098","street":{"id":976392,"name":"On or near Wheatsheaf Road"},"longitude":"0.187364"},"context":"","outcome_status":{"category":"Local resolution","date":"2017-12"},"persistent_id":"0ea4c7eb37785210ae17038c1e9f15301471d9e54dd5c2d0a1142dd86b99dc54","id":60673808,"location_subtype":"","month":"2017-10"},{"category":"drugs","location_type":"Force","location":{"latitude":"51.574317","street":{"id":976488,"name":"On or near St Andrews Road"},"longitude":"0.176343"},"context":"","outcome_status":{"category":"Offender given a drugs possession warning","date":"2017-11"},"persistent_id":"21ee3fbd157da92d28b49fd58b8004ff6b71ea6595bf9bc9f12a773d060d5328","id":60688547,"location_subtype":"","month":"2017-10"},{"category":"drugs","location_type":"Force","location":{"latitude":"51.575431","street":{"id":976462,"name":"On or near Nightclub"},"longitude":"0.183642"},"context":"","outcome_status":{"category":"Offender given a caution","date":"2017-10"},"persistent_id":"33111fe6ad94fc848b956f55c175acdebe5aef0410a5a2e1103212039567c704","id":60692369,"location_subtype":"","month":"2017-10"},{"category":"drugs","location_type":"Force","location":{"latitude":"51.582121","street":{"id":977044,"name":"On or near Petrol Station"},"longitude":"0.187051"},"context":"","outcome_status":{"category":"Offender given a drugs possession warning","date":"2017-10"},"persistent_id":"818b43d1840c02f25235aba90e2407f0b62060c9112c88d226a7d3b5bf2717a1","id":60674328,"location_subtype":"","month":"2017-10"},{"category":"drugs","location_type":"Force","location":{"latitude":"51.577013","street":{"id":976469,"name":"On or near Shopping Area"},"longitude":"0.183227"},"context":"","outcome_status":{"category":"Offender given a drugs possession warning","date":"2018-01"},"persistent_id":"29d578184b41228e8709bf57ef876190df964d2a2af3649e5dbb397ed9f8fc43","id":60698517,"location_subtype":"","month":"2017-10"},{"category":"drugs","location_type":"Force","location":{"latitude":"51.573185","street":{"id":976399,"name":"On or near Queen Mary Close"},"longitude":"0.187892"},"context":"","outcome_status":{"category":"Investigation complete; no suspect identified","date":"2017-12"},"persistent_id":"a72d8d7cd604eb1c234f3d77f979b92d0421a7868eb32a4b093153b08ffbe7a6","id":60671593,"location_subtype":"","month":"2017-10"},{"category":"drugs","location_type":"Force","location":{"latitude":"51.578657","street":{"id":976460,"name":"On or near Angel Way"},"longitude":"0.178947"},"context":"","outcome_status":{"category":"Investigation complete; no suspect identified","date":"2017-12"},"persistent_id":"d14d205b6558e4164c340b00aaa906109537c3c4392ae792377b9d741bde159e","id":60675413,"location_subtype":"","month":"2017-10"},{"category":"drugs","location_type":"Force","location":{"latitude":"51.573754","street":{"id":976465,"name":"On or near Supermarket"},"longitude":"0.182912"},"context":"","outcome_status":{"category":"Offender given a drugs possession warning","date":"2017-10"},"persistent_id":"7d9a093534ef34ad9d50004000d4c737dff2a3291a8ba344221c7bac987baaa9","id":60673384,"location_subtype":"","month":"2017-10"},{"category":"drugs","location_type":"Force","location":{"latitude":"51.577824","street":{"id":976406,"name":"On or near Mercury Gardens"},"longitude":"0.186051"},"context":"","outcome_status":{"category":"Offender given a drugs possession warning","date":"2017-10"},"persistent_id":"49150f6f8a297d28b9e7e50c890d250ea8a2cc7b93045ad64b1e0630089f4efa","id":60683039,"location_subtype":"","month":"2017-10"},{"category":"drugs","location_type":"Force","location":{"latitude":"51.573142","street":{"id":976450,"name":"On or near Regarth Avenue"},"longitude":"0.182955"},"context":"","outcome_status":{"category":"Offender given community sentence","date":"2017-10"},"persistent_id":"c67b07d53ee0e8a1e143be5013500f15726cc68c2e96c7e104cc0941489e51e2","id":60707992,"location_subtype":"","month":"2017-10"},{"category":"drugs","location_type":"Force","location":{"latitude":"51.576092","street":{"id":976456,"name":"On or near Exchange Street"},"longitude":"0.181494"},"context":"","outcome_status":{"category":"Offender given a caution","date":"2018-02"},"persistent_id":"93776bf0259496bf25fe8d6743aa327cf4ec8021f2fb060af12f3e8cd2bae572","id":60710761,"location_subtype":"","month":"2017-10"},{"category":"drugs","location_type":"Force","location":{"latitude":"51.582121","street":{"id":977044,"name":"On or near Petrol Station"},"longitude":"0.187051"},"context":"","outcome_status":{"category":"Court result unavailable","date":"2018-04"},"persistent_id":"18a155bf694de17d499fb8dd29d37bd45fad7ae42b11cc8053692929607d4e08","id":60676937,"location_subtype":"","month":"2017-10"},{"category":"drugs","location_type":"Force","location":{"latitude":"51.575578","street":{"id":976393,"name":"On or near Victoria Road"},"longitude":"0.188787"},"context":"","outcome_status":{"category":"Investigation complete; no suspect identified","date":"2018-01"},"persistent_id":"cb95869d62c7d1d6ddcfbe09cd54cc4775296f387fa913bdad8d65fcc1d768e1","id":60687567,"location_subtype":"","month":"2017-10"},{"category":"drugs","location_type":"Force","location":{"latitude":"51.576002","street":{"id":976458,"name":"On or near Chandlers Way"},"longitude":"0.183438"},"context":"","outcome_status":{"category":"Offender given a drugs possession warning","date":"2017-10"},"persistent_id":"81d22b508c305367a0ec1c09845926aacb599e2523a991b3d06d078805280e18","id":60671591,"location_subtype":"","month":"2017-10"},{"category":"drugs","location_type":"Force","location":{"latitude":"51.575431","street":{"id":976462,"name":"On or near Nightclub"},"longitude":"0.183642"},"context":"","outcome_status":{"category":"Offender given conditional discharge","date":"2017-11"},"persistent_id":"35f832666c92239d61be46630fbc180dc57c9b023e7de8fedaadccf2c530c6d0","id":60684946,"location_subtype":"","month":"2017-10"},{"category":"other-theft","location_type":"Force","location":{"latitude":"51.579203","street":{"id":976472,"name":"On or near Pedestrian Subway"},"longitude":"0.184905"},"context":"","outcome_status":{"category":"Status update unavailable","date":"2018-02"},"persistent_id":"a61d372c81ae87e646455a40a38933c108af178f24b516a744aa5a57cbaa3aba","id":60695149,"location_subtype":"","month":"2017-10"},{"category":"other-theft","location_type":"Force","location":{"latitude":"51.577472","street":{"id":976481,"name":"On or near Parking Area"},"longitude":"0.177403"},"context":"","outcome_status":{"category":"Status update unavailable","date":"2018-02"},"persistent_id":"a6f256495db0bb96bd38c069c0b74af903183b379578138ef9c89e6aaa23547f","id":60694889,"location_subtype":"","month":"2017-10"},{"category":"other-theft","location_type":"Force","location":{"latitude":"51.576989","street":{"id":976468,"name":"On or near Shopping Area"},"longitude":"0.180137"},"context":"","outcome_status":{"category":"Investigation complete; no suspect identified","date":"2018-01"},"persistent_id":"d7614ae85006136b07210c973893c871d00c634db887a5037f884de7f5182ff4","id":60696974,"location_subtype":"","month":"2017-10"},{"category":"other-theft","location_type":"Force","location":{"latitude":"51.575761","street":{"id":976442,"name":"On or near Parking Area"},"longitude":"0.180886"},"context":"","outcome_status":{"category":"Status update unavailable","date":"2018-02"},"persistent_id":"8e08b1639a28aef17240bcf0c26a4c9a80f0250a54349190c468118dc1a59cde","id":60694168,"location_subtype":"","month":"2017-10"},{"category":"other-theft","location_type":"Force","location":{"latitude":"51.580526","street":{"id":977046,"name":"On or near Pedestrian Subway"},"longitude":"0.183886"},"context":"","outcome_status":{"category":"Status update unavailable","date":"2018-02"},"persistent_id":"49eb92f61bb4e081d7d1bb3973f276e4eff8928469ab0af320456e0478c21b7a","id":60675084,"location_subtype":"","month":"2017-10"},{"category":"other-theft","location_type":"Force","location":{"latitude":"51.574004","street":{"id":976461,"name":"On or near Bus\/coach Station"},"longitude":"0.182043"},"context":"","outcome_status":{"category":"Status update unavailable","date":"2018-02"},"persistent_id":"8403df625b774de000db13aca2f6f2069e347c4abb618005127b4371f672a315","id":60715567,"location_subtype":"","month":"2017-10"},{"category":"other-theft","location_type":"Force","location":{"latitude":"51.576452","street":{"id":976420,"name":"On or near Eastern Road"},"longitude":"0.186779"},"context":"","outcome_status":{"category":"Investigation complete; no suspect identified","date":"2017-12"},"persistent_id":"72632c9f88806719937f73545625b297c861d91eb55d5e239a0219fdfb741b2f","id":60675248,"location_subtype":"","month":"2017-10"},{"category":"other-theft","location_type":"Force","location":{"latitude":"51.577473","street":{"id":976466,"name":"On or near Shopping Area"},"longitude":"0.182166"},"context":"","outcome_status":{"category":"Status update unavailable","date":"2018-02"},"persistent_id":"579be89f13551058fb4fbd8d40022176a0143700e6cc1f441a8f8573e49d9a88","id":60738253,"location_subtype":"","month":"2017-10"},{"category":"other-theft","location_type":"Force","location":{"latitude":"51.577645","street":{"id":976454,"name":"On or near High Street"},"longitude":"0.178754"},"context":"","outcome_status":{"category":"Investigation complete; no suspect identified","date":"2017-12"},"persistent_id":"b8776af6724421a31e62a1e8d1ecc5c917f04da0774488afcf74a1b11b986bb0","id":60677517,"location_subtype":"","month":"2017-10"},{"category":"other-theft","location_type":"Force","location":{"latitude":"51.576862","street":{"id":976494,"name":"On or near Logan Mews"},"longitude":"0.178269"},"context":"","outcome_status":{"category":"Status update unavailable","date":"2018-02"},"persistent_id":"004a643972adb0117fd4f49f3f33a679019c68f11c53e40bcaf11c5b1f8fc82e","id":60697157,"location_subtype":"","month":"2017-10"},{"category":"other-theft","location_type":"Force","location":{"latitude":"51.575431","street":{"id":976462,"name":"On or near Nightclub"},"longitude":"0.183642"},"context":"","outcome_status":{"category":"Status update unavailable","date":"2018-02"},"persistent_id":"6aacbc71f856d73e62f107afe67fb21aded94c49a3f0cd29813aa664b92c1ec7","id":60690544,"location_subtype":"","month":"2017-10"},{"category":"other-theft","location_type":"Force","location":{"latitude":"51.576989","street":{"id":976468,"name":"On or near Shopping Area"},"longitude":"0.180137"},"context":"","outcome_status":{"category":"Status update unavailable","date":"2018-02"},"persistent_id":"e9ca18078db583a7fd421c9e98136b3e915210e6f7ddec83a9581d50272d72c5","id":60696735,"location_subtype":"","month":"2017-10"},{"category":"other-theft","location_type":"Force","location":{"latitude":"51.578943","street":{"id":976475,"name":"On or near Shopping Area"},"longitude":"0.182901"},"context":"","outcome_status":{"category":"Investigation complete; no suspect identified","date":"2017-11"},"persistent_id":"03d480f7c7f413254ebba596b3f850b452c8c827fa7775c80d66cd095d91941c","id":60742071,"location_subtype":"","month":"2017-10"},{"category":"other-theft","location_type":"Force","location":{"latitude":"51.579203","street":{"id":976472,"name":"On or near Pedestrian Subway"},"longitude":"0.184905"},"context":"","outcome_status":{"category":"Status update unavailable","date":"2018-02"},"persistent_id":"ffaf5f3f4b6aa411e961c3d6f7aec4b03c61cff62b0cce802bff6ec91d75a87a","id":60676134,"location_subtype":"","month":"2017-10"},{"category":"other-theft","location_type":"Force","location":{"latitude":"51.568980","street":{"id":976448,"name":"On or near Rom Valley Way"},"longitude":"0.183809"},"context":"","outcome_status":{"category":"Status update unavailable","date":"2018-02"},"persistent_id":"e29bb830710b89d885eeedcff61625003f1223559b4ab7af8f8073e24316771d","id":60673531,"location_subtype":"","month":"2017-10"},{"category":"other-theft","location_type":"Force","location":{"latitude":"51.573867","street":{"id":976600,"name":"On or near Petrol Station"},"longitude":"0.196166"},"context":"","outcome_status":{"category":"Status update unavailable","date":"2018-02"},"persistent_id":"c3c228378f3c7b8472d3d9105494f9b2cc7fa22c771a8e374a81f6ecbfe9bb89","id":60702509,"location_subtype":"","month":"2017-10"},{"category":"other-theft","location_type":"Force","location":{"latitude":"51.575761","street":{"id":976442,"name":"On or near Parking Area"},"longitude":"0.180886"},"context":"","outcome_status":{"category":"Status update unavailable","date":"2018-02"},"persistent_id":"3e1d8440e56284964af6f93203c255254154d96a1f52d106ba826a3b6abbac5f","id":60675684,"location_subtype":"","month":"2017-10"},{"category":"other-theft","location_type":"Force","location":{"latitude":"51.575852","street":{"id":976583,"name":"On or near Rushdon Close"},"longitude":"0.197243"},"context":"","outcome_status":{"category":"Investigation complete; no suspect identified","date":"2017-12"},"persistent_id":"b5e414698262a442e9cd468c85ee0535b9689160b6a2b97f37784a2582566f59","id":60674035,"location_subtype":"","month":"2017-10"},{"category":"other-theft","location_type":"Force","location":{"latitude":"51.579203","street":{"id":976472,"name":"On or near Pedestrian Subway"},"longitude":"0.184905"},"context":"","outcome_status":{"category":"Status update unavailable","date":"2018-02"},"persistent_id":"f910febaa261286b543868f02b463419b0137f4ceac30fe9c96bcbd5adc4035a","id":60674028,"location_subtype":"","month":"2017-10"},{"category":"other-theft","location_type":"Force","location":{"latitude":"51.577783","street":{"id":976467,"name":"On or near Shopping Area"},"longitude":"0.183884"},"context":"","outcome_status":{"category":"Investigation complete; no suspect identified","date":"2017-11"},"persistent_id":"600e42f836ddbe8276b03d3a14ddddcdb3cc6a7269cc3d744cace328de514985","id":60674010,"location_subtype":"","month":"2017-10"},{"category":"other-theft","location_type":"Force","location":{"latitude":"51.575761","street":{"id":976442,"name":"On or near Parking Area"},"longitude":"0.180886"},"context":"","outcome_status":{"category":"Investigation complete; no suspect identified","date":"2017-11"},"persistent_id":"bb27d9a42cafab3010ffef10f1196e0ce04492e9248d568030feb67af2a3d58e","id":60682330,"location_subtype":"","month":"2017-10"},{"category":"other-theft","location_type":"Force","location":{"latitude":"51.575797","street":{"id":976470,"name":"On or near Further\/higher Educational Building"},"longitude":"0.183313"},"context":"","outcome_status":{"category":"Investigation complete; no suspect identified","date":"2017-12"},"persistent_id":"1bdeb701ecfad7d918ee66dfcfd00e7e3b248e8ee43405e157575403f234f6c9","id":60684904,"location_subtype":"","month":"2017-10"},{"category":"other-theft","location_type":"Force","location":{"latitude":"51.577473","street":{"id":976466,"name":"On or near Shopping Area"},"longitude":"0.182166"},"context":"","outcome_status":{"category":"Investigation complete; no suspect identified","date":"2017-12"},"persistent_id":"2b827f33a33fa885990274238a45a5b0081d00e640880eb1ad8ff3c951191505","id":60691509,"location_subtype":"","month":"2017-10"},{"category":"other-theft","location_type":"Force","location":{"latitude":"51.571139","street":{"id":976411,"name":"On or near Kyme Road"},"longitude":"0.189107"},"context":"","outcome_status":{"category":"Investigation complete; no suspect identified","date":"2017-10"},"persistent_id":"e62c480456b3fce7e2db94fa000d49783a7f7d5781fb7076f208dc1d464a490e","id":60683123,"location_subtype":"","month":"2017-10"},{"category":"other-theft","location_type":"Force","location":{"latitude":"51.573867","street":{"id":976600,"name":"On or near Petrol Station"},"longitude":"0.196166"},"context":"","outcome_status":{"category":"Investigation complete; no suspect identified","date":"2017-10"},"persistent_id":"54bc7f2f92483ffe630921eda13ab87cadf5a5d201fc89950bbff31a2035a95d","id":60680527,"location_subtype":"","month":"2017-10"},{"category":"other-theft","location_type":"Force","location":{"latitude":"51.579448","street":{"id":977056,"name":"On or near Shopping Area"},"longitude":"0.181395"},"context":"","outcome_status":{"category":"Investigation complete; no suspect identified","date":"2018-01"},"persistent_id":"d3196891522fbc913a11cfe757d8ff5733de1c924d0c8508651192bdcd69af55","id":60705463,"location_subtype":"","month":"2017-10"},{"category":"other-theft","location_type":"Force","location":{"latitude":"51.576198","street":{"id":976478,"name":"On or near Pedestrian Subway"},"longitude":"0.177227"},"context":"","outcome_status":{"category":"Investigation complete; no suspect identified","date":"2017-10"},"persistent_id":"9ce01dcab2986a2aa0c123895208b86b7d2d66999c2050c707a5519c90c74975","id":60685780,"location_subtype":"","month":"2017-10"},{"category":"other-theft","location_type":"Force","location":{"latitude":"51.575797","street":{"id":976470,"name":"On or near Further\/higher Educational Building"},"longitude":"0.183313"},"context":"","outcome_status":{"category":"Status update unavailable","date":"2018-02"},"persistent_id":"2691ef65e617ef71747f8b4e22e9205ae7ec64aec20f82538c9f9e0e06def9f4","id":60699241,"location_subtype":"","month":"2017-10"},{"category":"other-theft","location_type":"Force","location":{"latitude":"51.576092","street":{"id":976456,"name":"On or near Exchange Street"},"longitude":"0.181494"},"context":"","outcome_status":{"category":"Status update unavailable","date":"2018-02"},"persistent_id":"961904a43a3921d01a58574f489d98f4251f795b5d8f64957382ba17409bed95","id":60737203,"location_subtype":"","month":"2017-10"},{"category":"other-theft","location_type":"Force","location":{"latitude":"51.575761","street":{"id":976442,"name":"On or near Parking Area"},"longitude":"0.180886"},"context":"","outcome_status":{"category":"Status update unavailable","date":"2018-02"},"persistent_id":"e13e14724f2815f463f8155c29eae672878a519bc80db2eceec1dc2004f75baf","id":60687075,"location_subtype":"","month":"2017-10"},{"category":"other-theft","location_type":"Force","location":{"latitude":"51.570931","street":{"id":976457,"name":"On or near Davidson Way"},"longitude":"0.183354"},"context":"","outcome_status":{"category":"Status update unavailable","date":"2018-02"},"persistent_id":"432c3f894e6da62ea640025b2c23a37c26fffd3e72fa1c3ec00981b86217f9f7","id":60696761,"location_subtype":"","month":"2017-10"},{"category":"other-theft","location_type":"Force","location":{"latitude":"51.575797","street":{"id":976470,"name":"On or near Further\/higher Educational Building"},"longitude":"0.183313"},"context":"","outcome_status":{"category":"Status update unavailable","date":"2018-02"},"persistent_id":"19ed7d9b8d1303c93aa74942dd9ec422ea1f405ce326977403d63124182ee6d6","id":60700414,"location_subtype":"","month":"2017-10"},{"category":"other-theft","location_type":"Force","location":{"latitude":"51.575761","street":{"id":976442,"name":"On or near Parking Area"},"longitude":"0.180886"},"context":"","outcome_status":{"category":"Status update unavailable","date":"2018-02"},"persistent_id":"1718935fb9d86cd41cadbac42aa304c24a34de4fa1ab5e499ee774c72c091ed9","id":60696179,"location_subtype":"","month":"2017-10"},{"category":"other-theft","location_type":"Force","location":{"latitude":"51.575316","street":{"id":976464,"name":"On or near Nightclub"},"longitude":"0.182611"},"context":"","outcome_status":{"category":"Status update unavailable","date":"2018-02"},"persistent_id":"e9c52772d351841490dd2822fdd3955ae2a4ca4e82c06e425a67e36f83960735","id":60695691,"location_subtype":"","month":"2017-10"},{"category":"other-theft","location_type":"Force","location":{"latitude":"51.578657","street":{"id":976460,"name":"On or near Angel Way"},"longitude":"0.178947"},"context":"","outcome_status":{"category":"Status update unavailable","date":"2018-02"},"persistent_id":"941c2db939ce8f910c9ab1ef0a9c1995094c8465f1c6a20740d31eb406a51a00","id":60699707,"location_subtype":"","month":"2017-10"},{"category":"other-theft","location_type":"Force","location":{"latitude":"51.573867","street":{"id":976600,"name":"On or near Petrol Station"},"longitude":"0.196166"},"context":"","outcome_status":{"category":"Status update unavailable","date":"2018-02"},"persistent_id":"7071d1c7b8aa2aa84200d7b37a67af02a5ebf99d69b5417c83f1860da0e2be1c","id":60688145,"location_subtype":"","month":"2017-10"},{"category":"other-theft","location_type":"Force","location":{"latitude":"51.582121","street":{"id":977044,"name":"On or near Petrol Station"},"longitude":"0.187051"},"context":"","outcome_status":{"category":"Status update unavailable","date":"2018-02"},"persistent_id":"e11ff829d6157c4fc2b36179b33a324cc3bcaec25ffb006b0fdaec1341271720","id":60697151,"location_subtype":"","month":"2017-10"},{"category":"other-theft","location_type":"Force","location":{"latitude":"51.575761","street":{"id":976442,"name":"On or near Parking Area"},"longitude":"0.180886"},"context":"","outcome_status":{"category":"Investigation complete; no suspect identified","date":"2017-12"},"persistent_id":"b535767f513ce04878ccf2b56089d98ec149aa5b4a3673aaa09e450025d52629","id":60694155,"location_subtype":"","month":"2017-10"},{"category":"other-theft","location_type":"Force","location":{"latitude":"51.577645","street":{"id":976454,"name":"On or near High Street"},"longitude":"0.178754"},"context":"","outcome_status":{"category":"Status update unavailable","date":"2018-02"},"persistent_id":"45b8187d80f61af3647bfa6526a06f141c1a59efe68916e191f82e5141bcf572","id":60705024,"location_subtype":"","month":"2017-10"},{"category":"other-theft","location_type":"Force","location":{"latitude":"51.575316","street":{"id":976464,"name":"On or near Nightclub"},"longitude":"0.182611"},"context":"","outcome_status":{"category":"Status update unavailable","date":"2018-02"},"persistent_id":"5d8dc412c6c43544203b2077f18d4c46bce2f73a3127f59c541dc9a981e50930","id":60707047,"location_subtype":"","month":"2017-10"},{"category":"other-theft","location_type":"Force","location":{"latitude":"51.573867","street":{"id":976600,"name":"On or near Petrol Station"},"longitude":"0.196166"},"context":"","outcome_status":{"category":"Status update unavailable","date":"2018-02"},"persistent_id":"37f2d59239b3a3ee24aa90546d837161afc4557b03dac373c1719e8fa503b548","id":60681187,"location_subtype":"","month":"2017-10"},{"category":"other-theft","location_type":"Force","location":{"latitude":"51.576092","street":{"id":976456,"name":"On or near Exchange Street"},"longitude":"0.181494"},"context":"","outcome_status":{"category":"Status update unavailable","date":"2018-02"},"persistent_id":"92f37496445019678c0ab3d2c99bbf14614f7e80409fe99aec9f9e339658d192","id":60673847,"location_subtype":"","month":"2017-10"},{"category":"other-theft","location_type":"Force","location":{"latitude":"51.576092","street":{"id":976456,"name":"On or near Exchange Street"},"longitude":"0.181494"},"context":"","outcome_status":{"category":"Status update unavailable","date":"2018-02"},"persistent_id":"8cc57875c89526f64bac8bf132a2cb5908893fa901f5e52b5eb3892196d3e7de","id":60685942,"location_subtype":"","month":"2017-10"},{"category":"other-theft","location_type":"Force","location":{"latitude":"51.576989","street":{"id":976468,"name":"On or near Shopping Area"},"longitude":"0.180137"},"context":"","outcome_status":{"category":"Status update unavailable","date":"2018-02"},"persistent_id":"3cb2e14b46e8bb9d76ac0ed0f517c781bbce41b53d757601a07f78d0206b3e45","id":60689255,"location_subtype":"","month":"2017-10"},{"category":"other-theft","location_type":"Force","location":{"latitude":"51.573754","street":{"id":976465,"name":"On or near Supermarket"},"longitude":"0.182912"},"context":"","outcome_status":{"category":"Status update unavailable","date":"2018-02"},"persistent_id":"79c2da88636b7e578a44cdbfc40f8c9d97c5faebbb40c6a045875907fb4471ee","id":60681825,"location_subtype":"","month":"2017-10"},{"category":"other-theft","location_type":"Force","location":{"latitude":"51.576282","street":{"id":976441,"name":"On or near Parking Area"},"longitude":"0.184317"},"context":"","outcome_status":{"category":"Investigation complete; no suspect identified","date":"2017-12"},"persistent_id":"10a34b03c11d1da68f04b8dff42f1aeb776a050458ca2066709cc5cdbdf5bcaf","id":60697329,"location_subtype":"","month":"2017-10"},{"category":"possession-of-weapons","location_type":"Force","location":{"latitude":"51.575761","street":{"id":976442,"name":"On or near Parking Area"},"longitude":"0.180886"},"context":"","outcome_status":{"category":"Awaiting court outcome","date":"2018-04"},"persistent_id":"fbfec863ac8866aad103467f5d82e330723c39f0ff7436b8d5d1647640a56732","id":60704004,"location_subtype":"","month":"2017-10"},{"category":"possession-of-weapons","location_type":"Force","location":{"latitude":"51.573142","street":{"id":976450,"name":"On or near Regarth Avenue"},"longitude":"0.182955"},"context":"","outcome_status":{"category":"Court result unavailable","date":"2018-04"},"persistent_id":"fbaf6b3b2522e3f5d01021999aee2f58ffe8752de32a6b9707d4ee7b04b11691","id":60699044,"location_subtype":"","month":"2017-10"},{"category":"possession-of-weapons","location_type":"Force","location":{"latitude":"51.578943","street":{"id":976475,"name":"On or near Shopping Area"},"longitude":"0.182901"},"context":"","outcome_status":{"category":"Status update unavailable","date":"2018-02"},"persistent_id":"9e8c6104776ca4e6724090e428753c5755d7b42646590623305634ac49ea8806","id":60676770,"location_subtype":"","month":"2017-10"},{"category":"possession-of-weapons","location_type":"Force","location":{"latitude":"51.571139","street":{"id":976411,"name":"On or near Kyme Road"},"longitude":"0.189107"},"context":"","outcome_status":{"category":"Court result unavailable","date":"2018-05"},"persistent_id":"36f6b5a3ff0b11ccd9b532667c99d89c17d5d18fd48b54f7c45c02505f5ae98a","id":60710574,"location_subtype":"","month":"2017-10"},{"category":"public-order","location_type":"BTP","location":{"latitude":"51.574600","street":{"id":1486612,"name":"Romford (station)"},"longitude":"0.182422"},"context":"","outcome_status":{"category":"Status update unavailable","date":"2018-02"},"persistent_id":"","id":66361944,"location_subtype":"STATION","month":"2017-10"},{"category":"public-order","location_type":"BTP","location":{"latitude":"51.574600","street":{"id":1486612,"name":"Romford (station)"},"longitude":"0.182422"},"context":"","outcome_status":{"category":"Status update unavailable","date":"2018-02"},"persistent_id":"","id":66361945,"location_subtype":"STATION","month":"2017-10"},{"category":"public-order","location_type":"Force","location":{"latitude":"51.574004","street":{"id":976461,"name":"On or near Bus\/coach Station"},"longitude":"0.182043"},"context":"","outcome_status":{"category":"Investigation complete; no suspect identified","date":"2017-12"},"persistent_id":"99c9be7d2d341a18841fc1ff157327c0d393d0598d384d7916a7c7dc38e1e96b","id":60673555,"location_subtype":"","month":"2017-10"},{"category":"public-order","location_type":"Force","location":{"latitude":"51.575316","street":{"id":976464,"name":"On or near Nightclub"},"longitude":"0.182611"},"context":"","outcome_status":{"category":"Status update unavailable","date":"2018-02"},"persistent_id":"f9132734642a655fcacac3737e566742200c983e675bf04223297701204c0f14","id":60673618,"location_subtype":"","month":"2017-10"},{"category":"public-order","location_type":"Force","location":{"latitude":"51.580781","street":{"id":977055,"name":"On or near Bus\/coach Station"},"longitude":"0.181300"},"context":"","outcome_status":{"category":"Investigation complete; no suspect identified","date":"2017-10"},"persistent_id":"ba26eb2e441a0ce9b918d82c28d637b3e4b733a4d7041e72a4db82a3621240a9","id":60675340,"location_subtype":"","month":"2017-10"},{"category":"public-order","location_type":"Force","location":{"latitude":"51.576092","street":{"id":976456,"name":"On or near Exchange Street"},"longitude":"0.181494"},"context":"","outcome_status":{"category":"Investigation complete; no suspect identified","date":"2017-11"},"persistent_id":"a67310b0645a62b43d0bdb58551c9cb2b0bc8580610619052d3a6eda7582a202","id":60688163,"location_subtype":"","month":"2017-10"},{"category":"public-order","location_type":"Force","location":{"latitude":"51.577472","street":{"id":976481,"name":"On or near Parking Area"},"longitude":"0.177403"},"context":"","outcome_status":{"category":"Investigation complete; no suspect identified","date":"2018-03"},"persistent_id":"4a5ed70475a7ada7ec09d87b1a2793a81547ee598b6f7c649f7f0126954e9f85","id":60674697,"location_subtype":"","month":"2017-10"},{"category":"public-order","location_type":"Force","location":{"latitude":"51.575761","street":{"id":976442,"name":"On or near Parking Area"},"longitude":"0.180886"},"context":"","outcome_status":{"category":"Status update unavailable","date":"2018-02"},"persistent_id":"6378e3fa9e1499ad318f1548f069f19aea633044611096581495c5a716a9da71","id":60691770,"location_subtype":"","month":"2017-10"},{"category":"public-order","location_type":"BTP","location":{"latitude":"51.574600","street":{"id":1486612,"name":"Romford (station)"},"longitude":"0.182422"},"context":"","outcome_status":{"category":"Status update unavailable","date":"2018-02"},"persistent_id":"","id":66361946,"location_subtype":"STATION","month":"2017-10"},{"category":"public-order","location_type":"Force","location":{"latitude":"51.575797","street":{"id":976470,"name":"On or near Further\/higher Educational Building"},"longitude":"0.183313"},"context":"","outcome_status":{"category":"Defendant found not guilty","date":"2018-03"},"persistent_id":"efc25b37ad21301983fd510a28080ed040d156d007cbd86b8764a4efcc0e500e","id":60690653,"location_subtype":"","month":"2017-10"},{"category":"public-order","location_type":"Force","location":{"latitude":"51.577473","street":{"id":976466,"name":"On or near Shopping Area"},"longitude":"0.182166"},"context":"","outcome_status":{"category":"Defendant found not guilty","date":"2018-03"},"persistent_id":"b23aad682d8b77e91a9645c0ce02ce4f920e2867fe6860ba5eeec3ddbdcb6cd4","id":60674541,"location_subtype":"","month":"2017-10"},{"category":"public-order","location_type":"Force","location":{"latitude":"51.575316","street":{"id":976464,"name":"On or near Nightclub"},"longitude":"0.182611"},"context":"","outcome_status":{"category":"Investigation complete; no suspect identified","date":"2017-10"},"persistent_id":"edb97d01d3de464ff61957589bfd7de076f4f2199e7a6b3e5fe1482094f8422e","id":60683671,"location_subtype":"","month":"2017-10"},{"category":"public-order","location_type":"Force","location":{"latitude":"51.576290","street":{"id":976500,"name":"On or near Petrol Station"},"longitude":"0.178112"},"context":"","outcome_status":{"category":"Status update unavailable","date":"2018-02"},"persistent_id":"8e40023586c2ef1355aeeeb22ace8db4b15e0e85449312a49618b8f8c733db2c","id":60735158,"location_subtype":"","month":"2017-10"},{"category":"public-order","location_type":"Force","location":{"latitude":"51.581468","street":{"id":976989,"name":"On or near Aveley Road"},"longitude":"0.178172"},"context":"","outcome_status":{"category":"Status update unavailable","date":"2018-02"},"persistent_id":"985bf511461e081099df2b78a3db719cf9e9bb4170c074480077786ebaf91385","id":60678127,"location_subtype":"","month":"2017-10"},{"category":"public-order","location_type":"Force","location":{"latitude":"51.571139","street":{"id":976411,"name":"On or near Kyme Road"},"longitude":"0.189107"},"context":"","outcome_status":{"category":"Status update unavailable","date":"2018-02"},"persistent_id":"36f6b5a3ff0b11ccd9b532667c99d89c17d5d18fd48b54f7c45c02505f5ae98a","id":60710488,"location_subtype":"","month":"2017-10"},{"category":"public-order","location_type":"Force","location":{"latitude":"51.575316","street":{"id":976464,"name":"On or near Nightclub"},"longitude":"0.182611"},"context":"","outcome_status":{"category":"Status update unavailable","date":"2018-02"},"persistent_id":"d513711cd2099eef76628d901d8b48c8f7517f5b9e55b2ea8cfbb4b185885c53","id":60671088,"location_subtype":"","month":"2017-10"},{"category":"public-order","location_type":"Force","location":{"latitude":"51.575761","street":{"id":976442,"name":"On or near Parking Area"},"longitude":"0.180886"},"context":"","outcome_status":{"category":"Status update unavailable","date":"2018-02"},"persistent_id":"fbfec863ac8866aad103467f5d82e330723c39f0ff7436b8d5d1647640a56732","id":60703576,"location_subtype":"","month":"2017-10"},{"category":"public-order","location_type":"Force","location":{"latitude":"51.580526","street":{"id":977046,"name":"On or near Pedestrian Subway"},"longitude":"0.183886"},"context":"","outcome_status":{"category":"Court result unavailable","date":"2018-04"},"persistent_id":"7ee394439483a68dfa0dfd6eec8876a8a07311f86d55fc2a44e6d5d397d53591","id":60673301,"location_subtype":"","month":"2017-10"},{"category":"public-order","location_type":"Force","location":{"latitude":"51.575316","street":{"id":976464,"name":"On or near Nightclub"},"longitude":"0.182611"},"context":"","outcome_status":{"category":"Status update unavailable","date":"2018-02"},"persistent_id":"f9132734642a655fcacac3737e566742200c983e675bf04223297701204c0f14","id":60673619,"location_subtype":"","month":"2017-10"},{"category":"public-order","location_type":"Force","location":{"latitude":"51.576092","street":{"id":976456,"name":"On or near Exchange Street"},"longitude":"0.181494"},"context":"","outcome_status":{"category":"Investigation complete; no suspect identified","date":"2017-12"},"persistent_id":"ed455d365317c756c4db62fc066b3e11f3ef8333a774a10d6e21fdc7534d486b","id":60675209,"location_subtype":"","month":"2017-10"},{"category":"public-order","location_type":"Force","location":{"latitude":"51.583436","street":{"id":977018,"name":"On or near Parking Area"},"longitude":"0.191762"},"context":"","outcome_status":{"category":"Status update unavailable","date":"2018-02"},"persistent_id":"326a61bc13dfab672aa803c4e3ac3f2e0174e92176e3d635c6769c52f78e71a7","id":60675497,"location_subtype":"","month":"2017-10"},{"category":"public-order","location_type":"Force","location":{"latitude":"51.577013","street":{"id":976469,"name":"On or near Shopping Area"},"longitude":"0.183227"},"context":"","outcome_status":{"category":"Status update unavailable","date":"2018-02"},"persistent_id":"a97159464e734a38d523058ba22afafc07fd5af301ae41eef9bf64721b643d1e","id":60675510,"location_subtype":"","month":"2017-10"},{"category":"public-order","location_type":"Force","location":{"latitude":"51.580526","street":{"id":977046,"name":"On or near Pedestrian Subway"},"longitude":"0.183886"},"context":"","outcome_status":{"category":"Court result unavailable","date":"2018-04"},"persistent_id":"6a6fc680e348c5c10e38aed993a16327f31a1eba35fc318a88c5e1fe1224655a","id":60676656,"location_subtype":"","month":"2017-10"},{"category":"public-order","location_type":"Force","location":{"latitude":"51.580202","street":{"id":977048,"name":"On or near Pedestrian Subway"},"longitude":"0.184361"},"context":"","outcome_status":{"category":"Investigation complete; no suspect identified","date":"2017-12"},"persistent_id":"96e6c279fb0d68744b62a6bf7f4c2b6e9d9b2edd535e1551e105f14f9ba0b151","id":60695780,"location_subtype":"","month":"2017-10"},{"category":"public-order","location_type":"Force","location":{"latitude":"51.575431","street":{"id":976462,"name":"On or near Nightclub"},"longitude":"0.183642"},"context":"","outcome_status":{"category":"Status update unavailable","date":"2018-02"},"persistent_id":"42f78a74007aa8ad96fa5cd873c6d1aafbdc22b98beb846b08ce17f43878d94f","id":60697419,"location_subtype":"","month":"2017-10"},{"category":"robbery","location_type":"Force","location":{"latitude":"51.578773","street":{"id":976476,"name":"On or near Shopping Area"},"longitude":"0.186270"},"context":"","outcome_status":{"category":"Investigation complete; no suspect identified","date":"2017-10"},"persistent_id":"dd52e7c116dbb37521881e3a5a29748721907475a1aa33665e21d8757c52471c","id":60678135,"location_subtype":"","month":"2017-10"},{"category":"robbery","location_type":"Force","location":{"latitude":"51.577473","street":{"id":976466,"name":"On or near Shopping Area"},"longitude":"0.182166"},"context":"","outcome_status":{"category":"Status update unavailable","date":"2018-02"},"persistent_id":"2ce4d87c98d0284e861f047be6df5066b088bf2e0a9e06a5e6d02a122bb68af1","id":60675853,"location_subtype":"","month":"2017-10"},{"category":"robbery","location_type":"Force","location":{"latitude":"51.576989","street":{"id":976468,"name":"On or near Shopping Area"},"longitude":"0.180137"},"context":"","outcome_status":{"category":"Court result unavailable","date":"2018-04"},"persistent_id":"8c7a14b8ba6001ac37cf27f7a782c96fe2c1bbb45f4c1894bac28751b320cc60","id":60698739,"location_subtype":"","month":"2017-10"},{"category":"robbery","location_type":"Force","location":{"latitude":"51.580526","street":{"id":977046,"name":"On or near Pedestrian Subway"},"longitude":"0.183886"},"context":"","outcome_status":{"category":"Investigation complete; no suspect identified","date":"2017-10"},"persistent_id":"37fdc38519cb7dd0e7403482ac2c4ed51207cabdf62b2d41972aeef015c5c4a4","id":60674832,"location_subtype":"","month":"2017-10"},{"category":"robbery","location_type":"Force","location":{"latitude":"51.580526","street":{"id":977046,"name":"On or near Pedestrian Subway"},"longitude":"0.183886"},"context":"","outcome_status":{"category":"Investigation complete; no suspect identified","date":"2017-10"},"persistent_id":"51d8a39ccb1bd74a6e23c65d37ca80d505d3719f35205fbdccfee68ce61848aa","id":60689687,"location_subtype":"","month":"2017-10"},{"category":"robbery","location_type":"Force","location":{"latitude":"51.578773","street":{"id":976476,"name":"On or near Shopping Area"},"longitude":"0.186270"},"context":"","outcome_status":{"category":"Status update unavailable","date":"2018-02"},"persistent_id":"5504f4a7b882282a0025e7461700f0c82c72509d68df7987361088149ca260b6","id":60702857,"location_subtype":"","month":"2017-10"},{"category":"robbery","location_type":"Force","location":{"latitude":"51.580526","street":{"id":977046,"name":"On or near Pedestrian Subway"},"longitude":"0.183886"},"context":"","outcome_status":{"category":"Status update unavailable","date":"2018-02"},"persistent_id":"bd536ce95a7db5f412e1c428dbdcb792edb80d64b6297d62d2b5131cd932df20","id":60673763,"location_subtype":"","month":"2017-10"},{"category":"robbery","location_type":"Force","location":{"latitude":"51.575761","street":{"id":976442,"name":"On or near Parking Area"},"longitude":"0.180886"},"context":"","outcome_status":{"category":"Investigation complete; no suspect identified","date":"2018-02"},"persistent_id":"6807be2583957a29bc9bd910d1c3b965036d52ce25d8a0b75447bcbcbed7f796","id":60709030,"location_subtype":"","month":"2017-10"},{"category":"robbery","location_type":"Force","location":{"latitude":"51.579467","street":{"id":977051,"name":"On or near The Mews"},"longitude":"0.179866"},"context":"","outcome_status":{"category":"Investigation complete; no suspect identified","date":"2017-12"},"persistent_id":"9b388465ceca645ace6d8118c5f90e853e3340020e80ac6e7b4f34e38a0ed8ea","id":60691171,"location_subtype":"","month":"2017-10"},{"category":"robbery","location_type":"Force","location":{"latitude":"51.574782","street":{"id":976588,"name":"On or near Marwell Close"},"longitude":"0.198172"},"context":"","outcome_status":{"category":"Investigation complete; no suspect identified","date":"2017-12"},"persistent_id":"59d56f02c92021d2cda028e1d0aed95559f4231f62a0e590849bbaa158e549de","id":60675720,"location_subtype":"","month":"2017-10"},{"category":"robbery","location_type":"Force","location":{"latitude":"51.578773","street":{"id":976476,"name":"On or near Shopping Area"},"longitude":"0.186270"},"context":"","outcome_status":{"category":"Status update unavailable","date":"2018-02"},"persistent_id":"5504f4a7b882282a0025e7461700f0c82c72509d68df7987361088149ca260b6","id":60702856,"location_subtype":"","month":"2017-10"},{"category":"robbery","location_type":"Force","location":{"latitude":"51.576989","street":{"id":976468,"name":"On or near Shopping Area"},"longitude":"0.180137"},"context":"","outcome_status":{"category":"Investigation complete; no suspect identified","date":"2017-12"},"persistent_id":"0f08287ff9a5819b0905f2c6327bfc5c1bd60c3cd217d56ddc6496e52f28621d","id":60692996,"location_subtype":"","month":"2017-10"},{"category":"robbery","location_type":"Force","location":{"latitude":"51.578773","street":{"id":976476,"name":"On or near Shopping Area"},"longitude":"0.186270"},"context":"","outcome_status":{"category":"Status update unavailable","date":"2018-02"},"persistent_id":"7ac988c0e997cfdefbb400fd2f4d04e2f36c4bb2008844c2c389984333472de9","id":60697433,"location_subtype":"","month":"2017-10"},{"category":"robbery","location_type":"Force","location":{"latitude":"51.580202","street":{"id":977048,"name":"On or near Pedestrian Subway"},"longitude":"0.184361"},"context":"","outcome_status":{"category":"Status update unavailable","date":"2018-02"},"persistent_id":"c28f34f7b544fe513bf0ce620ec28963731e10516e650d124ec7566ae925d1bb","id":60681270,"location_subtype":"","month":"2017-10"},{"category":"shoplifting","location_type":"Force","location":{"latitude":"51.576092","street":{"id":976456,"name":"On or near Exchange Street"},"longitude":"0.181494"},"context":"","outcome_status":{"category":"Status update unavailable","date":"2018-02"},"persistent_id":"a0608daf6aafada25e8de7581c9d31350d23d44d6cc6e69e610c4ff118ab256a","id":60680408,"location_subtype":"","month":"2017-10"},{"category":"shoplifting","location_type":"Force","location":{"latitude":"51.577473","street":{"id":976466,"name":"On or near Shopping Area"},"longitude":"0.182166"},"context":"","outcome_status":{"category":"Investigation complete; no suspect identified","date":"2017-10"},"persistent_id":"cc5b447791300babde4cf38a8046ba76218abe48f7f088895b5a5cf2a7bb58a2","id":60680597,"location_subtype":"","month":"2017-10"},{"category":"shoplifting","location_type":"Force","location":{"latitude":"51.578943","street":{"id":976475,"name":"On or near Shopping Area"},"longitude":"0.182901"},"context":"","outcome_status":{"category":"Awaiting court outcome","date":"2018-04"},"persistent_id":"ecefb92a6774b924b949e3ec57079019459222d699a72069db9248b579ec0144","id":60703524,"location_subtype":"","month":"2017-10"},{"category":"shoplifting","location_type":"Force","location":{"latitude":"51.575761","street":{"id":976442,"name":"On or near Parking Area"},"longitude":"0.180886"},"context":"","outcome_status":{"category":"Investigation complete; no suspect identified","date":"2017-11"},"persistent_id":"8f2733464802099324b8caa9c4f7684005b04361649f3ae18ff9443cf2e715fe","id":60681169,"location_subtype":"","month":"2017-10"},{"category":"shoplifting","location_type":"Force","location":{"latitude":"51.580080","street":{"id":977052,"name":"On or near St Edwards Way"},"longitude":"0.179318"},"context":"","outcome_status":{"category":"Offender given suspended prison sentence","date":"2018-02"},"persistent_id":"b575f4769669ae19163d64f6d3eaa9d0f76e9a20fdfd4c0900c8a57338fb3778","id":60709149,"location_subtype":"","month":"2017-10"},{"category":"shoplifting","location_type":"Force","location":{"latitude":"51.568980","street":{"id":976448,"name":"On or near Rom Valley Way"},"longitude":"0.183809"},"context":"","outcome_status":{"category":"Investigation complete; no suspect identified","date":"2017-11"},"persistent_id":"66bc0c69b27283ff5b4719f866adf997c122eafa824edebcedb7f93fe8bb5121","id":60705188,"location_subtype":"","month":"2017-10"},{"category":"shoplifting","location_type":"Force","location":{"latitude":"51.577473","street":{"id":976466,"name":"On or near Shopping Area"},"longitude":"0.182166"},"context":"","outcome_status":{"category":"Status update unavailable","date":"2018-02"},"persistent_id":"8cc7515bdf4d03286192c6608362e6ebb4da68a4e83b8f7f1ad77554c0258936","id":60704906,"location_subtype":"","month":"2017-10"},{"category":"shoplifting","location_type":"Force","location":{"latitude":"51.577783","street":{"id":976467,"name":"On or near Shopping Area"},"longitude":"0.183884"},"context":"","outcome_status":{"category":"Status update unavailable","date":"2018-02"},"persistent_id":"59630df17e20f7880365b98281e8e95c16e12d80b6dad68e1cf759b1356327f6","id":60698654,"location_subtype":"","month":"2017-10"},{"category":"shoplifting","location_type":"Force","location":{"latitude":"51.574004","street":{"id":976461,"name":"On or near Bus\/coach Station"},"longitude":"0.182043"},"context":"","outcome_status":{"category":"Status update unavailable","date":"2018-02"},"persistent_id":"42f8c4ea6208f880f08f46118304338b10c104241392f1674bc30f50cfe3804e","id":60681941,"location_subtype":"","month":"2017-10"},{"category":"shoplifting","location_type":"Force","location":{"latitude":"51.576989","street":{"id":976468,"name":"On or near Shopping Area"},"longitude":"0.180137"},"context":"","outcome_status":{"category":"Investigation complete; no suspect identified","date":"2017-11"},"persistent_id":"92137236fe8ba22b70bbab3ac41092c10a034048c190f8c233569690d14e49c4","id":60671908,"location_subtype":"","month":"2017-10"},{"category":"shoplifting","location_type":"Force","location":{"latitude":"51.577473","street":{"id":976466,"name":"On or near Shopping Area"},"longitude":"0.182166"},"context":"","outcome_status":{"category":"Status update unavailable","date":"2018-02"},"persistent_id":"a21ced4c69ad0e4befbc5da62c53bd993ea4cfd8046b67c52863188ac6206998","id":60698890,"location_subtype":"","month":"2017-10"},{"category":"shoplifting","location_type":"Force","location":{"latitude":"51.580061","street":{"id":977050,"name":"On or near Shopping Area"},"longitude":"0.182305"},"context":"","outcome_status":{"category":"Investigation complete; no suspect identified","date":"2018-03"},"persistent_id":"fab91b02148235570962f468b8b980bbbbcb8a1181168cb7427dd2a309abf8ff","id":60686095,"location_subtype":"","month":"2017-10"},{"category":"shoplifting","location_type":"Force","location":{"latitude":"51.575338","street":{"id":976484,"name":"On or near Waterloo Road"},"longitude":"0.178037"},"context":"","outcome_status":{"category":"Status update unavailable","date":"2018-02"},"persistent_id":"724f16e8433233f419e876c930f060c7c54309eb45bfea01a23bae6266f8e34a","id":60673776,"location_subtype":"","month":"2017-10"},{"category":"shoplifting","location_type":"Force","location":{"latitude":"51.577473","street":{"id":976466,"name":"On or near Shopping Area"},"longitude":"0.182166"},"context":"","outcome_status":{"category":"Offender given community sentence","date":"2017-11"},"persistent_id":"e65ce160cd2151ae25e5f186dfbdefab14ecafd021ddae8d0ebc062384f62caa","id":60674562,"location_subtype":"","month":"2017-10"},{"category":"shoplifting","location_type":"Force","location":{"latitude":"51.580061","street":{"id":977050,"name":"On or near Shopping Area"},"longitude":"0.182305"},"context":"","outcome_status":{"category":"Investigation complete; no suspect identified","date":"2018-04"},"persistent_id":"40c3993a929764337bee140dada1f502f03a42a13344cd0f40a1576eb019962b","id":60692838,"location_subtype":"","month":"2017-10"},{"category":"shoplifting","location_type":"Force","location":{"latitude":"51.578943","street":{"id":976475,"name":"On or near Shopping Area"},"longitude":"0.182901"},"context":"","outcome_status":{"category":"Status update unavailable","date":"2018-02"},"persistent_id":"67e867625ab2f088263015483619d856e5a7c27fa73077e25ab7b82be17e4cef","id":60683121,"location_subtype":"","month":"2017-10"},{"category":"shoplifting","location_type":"Force","location":{"latitude":"51.580061","street":{"id":977050,"name":"On or near Shopping Area"},"longitude":"0.182305"},"context":"","outcome_status":{"category":"Status update unavailable","date":"2018-02"},"persistent_id":"608e1a4fb5fcc4974a79cf2f84d6f326fe40541b456a458612cb1d77f6dbfb75","id":60694385,"location_subtype":"","month":"2017-10"},{"category":"shoplifting","location_type":"Force","location":{"latitude":"51.578943","street":{"id":976475,"name":"On or near Shopping Area"},"longitude":"0.182901"},"context":"","outcome_status":{"category":"Status update unavailable","date":"2018-02"},"persistent_id":"8da611ee703c1a00b950f6e1b923d8adb1e4590769609a05c5211fb81db18115","id":60674492,"location_subtype":"","month":"2017-10"},{"category":"shoplifting","location_type":"Force","location":{"latitude":"51.576862","street":{"id":976494,"name":"On or near Logan Mews"},"longitude":"0.178269"},"context":"","outcome_status":{"category":"Status update unavailable","date":"2018-02"},"persistent_id":"4c0deba1d78f1a16a078843775ad905625dda5331ac3ca78be34d080c25a9d36","id":60674508,"location_subtype":"","month":"2017-10"},{"category":"shoplifting","location_type":"Force","location":{"latitude":"51.575761","street":{"id":976442,"name":"On or near Parking Area"},"longitude":"0.180886"},"context":"","outcome_status":{"category":"Status update unavailable","date":"2018-02"},"persistent_id":"b13e31d0a85286fa3ad3441f5db8bbd175fe7e4452e2a5f74ca5174619a6c55e","id":60674877,"location_subtype":"","month":"2017-10"},{"category":"shoplifting","location_type":"Force","location":{"latitude":"51.576862","street":{"id":976494,"name":"On or near Logan Mews"},"longitude":"0.178269"},"context":"","outcome_status":{"category":"Investigation complete; no suspect identified","date":"2017-10"},"persistent_id":"f00413a5d95b265697461503fd142d5ef13fb3dcf9679df710a2fee38299c3d1","id":60675083,"location_subtype":"","month":"2017-10"},{"category":"shoplifting","location_type":"Force","location":{"latitude":"51.572039","street":{"id":976446,"name":"On or near South Street"},"longitude":"0.184706"},"context":"","outcome_status":{"category":"Status update unavailable","date":"2018-02"},"persistent_id":"4c7b31dfc249bbc29189f344acf595bcd579e993a484ff163cef07ed55cab400","id":60686094,"location_subtype":"","month":"2017-10"},{"category":"shoplifting","location_type":"Force","location":{"latitude":"51.580061","street":{"id":977050,"name":"On or near Shopping Area"},"longitude":"0.182305"},"context":"","outcome_status":{"category":"Status update unavailable","date":"2018-02"},"persistent_id":"7032dda9f8e8ed9cb4ba47c853621d63daf489a4f9b63f5f80335e3610b826db","id":60692752,"location_subtype":"","month":"2017-10"},{"category":"shoplifting","location_type":"Force","location":{"latitude":"51.578943","street":{"id":976475,"name":"On or near Shopping Area"},"longitude":"0.182901"},"context":"","outcome_status":{"category":"Status update unavailable","date":"2018-02"},"persistent_id":"ab3d32781128956a5b63cb8f8645d47ca888b01acbc7442ea0d06838b5e76e9e","id":60675450,"location_subtype":"","month":"2017-10"},{"category":"shoplifting","location_type":"Force","location":{"latitude":"51.578943","street":{"id":976475,"name":"On or near Shopping Area"},"longitude":"0.182901"},"context":"","outcome_status":{"category":"Status update unavailable","date":"2018-02"},"persistent_id":"15109ac21f632e1b476e8ff95b80e5f57c692e9258664af950a70108cd79bcab","id":60675672,"location_subtype":"","month":"2017-10"},{"category":"shoplifting","location_type":"Force","location":{"latitude":"51.569183","street":{"id":976408,"name":"On or near Lyon Road"},"longitude":"0.187888"},"context":"","outcome_status":{"category":"Court result unavailable","date":"2018-04"},"persistent_id":"d85c225cd5c6b83a15b3c2be59f7570add6a79a6d04163825067d47bbc7f2319","id":60676043,"location_subtype":"","month":"2017-10"},{"category":"shoplifting","location_type":"Force","location":{"latitude":"51.577473","street":{"id":976466,"name":"On or near Shopping Area"},"longitude":"0.182166"},"context":"","outcome_status":{"category":"Court result unavailable","date":"2018-05"},"persistent_id":"04d1be2283544c7a1af7b0a6c4e73b0575716b5dfd739168b46e1efa81f8854e","id":60683208,"location_subtype":"","month":"2017-10"},{"category":"shoplifting","location_type":"Force","location":{"latitude":"51.577783","street":{"id":976467,"name":"On or near Shopping Area"},"longitude":"0.183884"},"context":"","outcome_status":{"category":"Investigation complete; no suspect identified","date":"2018-01"},"persistent_id":"dba755c930ba409ee192c9e8c8f130e93e17cfb8f96d79f8dcb69866a955217c","id":60692190,"location_subtype":"","month":"2017-10"},{"category":"shoplifting","location_type":"Force","location":{"latitude":"51.576989","street":{"id":976468,"name":"On or near Shopping Area"},"longitude":"0.180137"},"context":"","outcome_status":{"category":"Investigation complete; no suspect identified","date":"2018-04"},"persistent_id":"ec79ef9db08ec4a2ad1432ab2deb34c66ebbc17341291cafb90ed6d8c1873a27","id":60676149,"location_subtype":"","month":"2017-10"},{"category":"shoplifting","location_type":"Force","location":{"latitude":"51.575761","street":{"id":976442,"name":"On or near Parking Area"},"longitude":"0.180886"},"context":"","outcome_status":{"category":"Status update unavailable","date":"2018-02"},"persistent_id":"3a0031a9da5406044f5a17cd5af291a3954092299c0d4083895e0946e69a99ce","id":60692067,"location_subtype":"","month":"2017-10"},{"category":"shoplifting","location_type":"Force","location":{"latitude":"51.577473","street":{"id":976466,"name":"On or near Shopping Area"},"longitude":"0.182166"},"context":"","outcome_status":{"category":"Offender sent to prison","date":"2017-10"},"persistent_id":"d9097a4f3ebe26a99382640a66a453dcd6fa9be779305501f8e65f5ed6114a01","id":60672728,"location_subtype":"","month":"2017-10"},{"category":"shoplifting","location_type":"Force","location":{"latitude":"51.577473","street":{"id":976466,"name":"On or near Shopping Area"},"longitude":"0.182166"},"context":"","outcome_status":{"category":"Court result unavailable","date":"2018-05"},"persistent_id":"3a38ece2444e3098fc10da93861201389abcfb573c4988ae4121fb06009692cf","id":60678681,"location_subtype":"","month":"2017-10"},{"category":"shoplifting","location_type":"Force","location":{"latitude":"51.580061","street":{"id":977050,"name":"On or near Shopping Area"},"longitude":"0.182305"},"context":"","outcome_status":{"category":"Status update unavailable","date":"2018-02"},"persistent_id":"df64737655b16b3e8b8e5c101ae17f0161485c18a5b8e1355932b9496487c066","id":60715128,"location_subtype":"","month":"2017-10"},{"category":"shoplifting","location_type":"Force","location":{"latitude":"51.575761","street":{"id":976442,"name":"On or near Parking Area"},"longitude":"0.180886"},"context":"","outcome_status":{"category":"Status update unavailable","date":"2018-02"},"persistent_id":"52e2f269f31f06afca9e727b373d3592de6a3c722288163e2c87cec9df106eaa","id":60701507,"location_subtype":"","month":"2017-10"},{"category":"shoplifting","location_type":"Force","location":{"latitude":"51.579203","street":{"id":976472,"name":"On or near Pedestrian Subway"},"longitude":"0.184905"},"context":"","outcome_status":{"category":"Status update unavailable","date":"2018-02"},"persistent_id":"456f8380fab127373187efa7a3d2b6c4cfcfd2304f3017bf439d83bcb57ea539","id":60689195,"location_subtype":"","month":"2017-10"},{"category":"shoplifting","location_type":"Force","location":{"latitude":"51.577473","street":{"id":976466,"name":"On or near Shopping Area"},"longitude":"0.182166"},"context":"","outcome_status":{"category":"Status update unavailable","date":"2018-02"},"persistent_id":"bf8e1a41d5cda7c7ca025c1923d48c2fa14ae18622f182b08e71948195df0bec","id":60688952,"location_subtype":"","month":"2017-10"},{"category":"shoplifting","location_type":"Force","location":{"latitude":"51.577783","street":{"id":976467,"name":"On or near Shopping Area"},"longitude":"0.183884"},"context":"","outcome_status":{"category":"Court result unavailable","date":"2018-05"},"persistent_id":"6137b2dea785580d4fc05391c9afa775876df16b65371485e999d904234e7242","id":60695133,"location_subtype":"","month":"2017-10"},{"category":"shoplifting","location_type":"Force","location":{"latitude":"51.578943","street":{"id":976475,"name":"On or near Shopping Area"},"longitude":"0.182901"},"context":"","outcome_status":{"category":"Offender given a caution","date":"2017-12"},"persistent_id":"44e9383bd3c7da04447e7cb443cdd41256392654249260592b94f6d2b5850081","id":60695646,"location_subtype":"","month":"2017-10"},{"category":"shoplifting","location_type":"Force","location":{"latitude":"51.576092","street":{"id":976456,"name":"On or near Exchange Street"},"longitude":"0.181494"},"context":"","outcome_status":{"category":"Investigation complete; no suspect identified","date":"2017-11"},"persistent_id":"5f6bc72be0cdbc83bc150a749ea3f551040de963c4d20f0b4dbf48003d55ad0b","id":60687381,"location_subtype":"","month":"2017-10"},{"category":"shoplifting","location_type":"Force","location":{"latitude":"51.575761","street":{"id":976442,"name":"On or near Parking Area"},"longitude":"0.180886"},"context":"","outcome_status":{"category":"Investigation complete; no suspect identified","date":"2017-11"},"persistent_id":"2b365c6fdb5da0538eb8b4c262cbf5fc82859d8ffaeceb3d5c025055f6dd0cb2","id":60687076,"location_subtype":"","month":"2017-10"},{"category":"shoplifting","location_type":"Force","location":{"latitude":"51.575578","street":{"id":976393,"name":"On or near Victoria Road"},"longitude":"0.188787"},"context":"","outcome_status":{"category":"Status update unavailable","date":"2018-02"},"persistent_id":"d73414558d5dde8d06035cd29b4683008e95a89e6a5b44ea8d59325002fda05a","id":60672180,"location_subtype":"","month":"2017-10"},{"category":"shoplifting","location_type":"Force","location":{"latitude":"51.577783","street":{"id":976467,"name":"On or near Shopping Area"},"longitude":"0.183884"},"context":"","outcome_status":{"category":"Status update unavailable","date":"2018-02"},"persistent_id":"50d7fc0a04ddb514953c55a38309ea2506c221971a4f312dd56076e9939aef34","id":60679414,"location_subtype":"","month":"2017-10"},{"category":"shoplifting","location_type":"Force","location":{"latitude":"51.579539","street":{"id":977057,"name":"On or near Pedestrian Subway"},"longitude":"0.185672"},"context":"","outcome_status":{"category":"Status update unavailable","date":"2018-02"},"persistent_id":"c971323eded0f788477763b13e376f1dcfdc7e6eb385bd5c51bd0d0cda6e00fe","id":60738066,"location_subtype":"","month":"2017-10"},{"category":"shoplifting","location_type":"Force","location":{"latitude":"51.578943","street":{"id":976475,"name":"On or near Shopping Area"},"longitude":"0.182901"},"context":"","outcome_status":{"category":"Status update unavailable","date":"2018-02"},"persistent_id":"a5fcc49e350f954904e07275b129e1d24bd98e5a16dbc60799d0495ad1b810f4","id":60679481,"location_subtype":"","month":"2017-10"},{"category":"shoplifting","location_type":"Force","location":{"latitude":"51.575761","street":{"id":976442,"name":"On or near Parking Area"},"longitude":"0.180886"},"context":"","outcome_status":{"category":"Status update unavailable","date":"2018-02"},"persistent_id":"fbfec863ac8866aad103467f5d82e330723c39f0ff7436b8d5d1647640a56732","id":60703486,"location_subtype":"","month":"2017-10"},{"category":"shoplifting","location_type":"Force","location":{"latitude":"51.576989","street":{"id":976468,"name":"On or near Shopping Area"},"longitude":"0.180137"},"context":"","outcome_status":{"category":"Investigation complete; no suspect identified","date":"2017-11"},"persistent_id":"5c7e7400ba321918cb79e16d3444e93b8c614212977bec1c81a83e0521048c5b","id":60678100,"location_subtype":"","month":"2017-10"},{"category":"shoplifting","location_type":"Force","location":{"latitude":"51.577473","street":{"id":976466,"name":"On or near Shopping Area"},"longitude":"0.182166"},"context":"","outcome_status":{"category":"Status update unavailable","date":"2018-02"},"persistent_id":"205a103879fcddda7999968cd26bceef70147d2793faa8e3b5a8cdda0adf1611","id":60731097,"location_subtype":"","month":"2017-10"},{"category":"shoplifting","location_type":"Force","location":{"latitude":"51.578943","street":{"id":976475,"name":"On or near Shopping Area"},"longitude":"0.182901"},"context":"","outcome_status":{"category":"Investigation complete; no suspect identified","date":"2017-10"},"persistent_id":"14a5bdeb6264bca124c49baa3f2b3ec893874a4fd88bedac63427d8948f53d6b","id":60675445,"location_subtype":"","month":"2017-10"},{"category":"theft-from-the-person","location_type":"Force","location":{"latitude":"51.577783","street":{"id":976467,"name":"On or near Shopping Area"},"longitude":"0.183884"},"context":"","outcome_status":{"category":"Status update unavailable","date":"2018-02"},"persistent_id":"718e7c222a50f28d2853a6ddc934d7e1bb8c9ecf069fa427d480ad620b5c7f30","id":60672104,"location_subtype":"","month":"2017-10"},{"category":"theft-from-the-person","location_type":"Force","location":{"latitude":"51.579448","street":{"id":977056,"name":"On or near Shopping Area"},"longitude":"0.181395"},"context":"","outcome_status":{"category":"Status update unavailable","date":"2018-02"},"persistent_id":"843774203492a5c2c3fa515683f199cfe6ef63f391ec74326f18b6921f38c1b9","id":60702777,"location_subtype":"","month":"2017-10"},{"category":"theft-from-the-person","location_type":"Force","location":{"latitude":"51.578657","street":{"id":976460,"name":"On or near Angel Way"},"longitude":"0.178947"},"context":"","outcome_status":{"category":"Status update unavailable","date":"2018-02"},"persistent_id":"613e7e8b38a8d263b0ad4ab0ea35744c7d466ba77ac30e6c3bc361e6d6913b12","id":60676055,"location_subtype":"","month":"2017-10"},{"category":"theft-from-the-person","location_type":"Force","location":{"latitude":"51.578943","street":{"id":976475,"name":"On or near Shopping Area"},"longitude":"0.182901"},"context":"","outcome_status":{"category":"Status update unavailable","date":"2018-02"},"persistent_id":"57985574e4f38a70b9309d762ab42ab98f4b41804ec5fc5966c025ba0d012c31","id":60686690,"location_subtype":"","month":"2017-10"},{"category":"theft-from-the-person","location_type":"Force","location":{"latitude":"51.577473","street":{"id":976466,"name":"On or near Shopping Area"},"longitude":"0.182166"},"context":"","outcome_status":{"category":"Investigation complete; no suspect identified","date":"2018-03"},"persistent_id":"d9ccbd47f57ee4bd082abf8531c44f32beac56cf5c152f716d88120da36a2e37","id":60712924,"location_subtype":"","month":"2017-10"},{"category":"theft-from-the-person","location_type":"Force","location":{"latitude":"51.575509","street":{"id":976429,"name":"On or near Broadfield Close"},"longitude":"0.192002"},"context":"","outcome_status":{"category":"Status update unavailable","date":"2018-02"},"persistent_id":"c6e4b2de43118c0d88c628ab8af777cf26cfd95bee1173ac8fb7b0463db78a04","id":60680969,"location_subtype":"","month":"2017-10"},{"category":"theft-from-the-person","location_type":"Force","location":{"latitude":"51.579323","street":{"id":977047,"name":"On or near Pedestrian Subway"},"longitude":"0.184232"},"context":"","outcome_status":{"category":"Investigation complete; no suspect identified","date":"2017-10"},"persistent_id":"64df65fa5e7428e6f8b18051ff8fb5e020d54bc7397ed1cd3ffe17d10aa0dcdb","id":60674225,"location_subtype":"","month":"2017-10"},{"category":"theft-from-the-person","location_type":"Force","location":{"latitude":"51.577473","street":{"id":976466,"name":"On or near Shopping Area"},"longitude":"0.182166"},"context":"","outcome_status":{"category":"Investigation complete; no suspect identified","date":"2017-11"},"persistent_id":"e2f8d83f43400a4c6e676a8452452b2dd812c9a3a7c414de1815895be2de4d8a","id":60684555,"location_subtype":"","month":"2017-10"},{"category":"theft-from-the-person","location_type":"Force","location":{"latitude":"51.577473","street":{"id":976466,"name":"On or near Shopping Area"},"longitude":"0.182166"},"context":"","outcome_status":{"category":"Status update unavailable","date":"2018-02"},