[{"category":"anti-social-behaviour","location_type":"Force","location":{"latitude":"51.467706","street":{"id":946531,"name":"On or near St Catherine's Drive"},"longitude":"-0.045137"},"context":"","outcome_status":null,"persistent_id":"","id":60658845,"location_subtype":"","month":"2017-10"},{"category":"anti-social-behaviour","location_type":"Force","location":{"latitude":"51.467732","street":{"id":946538,"name":"On or near Kitto Road"},"longitude":"-0.046734"},"context":"","outcome_status":null,"persistent_id":"","id":60659127,"location_subtype":"","month":"2017-10"},{"category":"anti-social-behaviour","location_type":"Force","location":{"latitude":"51.473813","street":{"id":946410,"name":"On or near Queen's Road"},"longitude":"-0.049556"},"context":"","outcome_status":null,"persistent_id":"","id":60659135,"location_subtype":"","month":"2017-10"},{"category":"anti-social-behaviour","location_type":"Force","location":{"latitude":"51.473813","street":{"id":946410,"name":"On or near Queen's Road"},"longitude":"-0.049556"},"context":"","outcome_status":null,"persistent_id":"","id":60659136,"location_subtype":"","month":"2017-10"},{"category":"anti-social-behaviour","location_type":"Force","location":{"latitude":"51.468650","street":{"id":946445,"name":"On or near Bousfield Road"},"longitude":"-0.048898"},"context":"","outcome_status":null,"persistent_id":"","id":60659141,"location_subtype":"","month":"2017-10"},{"category":"anti-social-behaviour","location_type":"Force","location":{"latitude":"51.468650","street":{"id":946445,"name":"On or near Bousfield Road"},"longitude":"-0.048898"},"context":"","outcome_status":null,"persistent_id":"","id":60659142,"location_subtype":"","month":"2017-10"},{"category":"anti-social-behaviour","location_type":"Force","location":{"latitude":"51.468650","street":{"id":946445,"name":"On or near Bousfield Road"},"longitude":"-0.048898"},"context":"","outcome_status":null,"persistent_id":"","id":60659143,"location_subtype":"","month":"2017-10"},{"category":"anti-social-behaviour","location_type":"Force","location":{"latitude":"51.476086","street":{"id":946414,"name":"On or near Pankhurst Close"},"longitude":"-0.049416"},"context":"","outcome_status":null,"persistent_id":"","id":60659145,"location_subtype":"","month":"2017-10"},{"category":"anti-social-behaviour","location_type":"Force","location":{"latitude":"51.475660","street":{"id":946444,"name":"On or near Briant Street"},"longitude":"-0.049722"},"context":"","outcome_status":null,"persistent_id":"","id":60659148,"location_subtype":"","month":"2017-10"},{"category":"anti-social-behaviour","location_type":"Force","location":{"latitude":"51.475352","street":{"id":946427,"name":"On or near Kender Street"},"longitude":"-0.051218"},"context":"","outcome_status":null,"persistent_id":"","id":60659155,"location_subtype":"","month":"2017-10"},{"category":"anti-social-behaviour","location_type":"Force","location":{"latitude":"51.475352","street":{"id":946427,"name":"On or near Kender Street"},"longitude":"-0.051218"},"context":"","outcome_status":null,"persistent_id":"","id":60659156,"location_subtype":"","month":"2017-10"},{"category":"anti-social-behaviour","location_type":"Force","location":{"latitude":"51.469128","street":{"id":946665,"name":"On or near Reservoir Road"},"longitude":"-0.040915"},"context":"","outcome_status":null,"persistent_id":"","id":60658806,"location_subtype":"","month":"2017-10"},{"category":"anti-social-behaviour","location_type":"Force","location":{"latitude":"51.467305","street":{"id":946690,"name":"On or near Wallbutton Road"},"longitude":"-0.041080"},"context":"","outcome_status":null,"persistent_id":"","id":60658807,"location_subtype":"","month":"2017-10"},{"category":"anti-social-behaviour","location_type":"Force","location":{"latitude":"51.457252","street":{"id":941980,"name":"On or near Rocastle Road"},"longitude":"-0.042719"},"context":"","outcome_status":null,"persistent_id":"","id":60658813,"location_subtype":"","month":"2017-10"},{"category":"anti-social-behaviour","location_type":"Force","location":{"latitude":"51.460330","street":{"id":941978,"name":"On or near St Norbert Road"},"longitude":"-0.041825"},"context":"","outcome_status":null,"persistent_id":"","id":60658815,"location_subtype":"","month":"2017-10"},{"category":"anti-social-behaviour","location_type":"Force","location":{"latitude":"51.463565","street":{"id":941992,"name":"On or near Dundalk Road"},"longitude":"-0.042751"},"context":"","outcome_status":null,"persistent_id":"","id":60658822,"location_subtype":"","month":"2017-10"},{"category":"anti-social-behaviour","location_type":"Force","location":{"latitude":"51.471574","street":{"id":946666,"name":"On or near Ommaney Road"},"longitude":"-0.042553"},"context":"","outcome_status":null,"persistent_id":"","id":60658830,"location_subtype":"","month":"2017-10"},{"category":"anti-social-behaviour","location_type":"Force","location":{"latitude":"51.463809","street":{"id":942153,"name":"On or near Avignon Road"},"longitude":"-0.043878"},"context":"","outcome_status":null,"persistent_id":"","id":60658831,"location_subtype":"","month":"2017-10"},{"category":"anti-social-behaviour","location_type":"Force","location":{"latitude":"51.473565","street":{"id":946450,"name":"On or near Bus\/coach Station"},"longitude":"-0.044339"},"context":"","outcome_status":null,"persistent_id":"","id":60658833,"location_subtype":"","month":"2017-10"},{"category":"anti-social-behaviour","location_type":"Force","location":{"latitude":"51.473565","street":{"id":946450,"name":"On or near Bus\/coach Station"},"longitude":"-0.044339"},"context":"","outcome_status":null,"persistent_id":"","id":60658834,"location_subtype":"","month":"2017-10"},{"category":"anti-social-behaviour","location_type":"Force","location":{"latitude":"51.473565","street":{"id":946450,"name":"On or near Bus\/coach Station"},"longitude":"-0.044339"},"context":"","outcome_status":null,"persistent_id":"","id":60658835,"location_subtype":"","month":"2017-10"},{"category":"anti-social-behaviour","location_type":"Force","location":{"latitude":"51.473565","street":{"id":946450,"name":"On or near Bus\/coach Station"},"longitude":"-0.044339"},"context":"","outcome_status":null,"persistent_id":"","id":60658836,"location_subtype":"","month":"2017-10"},{"category":"anti-social-behaviour","location_type":"Force","location":{"latitude":"51.473565","street":{"id":946450,"name":"On or near Bus\/coach Station"},"longitude":"-0.044339"},"context":"","outcome_status":null,"persistent_id":"","id":60658837,"location_subtype":"","month":"2017-10"},{"category":"anti-social-behaviour","location_type":"Force","location":{"latitude":"51.473565","street":{"id":946450,"name":"On or near Bus\/coach Station"},"longitude":"-0.044339"},"context":"","outcome_status":null,"persistent_id":"","id":60658838,"location_subtype":"","month":"2017-10"},{"category":"anti-social-behaviour","location_type":"Force","location":{"latitude":"51.460378","street":{"id":942151,"name":"On or near Billingford Close"},"longitude":"-0.044155"},"context":"","outcome_status":null,"persistent_id":"","id":60658839,"location_subtype":"","month":"2017-10"},{"category":"anti-social-behaviour","location_type":"Force","location":{"latitude":"51.460773","street":{"id":941995,"name":"On or near Brockill Crescent"},"longitude":"-0.041950"},"context":"","outcome_status":null,"persistent_id":"","id":60658811,"location_subtype":"","month":"2017-10"},{"category":"anti-social-behaviour","location_type":"Force","location":{"latitude":"51.472705","street":{"id":946424,"name":"On or near Lausanne Road"},"longitude":"-0.052685"},"context":"","outcome_status":null,"persistent_id":"","id":60660969,"location_subtype":"","month":"2017-10"},{"category":"anti-social-behaviour","location_type":"Force","location":{"latitude":"51.472705","street":{"id":946424,"name":"On or near Lausanne Road"},"longitude":"-0.052685"},"context":"","outcome_status":null,"persistent_id":"","id":60660956,"location_subtype":"","month":"2017-10"},{"category":"anti-social-behaviour","location_type":"Force","location":{"latitude":"51.474821","street":{"id":946447,"name":"On or near Besson Street"},"longitude":"-0.049067"},"context":"","outcome_status":null,"persistent_id":"","id":60660936,"location_subtype":"","month":"2017-10"},{"category":"anti-social-behaviour","location_type":"Force","location":{"latitude":"51.463986","street":{"id":941984,"name":"On or near Mantle Road"},"longitude":"-0.039408"},"context":"","outcome_status":null,"persistent_id":"","id":60658782,"location_subtype":"","month":"2017-10"},{"category":"anti-social-behaviour","location_type":"Force","location":{"latitude":"51.463986","street":{"id":941984,"name":"On or near Mantle Road"},"longitude":"-0.039408"},"context":"","outcome_status":null,"persistent_id":"","id":60658783,"location_subtype":"","month":"2017-10"},{"category":"anti-social-behaviour","location_type":"Force","location":{"latitude":"51.467311","street":{"id":946691,"name":"On or near Sprules Road"},"longitude":"-0.039812"},"context":"","outcome_status":null,"persistent_id":"","id":60658796,"location_subtype":"","month":"2017-10"},{"category":"anti-social-behaviour","location_type":"Force","location":{"latitude":"51.467311","street":{"id":946691,"name":"On or near Sprules Road"},"longitude":"-0.039812"},"context":"","outcome_status":null,"persistent_id":"","id":60658797,"location_subtype":"","month":"2017-10"},{"category":"anti-social-behaviour","location_type":"Force","location":{"latitude":"51.462390","street":{"id":941996,"name":"On or near Arica Road"},"longitude":"-0.040758"},"context":"","outcome_status":null,"persistent_id":"","id":60658798,"location_subtype":"","month":"2017-10"},{"category":"anti-social-behaviour","location_type":"Force","location":{"latitude":"51.470961","street":{"id":946671,"name":"On or near Jerningham Road"},"longitude":"-0.040822"},"context":"","outcome_status":null,"persistent_id":"","id":60658801,"location_subtype":"","month":"2017-10"},{"category":"bicycle-theft","location_type":"Force","location":{"latitude":"51.463809","street":{"id":942153,"name":"On or near Avignon Road"},"longitude":"-0.043878"},"context":"","outcome_status":{"category":"Status update unavailable","date":"2018-02"},"persistent_id":"cb30d8c4040900e834250dfd5c2b7d923d48e44582a4587ad48704e78a02b576","id":60707526,"location_subtype":"","month":"2017-10"},{"category":"bicycle-theft","location_type":"Force","location":{"latitude":"51.466105","street":{"id":946547,"name":"On or near Drakefell Road"},"longitude":"-0.044039"},"context":"","outcome_status":{"category":"Status update unavailable","date":"2018-02"},"persistent_id":"3deec5acfc6ee19b909027e6df751da4f12bca6a2b78c83e631cd01701f2aadc","id":60708585,"location_subtype":"","month":"2017-10"},{"category":"bicycle-theft","location_type":"Force","location":{"latitude":"51.474990","street":{"id":946416,"name":"On or near New Cross Road"},"longitude":"-0.046784"},"context":"","outcome_status":{"category":"Status update unavailable","date":"2018-02"},"persistent_id":"ee67f1417a34989b6e5f18c9d3483a0cbd0029e8aee38a7eeb486a9ac032b982","id":60700088,"location_subtype":"","month":"2017-10"},{"category":"burglary","location_type":"Force","location":{"latitude":"51.476673","street":{"id":946409,"name":"On or near Romney Close"},"longitude":"-0.051724"},"context":"","outcome_status":{"category":"Investigation complete; no suspect identified","date":"2018-01"},"persistent_id":"0cc35a7bc4696e276696ecf363f074a2d90a298eadef8b66858b0b5ec006a66c","id":60695859,"location_subtype":"","month":"2017-10"},{"category":"burglary","location_type":"Force","location":{"latitude":"51.473813","street":{"id":946410,"name":"On or near Queen's Road"},"longitude":"-0.049556"},"context":"","outcome_status":{"category":"Investigation complete; no suspect identified","date":"2017-10"},"persistent_id":"0c0d9033a1133cf6b9b60cd6d8f8344553079252f71aec041e18ef4cf0aa7495","id":60699171,"location_subtype":"","month":"2017-10"},{"category":"burglary","location_type":"Force","location":{"latitude":"51.468574","street":{"id":946430,"name":"On or near Gellatly Road"},"longitude":"-0.050298"},"context":"","outcome_status":{"category":"Investigation complete; no suspect identified","date":"2017-10"},"persistent_id":"bf1f580f4a4428a9a808c18365b01216ede21003b605c47ce336308bd3999f9e","id":60690270,"location_subtype":"","month":"2017-10"},{"category":"burglary","location_type":"Force","location":{"latitude":"51.473432","street":{"id":946663,"name":"On or near Troutbeck Road"},"longitude":"-0.042315"},"context":"","outcome_status":{"category":"Investigation complete; no suspect identified","date":"2017-11"},"persistent_id":"6a44f1d8934cfbf81ae63d79d1a985371b21c1bc4ba772920386a94b34fd5d9b","id":60692977,"location_subtype":"","month":"2017-10"},{"category":"burglary","location_type":"Force","location":{"latitude":"51.474990","street":{"id":946416,"name":"On or near New Cross Road"},"longitude":"-0.046784"},"context":"","outcome_status":{"category":"Status update unavailable","date":"2018-02"},"persistent_id":"e2756fa5ee0eb01bdb9f461d46262bab34fbecdbb8345a1b20b02c907be88a20","id":60672662,"location_subtype":"","month":"2017-10"},{"category":"burglary","location_type":"Force","location":{"latitude":"51.466989","street":{"id":946544,"name":"On or near Fern Court"},"longitude":"-0.049617"},"context":"","outcome_status":{"category":"Status update unavailable","date":"2018-02"},"persistent_id":"7e6deabdbbecd344b1c544a7981580913ba9e3c0ce54a0cbd33c5b9e88f3dafe","id":60724435,"location_subtype":"","month":"2017-10"},{"category":"burglary","location_type":"Force","location":{"latitude":"51.473813","street":{"id":946410,"name":"On or near Queen's Road"},"longitude":"-0.049556"},"context":"","outcome_status":{"category":"Status update unavailable","date":"2018-02"},"persistent_id":"346664f338f8e4e08e6e8dd5fc1f97199d55f9764676ab9484e3b26e9ab56a66","id":60695162,"location_subtype":"","month":"2017-10"},{"category":"burglary","location_type":"Force","location":{"latitude":"51.463565","street":{"id":941992,"name":"On or near Dundalk Road"},"longitude":"-0.042751"},"context":"","outcome_status":{"category":"Status update unavailable","date":"2018-02"},"persistent_id":"4dec9e0bf94e871534e1ca48faeadc01b6dc684dc616100db1a77963591b2ac7","id":60687931,"location_subtype":"","month":"2017-10"},{"category":"burglary","location_type":"Force","location":{"latitude":"51.471008","street":{"id":946438,"name":"On or near Dennett's Grove"},"longitude":"-0.050136"},"context":"","outcome_status":{"category":"Court result unavailable","date":"2018-04"},"persistent_id":"c483a12bd053f42ac75c0bee97765092dbcda173581f6b2f3125b227d9ff7d4d","id":60672349,"location_subtype":"","month":"2017-10"},{"category":"burglary","location_type":"Force","location":{"latitude":"51.470961","street":{"id":946671,"name":"On or near Jerningham Road"},"longitude":"-0.040822"},"context":"","outcome_status":{"category":"Status update unavailable","date":"2018-02"},"persistent_id":"a1e0838074e2c68fdb9bc811ecb7c32ecde22325764b565575655e23a21b8edb","id":60691856,"location_subtype":"","month":"2017-10"},{"category":"criminal-damage-arson","location_type":"Force","location":{"latitude":"51.475352","street":{"id":946427,"name":"On or near Kender Street"},"longitude":"-0.051218"},"context":"","outcome_status":{"category":"Investigation complete; no suspect identified","date":"2017-10"},"persistent_id":"89048fb5fd8fa196adedcf64c01addfa23a197a45ccb23c023a638bd4e028c28","id":60695731,"location_subtype":"","month":"2017-10"},{"category":"criminal-damage-arson","location_type":"Force","location":{"latitude":"51.474990","street":{"id":946416,"name":"On or near New Cross Road"},"longitude":"-0.046784"},"context":"","outcome_status":{"category":"Offender ordered to pay compensation","date":"2018-01"},"persistent_id":"1fc17c90a23341148c595f5c3abf7481c6c9f8c171309544d9446de89d4bf990","id":60718986,"location_subtype":"","month":"2017-10"},{"category":"criminal-damage-arson","location_type":"Force","location":{"latitude":"51.476211","street":{"id":946420,"name":"On or near Lubbock Street"},"longitude":"-0.050447"},"context":"","outcome_status":{"category":"Investigation complete; no suspect identified","date":"2017-12"},"persistent_id":"004f1e44ad617f4789c7a5832c34849aa2077772b6a1c286c0246e03297938d8","id":60736032,"location_subtype":"","month":"2017-10"},{"category":"criminal-damage-arson","location_type":"Force","location":{"latitude":"51.457572","street":{"id":941977,"name":"On or near Turnham Road"},"longitude":"-0.041971"},"context":"","outcome_status":{"category":"Investigation complete; no suspect identified","date":"2017-10"},"persistent_id":"093d16969ab05ae0c4af1b4d4c656e4f9a13c6d89f5eed248ce5d405ed6a2ae0","id":60672977,"location_subtype":"","month":"2017-10"},{"category":"criminal-damage-arson","location_type":"Force","location":{"latitude":"51.473432","street":{"id":946663,"name":"On or near Troutbeck Road"},"longitude":"-0.042315"},"context":"","outcome_status":{"category":"Investigation complete; no suspect identified","date":"2017-10"},"persistent_id":"8fff952116bc0712c96bc55029ccc87ed9c888cca4f8ad1bb6749587e7fd9e4a","id":60733030,"location_subtype":"","month":"2017-10"},{"category":"criminal-damage-arson","location_type":"Force","location":{"latitude":"51.470223","street":{"id":946413,"name":"On or near Pepys Road"},"longitude":"-0.044540"},"context":"","outcome_status":{"category":"Investigation complete; no suspect identified","date":"2017-10"},"persistent_id":"4526123b68792d78afe9a6303c05187f37ba6ec6ded2b1bf6728d7bbbbe545b8","id":60701441,"location_subtype":"","month":"2017-10"},{"category":"criminal-damage-arson","location_type":"Force","location":{"latitude":"51.476211","street":{"id":946420,"name":"On or near Lubbock Street"},"longitude":"-0.050447"},"context":"","outcome_status":{"category":"Investigation complete; no suspect identified","date":"2017-10"},"persistent_id":"c784672f0741f8cfa48b0075719d597dac2185d0bb890307350e583d2bff25b2","id":60683056,"location_subtype":"","month":"2017-10"},{"category":"criminal-damage-arson","location_type":"Force","location":{"latitude":"51.468577","street":{"id":946662,"name":"On or near Vesta Road"},"longitude":"-0.040766"},"context":"","outcome_status":{"category":"Investigation complete; no suspect identified","date":"2017-10"},"persistent_id":"6bac00ecf4174df11b3bdc09b687d82a4727b1d3708e49e33dde3a4699ba1cc2","id":60734821,"location_subtype":"","month":"2017-10"},{"category":"criminal-damage-arson","location_type":"Force","location":{"latitude":"51.473432","street":{"id":946663,"name":"On or near Troutbeck Road"},"longitude":"-0.042315"},"context":"","outcome_status":{"category":"Status update unavailable","date":"2018-02"},"persistent_id":"aa33623675b3b27716b3d38d76d821477dfef24d3cbed40503b658314d52a688","id":60734394,"location_subtype":"","month":"2017-10"},{"category":"criminal-damage-arson","location_type":"Force","location":{"latitude":"51.457572","street":{"id":941977,"name":"On or near Turnham Road"},"longitude":"-0.041971"},"context":"","outcome_status":{"category":"Status update unavailable","date":"2018-02"},"persistent_id":"3d920a655cafece1fe73974cfc9827affb9123f522f0fb67bf46f88173968a49","id":60725820,"location_subtype":"","month":"2017-10"},{"category":"criminal-damage-arson","location_type":"Force","location":{"latitude":"51.466989","street":{"id":946544,"name":"On or near Fern Court"},"longitude":"-0.049617"},"context":"","outcome_status":{"category":"Status update unavailable","date":"2018-02"},"persistent_id":"8c575397651b710df80de479bd5782c6db137e12188c2a642d64dbabdef466a2","id":60709886,"location_subtype":"","month":"2017-10"},{"category":"criminal-damage-arson","location_type":"Force","location":{"latitude":"51.475783","street":{"id":946415,"name":"On or near New Cross Road"},"longitude":"-0.047398"},"context":"","outcome_status":{"category":"Investigation complete; no suspect identified","date":"2017-11"},"persistent_id":"4c1e6f4148e209ba5820d6a85865bfc9025c58697809a82a9c728666063193fa","id":60699651,"location_subtype":"","month":"2017-10"},{"category":"criminal-damage-arson","location_type":"Force","location":{"latitude":"51.474990","street":{"id":946416,"name":"On or near New Cross Road"},"longitude":"-0.046784"},"context":"","outcome_status":{"category":"Status update unavailable","date":"2018-02"},"persistent_id":"7019f7a187376b8bd22425bf93caa215b3d646577625694b4afde4fc0a6ceb5c","id":60672938,"location_subtype":"","month":"2017-10"},{"category":"drugs","location_type":"Force","location":{"latitude":"51.475783","street":{"id":946415,"name":"On or near New Cross Road"},"longitude":"-0.047398"},"context":"","outcome_status":{"category":"Offender given a caution","date":"2017-10"},"persistent_id":"c80919e544043f84c5c1aee325386f9b2b5f243e1c575be2bbfb96fd21c25656","id":60709183,"location_subtype":"","month":"2017-10"},{"category":"drugs","location_type":"Force","location":{"latitude":"51.471064","street":{"id":946419,"name":"On or near Mona Road"},"longitude":"-0.051315"},"context":"","outcome_status":{"category":"Offender given a drugs possession warning","date":"2017-10"},"persistent_id":"81edf2b2d47314348333e6e9d60ab0e20a2bb73fd4c0f5f007e77e5bf3b90b15","id":60701719,"location_subtype":"","month":"2017-10"},{"category":"drugs","location_type":"Force","location":{"latitude":"51.466743","street":{"id":946693,"name":"On or near Pendrell Road"},"longitude":"-0.042385"},"context":"","outcome_status":{"category":"Local resolution","date":"2018-01"},"persistent_id":"bc1df75a1b44c6ce1e587e5a6345729f2383f5cad6c04472567cb601f2ab1b1e","id":60740144,"location_subtype":"","month":"2017-10"},{"category":"drugs","location_type":"Force","location":{"latitude":"51.471064","street":{"id":946419,"name":"On or near Mona Road"},"longitude":"-0.051315"},"context":"","outcome_status":{"category":"Offender given a drugs possession warning","date":"2017-10"},"persistent_id":"f8045a9d4bed21972132d294ea291b36889ae85962d1bc5c461dd56dc07a8946","id":60702105,"location_subtype":"","month":"2017-10"},{"category":"other-theft","location_type":"Force","location":{"latitude":"51.461109","street":{"id":941983,"name":"On or near Meretone Close"},"longitude":"-0.041086"},"context":"","outcome_status":{"category":"Investigation complete; no suspect identified","date":"2017-11"},"persistent_id":"12389ab09b5a905b52a29d08e8f874b0c2713a67025d9393f27fc2c97c5555b9","id":60719337,"location_subtype":"","month":"2017-10"},{"category":"other-theft","location_type":"Force","location":{"latitude":"51.475352","street":{"id":946427,"name":"On or near Kender Street"},"longitude":"-0.051218"},"context":"","outcome_status":{"category":"Status update unavailable","date":"2018-02"},"persistent_id":"f04bc5336aab94d4a90c0d6c460de21de84ab71ddf2d1e6a171417c5eb51fd87","id":60671962,"location_subtype":"","month":"2017-10"},{"category":"other-theft","location_type":"Force","location":{"latitude":"51.460330","street":{"id":941978,"name":"On or near St Norbert Road"},"longitude":"-0.041825"},"context":"","outcome_status":{"category":"Status update unavailable","date":"2018-02"},"persistent_id":"d9ae695e335de3d68eed176f3bc043d0926f481b2aab4c5347e12b8cc731cc78","id":60711979,"location_subtype":"","month":"2017-10"},{"category":"possession-of-weapons","location_type":"Force","location":{"latitude":"51.473565","street":{"id":946450,"name":"On or near Bus\/coach Station"},"longitude":"-0.044339"},"context":"","outcome_status":{"category":"Awaiting court outcome","date":"2018-03"},"persistent_id":"62ae706ab481a2f0ae8440a0e3bc0d38ef6bcd5b50a04e4c4a51ede450f441ff","id":60696963,"location_subtype":"","month":"2017-10"},{"category":"public-order","location_type":"Force","location":{"latitude":"51.475660","street":{"id":946444,"name":"On or near Briant Street"},"longitude":"-0.049722"},"context":"","outcome_status":{"category":"Investigation complete; no suspect identified","date":"2017-10"},"persistent_id":"efa4a3da594088cb4a7d4317f37bccd073da942d89873c051008d32614f6704a","id":60735478,"location_subtype":"","month":"2017-10"},{"category":"public-order","location_type":"Force","location":{"latitude":"51.474990","street":{"id":946416,"name":"On or near New Cross Road"},"longitude":"-0.046784"},"context":"","outcome_status":{"category":"Status update unavailable","date":"2018-02"},"persistent_id":"f97acdde94ed9f53664017a80532bb91170a596a50bcff7c8d99d4f1cd69ca93","id":60714942,"location_subtype":"","month":"2017-10"},{"category":"robbery","location_type":"Force","location":{"latitude":"51.467706","street":{"id":946531,"name":"On or near St Catherine's Drive"},"longitude":"-0.045137"},"context":"","outcome_status":{"category":"Status update unavailable","date":"2018-02"},"persistent_id":"abf7cb51fe598bfd781fd7a157c111ce6327c47856dae4071bddc81cdc936c35","id":60679527,"location_subtype":"","month":"2017-10"},{"category":"robbery","location_type":"Force","location":{"latitude":"51.473565","street":{"id":946450,"name":"On or near Bus\/coach Station"},"longitude":"-0.044339"},"context":"","outcome_status":{"category":"Status update unavailable","date":"2018-02"},"persistent_id":"e8af69af7f729fdc6174ebccab02e14699ed804c7cb6054eaa1fd9b6f17f4b7a","id":60695765,"location_subtype":"","month":"2017-10"},{"category":"robbery","location_type":"Force","location":{"latitude":"51.468650","street":{"id":946445,"name":"On or near Bousfield Road"},"longitude":"-0.048898"},"context":"","outcome_status":{"category":"Status update unavailable","date":"2018-02"},"persistent_id":"4142718a8012214629259730eb153994eaab010db3cfe33a684182cb6edefa63","id":60732789,"location_subtype":"","month":"2017-10"},{"category":"vehicle-crime","location_type":"Force","location":{"latitude":"51.468650","street":{"id":946445,"name":"On or near Bousfield Road"},"longitude":"-0.048898"},"context":"","outcome_status":{"category":"Status update unavailable","date":"2018-02"},"persistent_id":"69fcc180e232cf5d5c6e15329580d3f4d4fc28a6680eafcea7ff3b05a8495c39","id":60682439,"location_subtype":"","month":"2017-10"},{"category":"vehicle-crime","location_type":"Force","location":{"latitude":"51.473565","street":{"id":946450,"name":"On or near Bus\/coach Station"},"longitude":"-0.044339"},"context":"","outcome_status":{"category":"Court case unable to proceed","date":"2017-11"},"persistent_id":"e1d215a902501359aacb1627214d450349ae5282c80b0277427feee26c791574","id":60711977,"location_subtype":"","month":"2017-10"},{"category":"vehicle-crime","location_type":"Force","location":{"latitude":"51.476086","street":{"id":946414,"name":"On or near Pankhurst Close"},"longitude":"-0.049416"},"context":"","outcome_status":{"category":"Status update unavailable","date":"2018-02"},"persistent_id":"1eab4450c72ecd8e2342e49a083b8764ebbefbc5b1aea67f51b7de9de16790bd","id":60676303,"location_subtype":"","month":"2017-10"},{"category":"vehicle-crime","location_type":"Force","location":{"latitude":"51.470312","street":{"id":946448,"name":"On or near Arbuthnot Road"},"longitude":"-0.046134"},"context":"","outcome_status":{"category":"Status update unavailable","date":"2018-02"},"persistent_id":"de3af2fdc815308f16a13f8eb9d7d506c22ee198af9b6671acee040599bf25a2","id":60716864,"location_subtype":"","month":"2017-10"},{"category":"vehicle-crime","location_type":"Force","location":{"latitude":"51.464324","street":{"id":942156,"name":"On or near Aspinall Road"},"longitude":"-0.045094"},"context":"","outcome_status":{"category":"Status update unavailable","date":"2018-02"},"persistent_id":"832b9dcae998df8cb97514f14dff7498a60f8ca8bb495909dd9ac76fcaf6a805","id":60728120,"location_subtype":"","month":"2017-10"},{"category":"vehicle-crime","location_type":"Force","location":{"latitude":"51.472397","street":{"id":946668,"name":"On or near Musgrove Road"},"longitude":"-0.042805"},"context":"","outcome_status":{"category":"Investigation complete; no suspect identified","date":"2018-03"},"persistent_id":"bbec6fd92660e6beaeb8531fa3641c60846b383f942459ecc0234304481128f6","id":60681995,"location_subtype":"","month":"2017-10"},{"category":"vehicle-crime","location_type":"Force","location":{"latitude":"51.463809","street":{"id":942153,"name":"On or near Avignon Road"},"longitude":"-0.043878"},"context":"","outcome_status":{"category":"Status update unavailable","date":"2018-02"},"persistent_id":"fd79b1d1dc664628b1d53cc7c568d7d2d74fb92dc8a96049f0ecd73eed47b44f","id":60696470,"location_subtype":"","month":"2017-10"},{"category":"vehicle-crime","location_type":"Force","location":{"latitude":"51.476211","street":{"id":946420,"name":"On or near Lubbock Street"},"longitude":"-0.050447"},"context":"","outcome_status":{"category":"Status update unavailable","date":"2018-02"},"persistent_id":"cc04a8aad5a87fffb65da79f4952030fb2c80ea0fc3fe86f45e5ed85fbc622fb","id":60706200,"location_subtype":"","month":"2017-10"},{"category":"vehicle-crime","location_type":"Force","location":{"latitude":"51.472826","street":{"id":946398,"name":"On or near Swallow Close"},"longitude":"-0.050232"},"context":"","outcome_status":{"category":"Investigation complete; no suspect identified","date":"2017-10"},"persistent_id":"ec0db69c4abcd8d6c87132115aaa7fcc59d3a5b985ae0e35eceb45c6820b546c","id":60707441,"location_subtype":"","month":"2017-10"},{"category":"vehicle-crime","location_type":"Force","location":{"latitude":"51.471064","street":{"id":946419,"name":"On or near Mona Road"},"longitude":"-0.051315"},"context":"","outcome_status":{"category":"Status update unavailable","date":"2018-02"},"persistent_id":"62ab4fc6be62b99085b46d704fbbb44fd189fc83782287c2d25da93899720ca8","id":60674286,"location_subtype":"","month":"2017-10"},{"category":"vehicle-crime","location_type":"Force","location":{"latitude":"51.475783","street":{"id":946415,"name":"On or near New Cross Road"},"longitude":"-0.047398"},"context":"","outcome_status":{"category":"Status update unavailable","date":"2018-02"},"persistent_id":"3b0fd7a7b034a6899b4d08610ced13ac5a07c68ccb2977cce6cf8507f047f477","id":60680268,"location_subtype":"","month":"2017-10"},{"category":"vehicle-crime","location_type":"Force","location":{"latitude":"51.476211","street":{"id":946420,"name":"On or near Lubbock Street"},"longitude":"-0.050447"},"context":"","outcome_status":{"category":"Status update unavailable","date":"2018-02"},"persistent_id":"2fe87af25c9b925532542fd713b2b7fd5808f2deb4e05d55748598bbee284e5b","id":60706349,"location_subtype":"","month":"2017-10"},{"category":"vehicle-crime","location_type":"Force","location":{"latitude":"51.475660","street":{"id":946444,"name":"On or near Briant Street"},"longitude":"-0.049722"},"context":"","outcome_status":{"category":"Status update unavailable","date":"2018-02"},"persistent_id":"ad79efdfbe23e82493c78cd00444ab6d325ef3c7e5ae6fb28a80742084e906e5","id":60693175,"location_subtype":"","month":"2017-10"},{"category":"vehicle-crime","location_type":"Force","location":{"latitude":"51.474990","street":{"id":946416,"name":"On or near New Cross Road"},"longitude":"-0.046784"},"context":"","outcome_status":{"category":"Status update unavailable","date":"2018-02"},"persistent_id":"3d37566f4ea28858d44ac8862e5906c57a8deb1f65ddfe0a128f73e66592a11e","id":60679986,"location_subtype":"","month":"2017-10"},{"category":"violent-crime","location_type":"Force","location":{"latitude":"51.475352","street":{"id":946427,"name":"On or near Kender Street"},"longitude":"-0.051218"},"context":"","outcome_status":{"category":"Investigation complete; no suspect identified","date":"2017-10"},"persistent_id":"c71bd3424e8c16d74954a6266ff9e15f5bc9e649e1bb7e0d20a14deeae360f22","id":60690269,"location_subtype":"","month":"2017-10"},{"category":"violent-crime","location_type":"Force","location":{"latitude":"51.475352","street":{"id":946427,"name":"On or near Kender Street"},"longitude":"-0.051218"},"context":"","outcome_status":{"category":"Status update unavailable","date":"2018-02"},"persistent_id":"6b124972621de203e6554ef9bb0755c4753b5c69b459d5af096e73141486c746","id":60685707,"location_subtype":"","month":"2017-10"},{"category":"violent-crime","location_type":"Force","location":{"latitude":"51.466743","street":{"id":946693,"name":"On or near Pendrell Road"},"longitude":"-0.042385"},"context":"","outcome_status":{"category":"Offender given a caution","date":"2017-10"},"persistent_id":"b2d992983920fc1e0fd8df7834aeaf116902366bee506535838df8e601994d16","id":60685702,"location_subtype":"","month":"2017-10"},{"category":"violent-crime","location_type":"Force","location":{"latitude":"51.463809","street":{"id":942153,"name":"On or near Avignon Road"},"longitude":"-0.043878"},"context":"","outcome_status":{"category":"Defendant found not guilty","date":"2018-04"},"persistent_id":"bec6c563abbc5b8308f8f5dd56a4faf38e2ae0741094e95435359e745df859a9","id":60721240,"location_subtype":"","month":"2017-10"},{"category":"violent-crime","location_type":"Force","location":{"latitude":"51.476673","street":{"id":946409,"name":"On or near Romney Close"},"longitude":"-0.051724"},"context":"","outcome_status":{"category":"Status update unavailable","date":"2018-02"},"persistent_id":"90cc13195ccd45f1b2ab7c1447897d946acbb618de0b53b0a32385c7ee4af8a4","id":60721511,"location_subtype":"","month":"2017-10"},{"category":"violent-crime","location_type":"Force","location":{"latitude":"51.473565","street":{"id":946450,"name":"On or near Bus\/coach Station"},"longitude":"-0.044339"},"context":"","outcome_status":{"category":"Investigation complete; no suspect identified","date":"2017-11"},"persistent_id":"0683879833ccd0f19ef8f851816076fd0185b5a4eb407e63fb0976ad04a762b5","id":60682378,"location_subtype":"","month":"2017-10"},{"category":"violent-crime","location_type":"Force","location":{"latitude":"51.463986","street":{"id":941984,"name":"On or near Mantle Road"},"longitude":"-0.039408"},"context":"","outcome_status":{"category":"Investigation complete; no suspect identified","date":"2017-11"},"persistent_id":"9c48b51d3facb5db4b5b494a55b2395f41fa8635bf0f32d57ee8b2c35a094de7","id":60726142,"location_subtype":"","month":"2017-10"},{"category":"violent-crime","location_type":"Force","location":{"latitude":"51.464721","street":{"id":946532,"name":"On or near St Asaph Road"},"longitude":"-0.044084"},"context":"","outcome_status":{"category":"Defendant found not guilty","date":"2018-03"},"persistent_id":"9514fef76c85009a3a8ea809f2707b189828c28626f2b2c53b4d3c1f97d2c36b","id":60689278,"location_subtype":"","month":"2017-10"},{"category":"violent-crime","location_type":"Force","location":{"latitude":"51.475352","street":{"id":946427,"name":"On or near Kender Street"},"longitude":"-0.051218"},"context":"","outcome_status":{"category":"Investigation complete; no suspect identified","date":"2017-11"},"persistent_id":"3700f24a217f8d8fe4cc190c335c128c8685351662da5c2fbbdcebca2256501d","id":60680580,"location_subtype":"","month":"2017-10"},{"category":"violent-crime","location_type":"Force","location":{"latitude":"51.466059","street":{"id":946549,"name":"On or near Bonita Mews"},"longitude":"-0.048850"},"context":"","outcome_status":{"category":"Status update unavailable","date":"2018-02"},"persistent_id":"037c13786245caa0fc94013c32d8d10480eda8337301350f54452bc517fa199d","id":60734397,"location_subtype":"","month":"2017-10"},{"category":"violent-crime","location_type":"Force","location":{"latitude":"51.466059","street":{"id":946549,"name":"On or near Bonita Mews"},"longitude":"-0.048850"},"context":"","outcome_status":{"category":"Offender given a caution","date":"2017-10"},"persistent_id":"037c13786245caa0fc94013c32d8d10480eda8337301350f54452bc517fa199d","id":60734398,"location_subtype":"","month":"2017-10"},{"category":"violent-crime","location_type":"Force","location":{"latitude":"51.463986","street":{"id":941984,"name":"On or near Mantle Road"},"longitude":"-0.039408"},"context":"","outcome_status":{"category":"Investigation complete; no suspect identified","date":"2017-11"},"persistent_id":"5715b744d84f51af27decaa5ee4399933a8185df93c0e1ad8641428a9ba12b2a","id":60739862,"location_subtype":"","month":"2017-10"},{"category":"violent-crime","location_type":"Force","location":{"latitude":"51.473565","street":{"id":946450,"name":"On or near Bus\/coach Station"},"longitude":"-0.044339"},"context":"","outcome_status":{"category":"Local resolution","date":"2017-10"},"persistent_id":"07be85ece3d8f37b765a1e4ff2c058b3819c26f8b9c63b92353f5653838a4b75","id":60740646,"location_subtype":"","month":"2017-10"},{"category":"violent-crime","location_type":"Force","location":{"latitude":"51.472705","street":{"id":946424,"name":"On or near Lausanne Road"},"longitude":"-0.052685"},"context":"","outcome_status":{"category":"Status update unavailable","date":"2018-02"},"persistent_id":"2764a0305e9e782312885911a571c113bb90bdaaef4631319b14c10508b71a9e","id":60679005,"location_subtype":"","month":"2017-10"},{"category":"violent-crime","location_type":"Force","location":{"latitude":"51.473565","street":{"id":946450,"name":"On or near Bus\/coach Station"},"longitude":"-0.044339"},"context":"","outcome_status":{"category":"Investigation complete; no suspect identified","date":"2017-10"},"persistent_id":"48415f06009fee463a5f1047855899baae557caff30c2452939f5d64fa112e38","id":60696160,"location_subtype":"","month":"2017-10"},{"category":"violent-crime","location_type":"Force","location":{"latitude":"51.469128","street":{"id":946665,"name":"On or near Reservoir Road"},"longitude":"-0.040915"},"context":"","outcome_status":{"category":"Investigation complete; no suspect identified","date":"2018-01"},"persistent_id":"d35b03ff01206301188f40aa5edfa6cb03701bdd3b2fe7a2f17c0499692dde4d","id":60725012,"location_subtype":"","month":"2017-10"},{"category":"violent-crime","location_type":"Force","location":{"latitude":"51.461109","street":{"id":941983,"name":"On or near Meretone Close"},"longitude":"-0.041086"},"context":"","outcome_status":{"category":"Status update unavailable","date":"2018-02"},"persistent_id":"bc5fbbbc41a44d5f9d4d32fc509d7f766d4266ceea82e0ed8f7f220f4ff48ac9","id":60735578,"location_subtype":"","month":"2017-10"},{"category":"violent-crime","location_type":"Force","location":{"latitude":"51.469646","street":{"id":946664,"name":"On or near Sandbourne Road"},"longitude":"-0.040144"},"context":"","outcome_status":{"category":"Investigation complete; no suspect identified","date":"2017-10"},"persistent_id":"a45315743e2728ed71010ce45b6a0d85c5d6a218bcaf6aabdc80a52df92ba384","id":60735525,"location_subtype":"","month":"2017-10"},{"category":"violent-crime","location_type":"Force","location":{"latitude":"51.473565","street":{"id":946450,"name":"On or near Bus\/coach Station"},"longitude":"-0.044339"},"context":"","outcome_status":{"category":"Investigation complete; no suspect identified","date":"2017-10"},"persistent_id":"def7081236b7df7ab8c948038bef25b6e163d6a871f84225888c3bed2bc55f2a","id":60671346,"location_subtype":"","month":"2017-10"},{"category":"violent-crime","location_type":"Force","location":{"latitude":"51.462708","street":{"id":941981,"name":"On or near Revelon Road"},"longitude":"-0.041507"},"context":"","outcome_status":{"category":"Status update unavailable","date":"2018-02"},"persistent_id":"9889c042d9f8fbf382280f7b1934bc72eefcac9de0ecff716a36a6c9bce9b4fc","id":60709617,"location_subtype":"","month":"2017-10"},{"category":"violent-crime","location_type":"Force","location":{"latitude":"51.475783","street":{"id":946415,"name":"On or near New Cross Road"},"longitude":"-0.047398"},"context":"","outcome_status":{"category":"Status update unavailable","date":"2018-02"},"persistent_id":"b412cb91adabd4ddf7821ae46c000745ecc29097ebc518074197e8ce030035d0","id":60692617,"location_subtype":"","month":"2017-10"},{"category":"violent-crime","location_type":"Force","location":{"latitude":"51.457897","street":{"id":942157,"name":"On or near Aldersford Close"},"longitude":"-0.044750"},"context":"","outcome_status":{"category":"Investigation complete; no suspect identified","date":"2017-11"},"persistent_id":"de5289928e511e50d1c811dcc7351a04ca3306b36d9371ea3886d02b36a2d071","id":60694076,"location_subtype":"","month":"2017-10"},{"category":"violent-crime","location_type":"Force","location":{"latitude":"51.476211","street":{"id":946420,"name":"On or near Lubbock Street"},"longitude":"-0.050447"},"context":"","outcome_status":{"category":"Investigation complete; no suspect identified","date":"2017-11"},"persistent_id":"c697a80b320980e4aa789fa9757a9e34bb3906ee0ebea0dd3aa1170e772273eb","id":60719451,"location_subtype":"","month":"2017-10"},{"category":"violent-crime","location_type":"Force","location":{"latitude":"51.461539","street":{"id":941985,"name":"On or near Mallory Close"},"longitude":"-0.040420"},"context":"","outcome_status":{"category":"Investigation complete; no suspect identified","date":"2017-10"},"persistent_id":"5219762feffe0e4d030dbeeb1b3addc069481eb3db29ba2151d6caa7418a82fc","id":60715737,"location_subtype":"","month":"2017-10"},{"category":"violent-crime","location_type":"Force","location":{"latitude":"51.466743","street":{"id":946693,"name":"On or near Pendrell Road"},"longitude":"-0.042385"},"context":"","outcome_status":{"category":"Status update unavailable","date":"2018-02"},"persistent_id":"70413d2ebe605472559505bc6c506d679249687034e44a4f4bc9de0e57f2f86d","id":60675628,"location_subtype":"","month":"2017-10"},{"category":"violent-crime","location_type":"Force","location":{"latitude":"51.475783","street":{"id":946415,"name":"On or near New Cross Road"},"longitude":"-0.047398"},"context":"","outcome_status":{"category":"Investigation complete; no suspect identified","date":"2017-10"},"persistent_id":"54e70e40cc6cc1d0429deb443a35ca4d01a3eb1d0e3e5e7db0e1de700795b55f","id":60675127,"location_subtype":"","month":"2017-10"},{"category":"violent-crime","location_type":"Force","location":{"latitude":"51.467167","street":{"id":946541,"name":"On or near Hathway Street"},"longitude":"-0.050617"},"context":"","outcome_status":{"category":"Investigation complete; no suspect identified","date":"2018-05"},"persistent_id":"49945bef601eff43135691ec0a67e56c4f1dcd1039c8b9ff31c020507b8c29f6","id":60672227,"location_subtype":"","month":"2017-10"},{"category":"violent-crime","location_type":"Force","location":{"latitude":"51.471574","street":{"id":946666,"name":"On or near Ommaney Road"},"longitude":"-0.042553"},"context":"","outcome_status":{"category":"Status update unavailable","date":"2018-02"},"persistent_id":"31ede9ace4af2f344202f77ed3bf94d60da75d51590605155591446b0a9711bf","id":60671853,"location_subtype":"","month":"2017-10"},{"category":"violent-crime","location_type":"Force","location":{"latitude":"51.474990","street":{"id":946416,"name":"On or near New Cross Road"},"longitude":"-0.046784"},"context":"","outcome_status":{"category":"Status update unavailable","date":"2018-02"},"persistent_id":"6fb533a206285ca3aee0277360d7b22b70aee96946179c0ff3a9d241fd7bc3b0","id":60701136,"location_subtype":"","month":"2017-10"},{"category":"violent-crime","location_type":"Force","location":{"latitude":"51.457897","street":{"id":942157,"name":"On or near Aldersford Close"},"longitude":"-0.044750"},"context":"","outcome_status":{"category":"Investigation complete; no suspect identified","date":"2017-11"},"persistent_id":"2e1675f375708c775c98cf4e73c547b5d100f7b0326726723b27e09f39417a82","id":60671225,"location_subtype":"","month":"2017-10"},{"category":"violent-crime","location_type":"Force","location":{"latitude":"51.474821","street":{"id":946447,"name":"On or near Besson Street"},"longitude":"-0.049067"},"context":"","outcome_status":{"category":"Investigation complete; no suspect identified","date":"2017-11"},"persistent_id":"0e7612aafc1e7ff68f18ca05843b39bb917cd62a917b9ad399fbe888de556790","id":60702656,"location_subtype":"","month":"2017-10"},{"category":"violent-crime","location_type":"Force","location":{"latitude":"51.469646","street":{"id":946664,"name":"On or near Sandbourne Road"},"longitude":"-0.040144"},"context":"","outcome_status":{"category":"Investigation complete; no suspect identified","date":"2018-02"},"persistent_id":"4ddce7c44647de63c56f23e4fc61c59dbdcc983e50935f80fdd6e22c5aa01f30","id":60705883,"location_subtype":"","month":"2017-10"},{"category":"violent-crime","location_type":"Force","location":{"latitude":"51.463986","street":{"id":941984,"name":"On or near Mantle Road"},"longitude":"-0.039408"},"context":"","outcome_status":{"category":"Investigation complete; no suspect identified","date":"2017-11"},"persistent_id":"060bb9d1e99ec078ed9868a24dcb21db37b12ae6f1522d451872fc2c1e6e63fb","id":60692420,"location_subtype":"","month":"2017-10"},{"category":"violent-crime","location_type":"Force","location":{"latitude":"51.475783","street":{"id":946415,"name":"On or near New Cross Road"},"longitude":"-0.047398"},"context":"","outcome_status":{"category":"Status update unavailable","date":"2018-02"},"persistent_id":"de77664a04747be383cc959e7fb998321a99e0f58dda9b96a21f5e7ba68f9851","id":60692244,"location_subtype":"","month":"2017-10"},{"category":"violent-crime","location_type":"Force","location":{"latitude":"51.470223","street":{"id":946413,"name":"On or near Pepys Road"},"longitude":"-0.044540"},"context":"","outcome_status":{"category":"Investigation complete; no suspect identified","date":"2017-10"},"persistent_id":"a44cd0f91c6114d32bc436d9c000aa6e5cb65797d115a1ac6c7bcac350d0f768","id":60692201,"location_subtype":"","month":"2017-10"},{"category":"violent-crime","location_type":"Force","location":{"latitude":"51.473432","street":{"id":946663,"name":"On or near Troutbeck Road"},"longitude":"-0.042315"},"context":"","outcome_status":{"category":"Status update unavailable","date":"2018-02"},"persistent_id":"50087eee9d413dee511b70e811104bc308663afad9c7e326f4c5fc896f21bdf4","id":60694210,"location_subtype":"","month":"2017-10"},{"category":"other-crime","location_type":"Force","location":{"latitude":"51.457252","street":{"id":941980,"name":"On or near Rocastle Road"},"longitude":"-0.042719"},"context":"","outcome_status":{"category":"Investigation complete; no suspect identified","date":"2017-10"},"persistent_id":"a673d25feabb76797a0c4ba57ba4ab4192ed62d53a7f4ef609bcce6f994e8c09","id":60710745,"location_subtype":"","month":"2017-10"}]