[{"category":"anti-social-behaviour","location_type":"Force","location":{"latitude":"51.431620","street":{"id":938328,"name":"On or near Bishops Grove"},"longitude":"-0.375705"},"context":"","outcome_status":null,"persistent_id":"","id":60660352,"location_subtype":"","month":"2017-10"},{"category":"anti-social-behaviour","location_type":"Force","location":{"latitude":"51.430071","street":{"id":938326,"name":"On or near Buckingham Close"},"longitude":"-0.379399"},"context":"","outcome_status":null,"persistent_id":"","id":60660688,"location_subtype":"","month":"2017-10"},{"category":"anti-social-behaviour","location_type":"Force","location":{"latitude":"51.426431","street":{"id":934046,"name":"On or near Supermarket"},"longitude":"-0.377615"},"context":"","outcome_status":null,"persistent_id":"","id":60660685,"location_subtype":"","month":"2017-10"},{"category":"anti-social-behaviour","location_type":"Force","location":{"latitude":"51.424980","street":{"id":933994,"name":"On or near Tulip Close"},"longitude":"-0.376702"},"context":"","outcome_status":null,"persistent_id":"","id":60660684,"location_subtype":"","month":"2017-10"},{"category":"anti-social-behaviour","location_type":"Force","location":{"latitude":"51.424947","street":{"id":934025,"name":"On or near Gladioli Close"},"longitude":"-0.374330"},"context":"","outcome_status":null,"persistent_id":"","id":60660347,"location_subtype":"","month":"2017-10"},{"category":"anti-social-behaviour","location_type":"Force","location":{"latitude":"51.427960","street":{"id":934018,"name":"On or near Hollybank Close"},"longitude":"-0.373720"},"context":"","outcome_status":null,"persistent_id":"","id":60660345,"location_subtype":"","month":"2017-10"},{"category":"anti-social-behaviour","location_type":"Force","location":{"latitude":"51.427960","street":{"id":934018,"name":"On or near Hollybank Close"},"longitude":"-0.373720"},"context":"","outcome_status":null,"persistent_id":"","id":60660344,"location_subtype":"","month":"2017-10"},{"category":"anti-social-behaviour","location_type":"Force","location":{"latitude":"51.428235","street":{"id":933941,"name":"On or near Fulmer Close"},"longitude":"-0.383866"},"context":"","outcome_status":null,"persistent_id":"","id":60660691,"location_subtype":"","month":"2017-10"},{"category":"anti-social-behaviour","location_type":"Force","location":{"latitude":"51.428232","street":{"id":933965,"name":"On or near Windmill Road"},"longitude":"-0.364187"},"context":"","outcome_status":null,"persistent_id":"","id":60660327,"location_subtype":"","month":"2017-10"},{"category":"anti-social-behaviour","location_type":"Force","location":{"latitude":"51.433769","street":{"id":938309,"name":"On or near Winifred Road"},"longitude":"-0.373701"},"context":"","outcome_status":null,"persistent_id":"","id":60660341,"location_subtype":"","month":"2017-10"},{"category":"anti-social-behaviour","location_type":"Force","location":{"latitude":"51.427054","street":{"id":933933,"name":"On or near Shore Close"},"longitude":"-0.384929"},"context":"","outcome_status":null,"persistent_id":"","id":60660692,"location_subtype":"","month":"2017-10"},{"category":"anti-social-behaviour","location_type":"Force","location":{"latitude":"51.422996","street":{"id":934002,"name":"On or near South Road"},"longitude":"-0.382828"},"context":"","outcome_status":null,"persistent_id":"","id":60660690,"location_subtype":"","month":"2017-10"},{"category":"anti-social-behaviour","location_type":"Force","location":{"latitude":"51.424090","street":{"id":934014,"name":"On or near Langridge Mews"},"longitude":"-0.382617"},"context":"","outcome_status":null,"persistent_id":"","id":60660689,"location_subtype":"","month":"2017-10"},{"category":"bicycle-theft","location_type":"Force","location":{"latitude":"51.433769","street":{"id":938309,"name":"On or near Winifred Road"},"longitude":"-0.373701"},"context":"","outcome_status":{"category":"Status update unavailable","date":"2018-02"},"persistent_id":"c11d7f4aa273aac94c4ae0d5db9f34cee90e8611594633a115d0758d88e43543","id":60680087,"location_subtype":"","month":"2017-10"},{"category":"bicycle-theft","location_type":"Force","location":{"latitude":"51.425754","street":{"id":933979,"name":"On or near Acacia Road"},"longitude":"-0.369656"},"context":"","outcome_status":{"category":"Status update unavailable","date":"2018-02"},"persistent_id":"236a05f6266d26e9898cbc16a9c679dcad99d9c79097cc6c61e9a333df8ca59b","id":60709566,"location_subtype":"","month":"2017-10"},{"category":"bicycle-theft","location_type":"Force","location":{"latitude":"51.432707","street":{"id":938327,"name":"On or near Browning Close"},"longitude":"-0.378860"},"context":"","outcome_status":{"category":"Status update unavailable","date":"2018-02"},"persistent_id":"65101740052bb4fe3f13247df4ddc0975ed5b86c80e1949bc7b8333b30c21cf0","id":60710451,"location_subtype":"","month":"2017-10"},{"category":"bicycle-theft","location_type":"Force","location":{"latitude":"51.428235","street":{"id":933941,"name":"On or near Fulmer Close"},"longitude":"-0.383866"},"context":"","outcome_status":{"category":"Status update unavailable","date":"2018-02"},"persistent_id":"b4fa9627e20f0609b788dc2727786168e3472cc1520fa09b1a728394a26a02f2","id":60717752,"location_subtype":"","month":"2017-10"},{"category":"burglary","location_type":"Force","location":{"latitude":"51.424086","street":{"id":934009,"name":"On or near Old Farm Road"},"longitude":"-0.376490"},"context":"","outcome_status":{"category":"Status update unavailable","date":"2018-02"},"persistent_id":"9e04e4d0f0736dd82799bddaf92279db8e360f2591cb14f499dac9cc1cc49752","id":60707720,"location_subtype":"","month":"2017-10"},{"category":"burglary","location_type":"Force","location":{"latitude":"51.423989","street":{"id":933932,"name":"On or near Sonning Gardens"},"longitude":"-0.384418"},"context":"","outcome_status":{"category":"Investigation complete; no suspect identified","date":"2018-02"},"persistent_id":"d0cc0d56d77dd5bf19f0ec46417802f3f3e3aed593451a00614a9a819ee92143","id":60676579,"location_subtype":"","month":"2017-10"},{"category":"burglary","location_type":"Force","location":{"latitude":"51.425047","street":{"id":933967,"name":"On or near Springfield Avenue"},"longitude":"-0.367983"},"context":"","outcome_status":{"category":"Status update unavailable","date":"2018-02"},"persistent_id":"3603103e411e8795f00465e0d279f1b040e5da6ce8468228cdd322192ceb0640","id":60718344,"location_subtype":"","month":"2017-10"},{"category":"burglary","location_type":"Force","location":{"latitude":"51.432291","street":{"id":938316,"name":"On or near Loxley Road"},"longitude":"-0.380011"},"context":"","outcome_status":{"category":"Status update unavailable","date":"2018-02"},"persistent_id":"25faeae0dc17913335c5f73214b04e3f5b075e4b588ecda70d83548e866f9251","id":60710286,"location_subtype":"","month":"2017-10"},{"category":"burglary","location_type":"Force","location":{"latitude":"51.428958","street":{"id":934026,"name":"On or near Garden Close"},"longitude":"-0.376331"},"context":"","outcome_status":{"category":"Status update unavailable","date":"2018-02"},"persistent_id":"7b6609b83f28e799c44cb630084a4fe7bb1eb9290f5bf364fdc751cdd3355a51","id":60730704,"location_subtype":"","month":"2017-10"},{"category":"burglary","location_type":"Force","location":{"latitude":"51.429818","street":{"id":938323,"name":"On or near Dean Road"},"longitude":"-0.374762"},"context":"","outcome_status":{"category":"Investigation complete; no suspect identified","date":"2017-11"},"persistent_id":"43083914c110ac6b0883e080e0a6c00281615d29e9607eccd0b9a220ff5f9c07","id":60681719,"location_subtype":"","month":"2017-10"},{"category":"burglary","location_type":"Force","location":{"latitude":"51.434480","street":{"id":938238,"name":"On or near Uxbridge Road"},"longitude":"-0.372452"},"context":"","outcome_status":{"category":"Investigation complete; no suspect identified","date":"2018-02"},"persistent_id":"7533621cb1d132b92d40cac4d6f4e8743389f9554f94210865c294b442304705","id":60684719,"location_subtype":"","month":"2017-10"},{"category":"burglary","location_type":"Force","location":{"latitude":"51.430071","street":{"id":938326,"name":"On or near Buckingham Close"},"longitude":"-0.379399"},"context":"","outcome_status":{"category":"Investigation complete; no suspect identified","date":"2017-11"},"persistent_id":"3c5ef51b5a7a87b356be3e7c30b524bc4fd96eb0cfa9853ed966239c1595b07e","id":60685914,"location_subtype":"","month":"2017-10"},{"category":"burglary","location_type":"Force","location":{"latitude":"51.423156","street":{"id":934032,"name":"On or near Courtlands Avenue"},"longitude":"-0.378795"},"context":"","outcome_status":{"category":"Status update unavailable","date":"2018-02"},"persistent_id":"063629b450e838aa5aa7da652d172c266d044d7b068dfde920b59937a646d06d","id":60690528,"location_subtype":"","month":"2017-10"},{"category":"burglary","location_type":"Force","location":{"latitude":"51.426843","street":{"id":934019,"name":"On or near Holles Close"},"longitude":"-0.370379"},"context":"","outcome_status":{"category":"Status update unavailable","date":"2018-02"},"persistent_id":"ddacb9f58d52ca4aad643a9670d8a86be8ff375a0c386a76470da955acb59808","id":60690741,"location_subtype":"","month":"2017-10"},{"category":"burglary","location_type":"Force","location":{"latitude":"51.431620","street":{"id":938328,"name":"On or near Bishops Grove"},"longitude":"-0.375705"},"context":"","outcome_status":{"category":"Investigation complete; no suspect identified","date":"2017-11"},"persistent_id":"602173a0066defdbdbfb24929ce62dfa39cfb284d113721f842e65eefbfd650f","id":60715268,"location_subtype":"","month":"2017-10"},{"category":"burglary","location_type":"Force","location":{"latitude":"51.433651","street":{"id":938308,"name":"On or near Wordsworth Road"},"longitude":"-0.378179"},"context":"","outcome_status":{"category":"Status update unavailable","date":"2018-02"},"persistent_id":"a9eb7c2028ef1fd1a4d97de9cc628f0e4c1d6c0698a8e8d42bf55beb61cf8fba","id":60719505,"location_subtype":"","month":"2017-10"},{"category":"burglary","location_type":"Force","location":{"latitude":"51.433332","street":{"id":938325,"name":"On or near Byron Close"},"longitude":"-0.377888"},"context":"","outcome_status":{"category":"Status update unavailable","date":"2018-02"},"persistent_id":"62d6cc2bbb439a5fe2d5c409517294709b0f7c16e3c301e1a2624123af64d6eb","id":60724627,"location_subtype":"","month":"2017-10"},{"category":"burglary","location_type":"Force","location":{"latitude":"51.431717","street":{"id":938312,"name":"On or near Rectory Grove"},"longitude":"-0.377514"},"context":"","outcome_status":{"category":"Investigation complete; no suspect identified","date":"2017-10"},"persistent_id":"e8f38ed1634c99fd897d4e634a8c5b953ea8527563ef54adb58b2a61e08e06a2","id":60718830,"location_subtype":"","month":"2017-10"},{"category":"burglary","location_type":"Force","location":{"latitude":"51.425461","street":{"id":933974,"name":"On or near Cannon Close"},"longitude":"-0.364732"},"context":"","outcome_status":{"category":"Investigation complete; no suspect identified","date":"2017-10"},"persistent_id":"c2c3bb05c814a14afaa153e836956c1d7c448ab73dace544ca1c673c9adaff3c","id":60685384,"location_subtype":"","month":"2017-10"},{"category":"burglary","location_type":"Force","location":{"latitude":"51.427722","street":{"id":934020,"name":"On or near Hawthorn Close"},"longitude":"-0.374735"},"context":"","outcome_status":{"category":"Status update unavailable","date":"2018-02"},"persistent_id":"52a5a5bd31d9bc0e12e87158d32ad488b580dac705d8219eb8fd7ce97487de92","id":60693129,"location_subtype":"","month":"2017-10"},{"category":"burglary","location_type":"Force","location":{"latitude":"51.422182","street":{"id":934106,"name":"On or near Uxbridge Road"},"longitude":"-0.360506"},"context":"","outcome_status":{"category":"Offender given community sentence","date":"2017-11"},"persistent_id":"67a33aa8a7f3dcb0c989f2d80e38c13dc9535aa9e35b087df843e57b21a4dabb","id":60706567,"location_subtype":"","month":"2017-10"},{"category":"criminal-damage-arson","location_type":"Force","location":{"latitude":"51.433492","street":{"id":938319,"name":"On or near Graham Road"},"longitude":"-0.374487"},"context":"","outcome_status":{"category":"Status update unavailable","date":"2018-02"},"persistent_id":"c3d6ba09bb91f13c1db9f003626cd6c514c2dd1f77a0b78b79372079cd0dfc76","id":60695512,"location_subtype":"","month":"2017-10"},{"category":"criminal-damage-arson","location_type":"Force","location":{"latitude":"51.429738","street":{"id":938301,"name":"On or near Grenville Mews"},"longitude":"-0.365774"},"context":"","outcome_status":{"category":"Investigation complete; no suspect identified","date":"2018-01"},"persistent_id":"a54fc4f48e67e32125c929bec6f5120915e4709b08abad3ed8844e6f197ee2f1","id":60716130,"location_subtype":"","month":"2017-10"},{"category":"criminal-damage-arson","location_type":"Force","location":{"latitude":"51.428958","street":{"id":934026,"name":"On or near Garden Close"},"longitude":"-0.376331"},"context":"","outcome_status":{"category":"Status update unavailable","date":"2018-02"},"persistent_id":"37fd6fd922a95ec10dc7c44335cefb1065f46ac8460190353c73095938360590","id":60724140,"location_subtype":"","month":"2017-10"},{"category":"criminal-damage-arson","location_type":"Force","location":{"latitude":"51.427722","street":{"id":934020,"name":"On or near Hawthorn Close"},"longitude":"-0.374735"},"context":"","outcome_status":{"category":"Investigation complete; no suspect identified","date":"2018-01"},"persistent_id":"7cdaea8d3693bc1ed9d80968281761dc075ab0b02ab85153900d0ad8ec7c3e85","id":60722718,"location_subtype":"","month":"2017-10"},{"category":"drugs","location_type":"Force","location":{"latitude":"51.429818","street":{"id":938323,"name":"On or near Dean Road"},"longitude":"-0.374762"},"context":"","outcome_status":{"category":"Court result unavailable","date":"2018-04"},"persistent_id":"12373581636a9d7c812eaecdf62e23484592a6929204eed88a52e49c66645680","id":60708044,"location_subtype":"","month":"2017-10"},{"category":"other-theft","location_type":"Force","location":{"latitude":"51.434480","street":{"id":938238,"name":"On or near Uxbridge Road"},"longitude":"-0.372452"},"context":"","outcome_status":{"category":"Status update unavailable","date":"2018-02"},"persistent_id":"d188e08486a929aa95e9eb1b33b675c2625d52a36d4472758e3c055bdba66dae","id":60730884,"location_subtype":"","month":"2017-10"},{"category":"other-theft","location_type":"Force","location":{"latitude":"51.424980","street":{"id":933994,"name":"On or near Tulip Close"},"longitude":"-0.376702"},"context":"","outcome_status":{"category":"Court result unavailable","date":"2018-04"},"persistent_id":"f196177e46d6e91d044b4f415961c005b56f0235eafaa16badb426ea186e9bb6","id":60711071,"location_subtype":"","month":"2017-10"},{"category":"other-theft","location_type":"Force","location":{"latitude":"51.425864","street":{"id":933937,"name":"On or near Houghton Close"},"longitude":"-0.385388"},"context":"","outcome_status":{"category":"Status update unavailable","date":"2018-02"},"persistent_id":"83d031d907c52821b7fce8172110ede5e237a8c502082799682386892694255d","id":60713098,"location_subtype":"","month":"2017-10"},{"category":"other-theft","location_type":"Force","location":{"latitude":"51.424004","street":{"id":933971,"name":"On or near Kingswood Avenue"},"longitude":"-0.366668"},"context":"","outcome_status":{"category":"Investigation complete; no suspect identified","date":"2017-11"},"persistent_id":"bc270affd261615604ea608e637168216d2989b2b705d45e03ed70ea013a9922","id":60680090,"location_subtype":"","month":"2017-10"},{"category":"other-theft","location_type":"Force","location":{"latitude":"51.424980","street":{"id":933994,"name":"On or near Tulip Close"},"longitude":"-0.376702"},"context":"","outcome_status":{"category":"Status update unavailable","date":"2018-02"},"persistent_id":"352eb85e735d93213c07dd8f7ed498f5d0fca9de3aac68bbf63e2e54c260fbc4","id":60715144,"location_subtype":"","month":"2017-10"},{"category":"possession-of-weapons","location_type":"Force","location":{"latitude":"51.426791","street":{"id":933990,"name":"On or near Parking Area"},"longitude":"-0.378264"},"context":"","outcome_status":{"category":"Offender given community sentence","date":"2017-11"},"persistent_id":"35216de326ee97a6bd3bf2c8442725b6d31525217868a2a8309b585a46094833","id":60680084,"location_subtype":"","month":"2017-10"},{"category":"public-order","location_type":"Force","location":{"latitude":"51.425882","street":{"id":933936,"name":"On or near Oak Avenue"},"longitude":"-0.383431"},"context":"","outcome_status":{"category":"Investigation complete; no suspect identified","date":"2017-10"},"persistent_id":"969a8e5efbdf317aa29be767f8677095326ae1faf62c9a613ebb94d4b7f72ae3","id":60678031,"location_subtype":"","month":"2017-10"},{"category":"public-order","location_type":"Force","location":{"latitude":"51.428538","street":{"id":934039,"name":"On or near Buckingham Road"},"longitude":"-0.377799"},"context":"","outcome_status":{"category":"Status update unavailable","date":"2018-02"},"persistent_id":"a8ad5832f6d65413116ba16b92140c4b7e2d41c246c60ad4c489657ac9b5b21d","id":60706373,"location_subtype":"","month":"2017-10"},{"category":"public-order","location_type":"Force","location":{"latitude":"51.431620","street":{"id":938328,"name":"On or near Bishops Grove"},"longitude":"-0.375705"},"context":"","outcome_status":{"category":"Status update unavailable","date":"2018-02"},"persistent_id":"2e4810ffed18b423a8d700728e09d6d36efd8bf0d2b5ffd869d69ac84b51d447","id":60712432,"location_subtype":"","month":"2017-10"},{"category":"public-order","location_type":"Force","location":{"latitude":"51.426843","street":{"id":934019,"name":"On or near Holles Close"},"longitude":"-0.370379"},"context":"","outcome_status":{"category":"Investigation complete; no suspect identified","date":"2017-12"},"persistent_id":"b6514e4aaec1073a63987d48040cd8b999353d7ba94f1a384fcc09cd9a2dffa9","id":60713597,"location_subtype":"","month":"2017-10"},{"category":"public-order","location_type":"Force","location":{"latitude":"51.429818","street":{"id":938323,"name":"On or near Dean Road"},"longitude":"-0.374762"},"context":"","outcome_status":{"category":"Investigation complete; no suspect identified","date":"2017-12"},"persistent_id":"3b0f6a6645e54efdc6736a8382e59b202a4767c84bc0b8e4b68554fd3264d0e8","id":60674352,"location_subtype":"","month":"2017-10"},{"category":"public-order","location_type":"Force","location":{"latitude":"51.427569","street":{"id":933992,"name":"On or near Warner Close"},"longitude":"-0.377977"},"context":"","outcome_status":{"category":"Status update unavailable","date":"2018-02"},"persistent_id":"4af2a4769ed43c3557637e1a8bd159b4e94cd942724f55b3197edf529b5afdec","id":60682579,"location_subtype":"","month":"2017-10"},{"category":"shoplifting","location_type":"Force","location":{"latitude":"51.434375","street":{"id":938244,"name":"On or near Supermarket"},"longitude":"-0.375276"},"context":"","outcome_status":{"category":"Investigation complete; no suspect identified","date":"2017-12"},"persistent_id":"122d413e0a3a2160730bac34326238134b105b8b5d439794d1fa3635c5f64610","id":60696093,"location_subtype":"","month":"2017-10"},{"category":"vehicle-crime","location_type":"Force","location":{"latitude":"51.425024","street":{"id":933993,"name":"On or near Walker Close"},"longitude":"-0.381232"},"context":"","outcome_status":{"category":"Status update unavailable","date":"2018-02"},"persistent_id":"6bfaa0310c50cfa497a49fe6f0ac197d2c9d84b607bcc0ba409d8a0a4277881b","id":60676367,"location_subtype":"","month":"2017-10"},{"category":"vehicle-crime","location_type":"Force","location":{"latitude":"51.433651","street":{"id":938308,"name":"On or near Wordsworth Road"},"longitude":"-0.378179"},"context":"","outcome_status":{"category":"Status update unavailable","date":"2018-02"},"persistent_id":"5889012f20eb1bd50c78aa9d4b35431d40315ab7e35a99b1b222af8645210823","id":60686926,"location_subtype":"","month":"2017-10"},{"category":"vehicle-crime","location_type":"Force","location":{"latitude":"51.427253","street":{"id":933934,"name":"On or near Robin Close"},"longitude":"-0.385684"},"context":"","outcome_status":{"category":"Status update unavailable","date":"2018-02"},"persistent_id":"7b42d10de1d01d16be53acd5fbe38423b20b55bec84e0b49d79ba3af0c38fe1e","id":60722232,"location_subtype":"","month":"2017-10"},{"category":"vehicle-crime","location_type":"Force","location":{"latitude":"51.431533","street":{"id":938313,"name":"On or near Pigeon Lane"},"longitude":"-0.371363"},"context":"","outcome_status":{"category":"Status update unavailable","date":"2018-02"},"persistent_id":"9a1df6b689a94f0fd14b6c57e6ed9692682d24a84f0cedec27892ff784ea26e5","id":60685516,"location_subtype":"","month":"2017-10"},{"category":"vehicle-crime","location_type":"Force","location":{"latitude":"51.431533","street":{"id":938313,"name":"On or near Pigeon Lane"},"longitude":"-0.371363"},"context":"","outcome_status":{"category":"Status update unavailable","date":"2018-02"},"persistent_id":"6af144e4a38e7b7f4e789b3c4897387b73866b841a58a713549674900042d60b","id":60718692,"location_subtype":"","month":"2017-10"},{"category":"violent-crime","location_type":"Force","location":{"latitude":"51.429818","street":{"id":938323,"name":"On or near Dean Road"},"longitude":"-0.374762"},"context":"","outcome_status":{"category":"Offender sent to prison","date":"2018-04"},"persistent_id":"432a4f4198cf60882979c2c537350e4cc74cb94fd466c25873823f75f212eadd","id":60720305,"location_subtype":"","month":"2017-10"},{"category":"violent-crime","location_type":"Force","location":{"latitude":"51.428235","street":{"id":933941,"name":"On or near Fulmer Close"},"longitude":"-0.383866"},"context":"","outcome_status":{"category":"Status update unavailable","date":"2018-02"},"persistent_id":"f6089f2c28be1ed2ae4fe70bddfc2619a7eaa3aab6af28f5ac966963da8d4b4a","id":60711032,"location_subtype":"","month":"2017-10"},{"category":"violent-crime","location_type":"Force","location":{"latitude":"51.431620","street":{"id":938328,"name":"On or near Bishops Grove"},"longitude":"-0.375705"},"context":"","outcome_status":{"category":"Status update unavailable","date":"2018-02"},"persistent_id":"65609865fde610b4288182bcefeaeeeff20b3c85234b0db62fe2cd9adaf8dafb","id":60680633,"location_subtype":"","month":"2017-10"},{"category":"violent-crime","location_type":"Force","location":{"latitude":"51.426074","street":{"id":933969,"name":"On or near Roy Grove"},"longitude":"-0.365516"},"context":"","outcome_status":{"category":"Investigation complete; no suspect identified","date":"2017-11"},"persistent_id":"3dd4771914757b7c61ceaf56c674b4dee337012d9fc67f457cfffb3136cfa151","id":60700622,"location_subtype":"","month":"2017-10"},{"category":"violent-crime","location_type":"Force","location":{"latitude":"51.424004","street":{"id":933971,"name":"On or near Kingswood Avenue"},"longitude":"-0.366668"},"context":"","outcome_status":{"category":"Investigation complete; no suspect identified","date":"2017-11"},"persistent_id":"b3cfdac3d6d3b007f0791424d57e0de36a7e33f6eb68fb6d4cfb66bb6874d861","id":60676836,"location_subtype":"","month":"2017-10"},{"category":"violent-crime","location_type":"Force","location":{"latitude":"51.426189","street":{"id":933947,"name":"On or near Abbott Close"},"longitude":"-0.384182"},"context":"","outcome_status":{"category":"Investigation complete; no suspect identified","date":"2017-11"},"persistent_id":"92937571d38a29df577c255f68ae54d864649c3b8d6dd75d57c13137ab145827","id":60717461,"location_subtype":"","month":"2017-10"},{"category":"other-crime","location_type":"Force","location":{"latitude":"51.433492","street":{"id":938319,"name":"On or near Graham Road"},"longitude":"-0.374487"},"context":"","outcome_status":{"category":"Court result unavailable","date":"2018-04"},"persistent_id":"bce0fd9551a793ae53d76b8f40ebd8ad2254044d17aef80b5a7a2feae88baeb5","id":60717465,"location_subtype":"","month":"2017-10"}]