[{"category":"anti-social-behaviour","location_type":"Force","location":{"latitude":"51.391926","street":{"id":930167,"name":"On or near Hillcross Avenue"},"longitude":"-0.219576"},"context":"","outcome_status":null,"persistent_id":"","id":60654023,"location_subtype":"","month":"2017-10"},{"category":"anti-social-behaviour","location_type":"Force","location":{"latitude":"51.391926","street":{"id":930167,"name":"On or near Hillcross Avenue"},"longitude":"-0.219576"},"context":"","outcome_status":null,"persistent_id":"","id":60654024,"location_subtype":"","month":"2017-10"},{"category":"anti-social-behaviour","location_type":"Force","location":{"latitude":"51.391926","street":{"id":930167,"name":"On or near Hillcross Avenue"},"longitude":"-0.219576"},"context":"","outcome_status":null,"persistent_id":"","id":60654025,"location_subtype":"","month":"2017-10"},{"category":"anti-social-behaviour","location_type":"Force","location":{"latitude":"51.390807","street":{"id":930166,"name":"On or near Lower Morden Lane"},"longitude":"-0.222868"},"context":"","outcome_status":null,"persistent_id":"","id":60655586,"location_subtype":"","month":"2017-10"},{"category":"anti-social-behaviour","location_type":"Force","location":{"latitude":"51.391364","street":{"id":930171,"name":"On or near Buttermere Close"},"longitude":"-0.224068"},"context":"","outcome_status":null,"persistent_id":"","id":60655592,"location_subtype":"","month":"2017-10"},{"category":"anti-social-behaviour","location_type":"Force","location":{"latitude":"51.392562","street":{"id":930169,"name":"On or near Coniston Close"},"longitude":"-0.224151"},"context":"","outcome_status":null,"persistent_id":"","id":60655596,"location_subtype":"","month":"2017-10"},{"category":"anti-social-behaviour","location_type":"Force","location":{"latitude":"51.390025","street":{"id":930172,"name":"On or near Allgood Close"},"longitude":"-0.224695"},"context":"","outcome_status":null,"persistent_id":"","id":60655597,"location_subtype":"","month":"2017-10"},{"category":"anti-social-behaviour","location_type":"Force","location":{"latitude":"51.392887","street":{"id":930125,"name":"On or near Derwent Road"},"longitude":"-0.224268"},"context":"","outcome_status":null,"persistent_id":"","id":60655599,"location_subtype":"","month":"2017-10"},{"category":"anti-social-behaviour","location_type":"Force","location":{"latitude":"51.392887","street":{"id":930125,"name":"On or near Derwent Road"},"longitude":"-0.224268"},"context":"","outcome_status":null,"persistent_id":"","id":60655606,"location_subtype":"","month":"2017-10"},{"category":"anti-social-behaviour","location_type":"Force","location":{"latitude":"51.392887","street":{"id":930125,"name":"On or near Derwent Road"},"longitude":"-0.224268"},"context":"","outcome_status":null,"persistent_id":"","id":60655604,"location_subtype":"","month":"2017-10"},{"category":"anti-social-behaviour","location_type":"Force","location":{"latitude":"51.392887","street":{"id":930125,"name":"On or near Derwent Road"},"longitude":"-0.224268"},"context":"","outcome_status":null,"persistent_id":"","id":60655602,"location_subtype":"","month":"2017-10"},{"category":"anti-social-behaviour","location_type":"Force","location":{"latitude":"51.392887","street":{"id":930125,"name":"On or near Derwent Road"},"longitude":"-0.224268"},"context":"","outcome_status":null,"persistent_id":"","id":60655607,"location_subtype":"","month":"2017-10"},{"category":"anti-social-behaviour","location_type":"Force","location":{"latitude":"51.392887","street":{"id":930125,"name":"On or near Derwent Road"},"longitude":"-0.224268"},"context":"","outcome_status":null,"persistent_id":"","id":60655601,"location_subtype":"","month":"2017-10"},{"category":"anti-social-behaviour","location_type":"Force","location":{"latitude":"51.392887","street":{"id":930125,"name":"On or near Derwent Road"},"longitude":"-0.224268"},"context":"","outcome_status":null,"persistent_id":"","id":60655600,"location_subtype":"","month":"2017-10"},{"category":"anti-social-behaviour","location_type":"Force","location":{"latitude":"51.392887","street":{"id":930125,"name":"On or near Derwent Road"},"longitude":"-0.224268"},"context":"","outcome_status":null,"persistent_id":"","id":60655603,"location_subtype":"","month":"2017-10"},{"category":"anti-social-behaviour","location_type":"Force","location":{"latitude":"51.392887","street":{"id":930125,"name":"On or near Derwent Road"},"longitude":"-0.224268"},"context":"","outcome_status":null,"persistent_id":"","id":60655605,"location_subtype":"","month":"2017-10"},{"category":"anti-social-behaviour","location_type":"Force","location":{"latitude":"51.386300","street":{"id":929236,"name":"On or near Tudor Drive"},"longitude":"-0.212738"},"context":"","outcome_status":null,"persistent_id":"","id":60654012,"location_subtype":"","month":"2017-10"},{"category":"anti-social-behaviour","location_type":"Force","location":{"latitude":"51.386300","street":{"id":929236,"name":"On or near Tudor Drive"},"longitude":"-0.212738"},"context":"","outcome_status":null,"persistent_id":"","id":60654013,"location_subtype":"","month":"2017-10"},{"category":"anti-social-behaviour","location_type":"Force","location":{"latitude":"51.384010","street":{"id":929253,"name":"On or near Dudley Drive"},"longitude":"-0.215299"},"context":"","outcome_status":null,"persistent_id":"","id":60654019,"location_subtype":"","month":"2017-10"},{"category":"anti-social-behaviour","location_type":"Force","location":{"latitude":"51.384010","street":{"id":929253,"name":"On or near Dudley Drive"},"longitude":"-0.215299"},"context":"","outcome_status":null,"persistent_id":"","id":60654020,"location_subtype":"","month":"2017-10"},{"category":"burglary","location_type":"Force","location":{"latitude":"51.385644","street":{"id":929378,"name":"On or near Lynmouth Avenue"},"longitude":"-0.222781"},"context":"","outcome_status":{"category":"Status update unavailable","date":"2018-02"},"persistent_id":"dee301b337f73698086c5944ae5161ac4c72f5ec5d16a7a72672fb33ee1b84dc","id":60704817,"location_subtype":"","month":"2017-10"},{"category":"burglary","location_type":"Force","location":{"latitude":"51.385644","street":{"id":929378,"name":"On or near Lynmouth Avenue"},"longitude":"-0.222781"},"context":"","outcome_status":{"category":"Offender given community sentence","date":"2017-11"},"persistent_id":"041232614ec54df2ee5ea9962b585e68ef49f1cebab97d89421d1723eb06cb6c","id":60698917,"location_subtype":"","month":"2017-10"},{"category":"burglary","location_type":"Force","location":{"latitude":"51.386300","street":{"id":929236,"name":"On or near Tudor Drive"},"longitude":"-0.212738"},"context":"","outcome_status":{"category":"Court result unavailable","date":"2018-04"},"persistent_id":"acab99114ae62705d41b168bdc359f68d4e1c2487aeb4d37382eb5c4573a939d","id":60693221,"location_subtype":"","month":"2017-10"},{"category":"burglary","location_type":"Force","location":{"latitude":"51.385297","street":{"id":929379,"name":"On or near Kingsbridge Road"},"longitude":"-0.221299"},"context":"","outcome_status":{"category":"Status update unavailable","date":"2018-02"},"persistent_id":"8df5895ad1d6cfe80efe076aa4895f5bf8db51e6dc8f17c8899b2a3e97b3d343","id":60710262,"location_subtype":"","month":"2017-10"},{"category":"burglary","location_type":"Force","location":{"latitude":"51.381972","street":{"id":929374,"name":"On or near Charminster Road"},"longitude":"-0.225007"},"context":"","outcome_status":{"category":"Status update unavailable","date":"2018-02"},"persistent_id":"be122cbc01b655055e3be9becd986bd7465f1a56a38692efae60958a32f9fdf5","id":60738966,"location_subtype":"","month":"2017-10"},{"category":"burglary","location_type":"Force","location":{"latitude":"51.380975","street":{"id":929365,"name":"On or near Trafalgar Avenue"},"longitude":"-0.220921"},"context":"","outcome_status":{"category":"Status update unavailable","date":"2018-02"},"persistent_id":"95ec0f8af9290fdfa59ec21b92551a0a1569ff6a4d4d9c2da7f8dad3b58e32d5","id":60735610,"location_subtype":"","month":"2017-10"},{"category":"burglary","location_type":"Force","location":{"latitude":"51.391364","street":{"id":930171,"name":"On or near Buttermere Close"},"longitude":"-0.224068"},"context":"","outcome_status":{"category":"Status update unavailable","date":"2018-02"},"persistent_id":"ead4aa87b52c3551ec9c9b05b61acec93a56965f68c279655b841a6b4c8fc8a8","id":60720591,"location_subtype":"","month":"2017-10"},{"category":"burglary","location_type":"Force","location":{"latitude":"51.388926","street":{"id":930231,"name":"On or near Cardinal Close"},"longitude":"-0.214504"},"context":"","outcome_status":{"category":"Status update unavailable","date":"2018-02"},"persistent_id":"10740c8d6536a8018c6bf1026c544bbd2f8229418e5ca13ee719f69082e83897","id":60681327,"location_subtype":"","month":"2017-10"},{"category":"criminal-damage-arson","location_type":"Force","location":{"latitude":"51.392565","street":{"id":930175,"name":"On or near Supermarket"},"longitude":"-0.222570"},"context":"","outcome_status":{"category":"Investigation complete; no suspect identified","date":"2017-10"},"persistent_id":"a6d41e5442d7be73a5f5b49777dd75de6f7ddf41797cca1eed7a0d78b3af3464","id":60708377,"location_subtype":"","month":"2017-10"},{"category":"criminal-damage-arson","location_type":"Force","location":{"latitude":"51.390540","street":{"id":930162,"name":"On or near Lower Morden Lane"},"longitude":"-0.217143"},"context":"","outcome_status":{"category":"Offender given a caution","date":"2017-11"},"persistent_id":"9a247fbe62554b6a011097f1e24d3fb1de45d0ec76f3a8372e6569c58d41ee2d","id":60718034,"location_subtype":"","month":"2017-10"},{"category":"criminal-damage-arson","location_type":"Force","location":{"latitude":"51.391364","street":{"id":930171,"name":"On or near Buttermere Close"},"longitude":"-0.224068"},"context":"","outcome_status":{"category":"Investigation complete; no suspect identified","date":"2017-11"},"persistent_id":"7003d100a64897d68249e57bc75a8a1aa334542fa27bf348ccf4dc5b16e40b4b","id":60721131,"location_subtype":"","month":"2017-10"},{"category":"criminal-damage-arson","location_type":"Force","location":{"latitude":"51.380975","street":{"id":929365,"name":"On or near Trafalgar Avenue"},"longitude":"-0.220921"},"context":"","outcome_status":{"category":"Status update unavailable","date":"2018-02"},"persistent_id":"3c6a3b1873b58eb7760d4ca208ec24e248d66d9aa6391417903a9acbd15d504a","id":60696217,"location_subtype":"","month":"2017-10"},{"category":"criminal-damage-arson","location_type":"Force","location":{"latitude":"51.391364","street":{"id":930171,"name":"On or near Buttermere Close"},"longitude":"-0.224068"},"context":"","outcome_status":{"category":"Status update unavailable","date":"2018-02"},"persistent_id":"a4790726e5327e4e236838b678b2f147b960e002f926ad43ec5c34d0d1f01175","id":60682320,"location_subtype":"","month":"2017-10"},{"category":"drugs","location_type":"Force","location":{"latitude":"51.387627","street":{"id":929234,"name":"On or near Wolsey Crescent"},"longitude":"-0.211292"},"context":"","outcome_status":{"category":"Offender given a caution","date":"2017-12"},"persistent_id":"c01ae687c24456b36ca0088fe50ca4f2c38cc9c489f13c1e94271626561e6d34","id":60702174,"location_subtype":"","month":"2017-10"},{"category":"drugs","location_type":"Force","location":{"latitude":"51.386300","street":{"id":929236,"name":"On or near Tudor Drive"},"longitude":"-0.212738"},"context":"","outcome_status":{"category":"Court result unavailable","date":"2018-04"},"persistent_id":"36ac048404acae67cec96f0c50284ee2dc54faf2e3c934af004ed9694fff8343","id":60675030,"location_subtype":"","month":"2017-10"},{"category":"other-theft","location_type":"Force","location":{"latitude":"51.385704","street":{"id":929376,"name":"On or near Seymour Avenue"},"longitude":"-0.220234"},"context":"","outcome_status":{"category":"Status update unavailable","date":"2018-02"},"persistent_id":"f3ec45e7f27076e920630e7ff14a0717ed54f08d72f57bba0401c6bdd8bcbf48","id":60729765,"location_subtype":"","month":"2017-10"},{"category":"public-order","location_type":"Force","location":{"latitude":"51.388257","street":{"id":930164,"name":"On or near Parking Area"},"longitude":"-0.216068"},"context":"","outcome_status":{"category":"Status update unavailable","date":"2018-02"},"persistent_id":"55d67bc6671163b552c7adce377e9103cf5f0ac8636d6f4d97e760f708730269","id":60691933,"location_subtype":"","month":"2017-10"},{"category":"robbery","location_type":"Force","location":{"latitude":"51.392565","street":{"id":930175,"name":"On or near Supermarket"},"longitude":"-0.222570"},"context":"","outcome_status":{"category":"Status update unavailable","date":"2018-02"},"persistent_id":"84b98c673603ecc856e3aa8823b0c573d8d653678243d3992e4f547344585348","id":60675285,"location_subtype":"","month":"2017-10"},{"category":"robbery","location_type":"Force","location":{"latitude":"51.392565","street":{"id":930175,"name":"On or near Supermarket"},"longitude":"-0.222570"},"context":"","outcome_status":{"category":"Status update unavailable","date":"2018-02"},"persistent_id":"84b98c673603ecc856e3aa8823b0c573d8d653678243d3992e4f547344585348","id":60675286,"location_subtype":"","month":"2017-10"},{"category":"vehicle-crime","location_type":"Force","location":{"latitude":"51.395429","street":{"id":930128,"name":"On or near Cannon Hill Lane"},"longitude":"-0.223451"},"context":"","outcome_status":{"category":"Status update unavailable","date":"2018-02"},"persistent_id":"d9d0a7462b0c5df42e9988b1351d1c8c2dbc7a26d9bea75ff10e34828b8f91f4","id":60697173,"location_subtype":"","month":"2017-10"},{"category":"vehicle-crime","location_type":"Force","location":{"latitude":"51.393343","street":{"id":930121,"name":"On or near Grand Drive"},"longitude":"-0.224063"},"context":"","outcome_status":{"category":"Status update unavailable","date":"2018-02"},"persistent_id":"2752b139550c15f959f94ee287e3324223e7bc6a45d9aa763bef98b898d16c2b","id":60696651,"location_subtype":"","month":"2017-10"},{"category":"vehicle-crime","location_type":"Force","location":{"latitude":"51.387317","street":{"id":929384,"name":"On or near Aragon Place"},"longitude":"-0.219252"},"context":"","outcome_status":{"category":"Status update unavailable","date":"2018-02"},"persistent_id":"a301d6e0ea984d8b220b83171c8a26c3fe0e4f7f49af68c3cd90ce400b3e52f6","id":60726790,"location_subtype":"","month":"2017-10"},{"category":"vehicle-crime","location_type":"Force","location":{"latitude":"51.386875","street":{"id":929381,"name":"On or near Garth Close"},"longitude":"-0.225147"},"context":"","outcome_status":{"category":"Status update unavailable","date":"2018-02"},"persistent_id":"995f6da6389847548653b1ad1af64a77cebc38f5a25d9d74a6fcc02c35888fea","id":60730646,"location_subtype":"","month":"2017-10"},{"category":"vehicle-crime","location_type":"Force","location":{"latitude":"51.387317","street":{"id":929384,"name":"On or near Aragon Place"},"longitude":"-0.219252"},"context":"","outcome_status":{"category":"Status update unavailable","date":"2018-02"},"persistent_id":"75881c995f51e0d5ae7967900cc5668e4fb23d136402cc35eec59d99dccf2bfe","id":60741095,"location_subtype":"","month":"2017-10"},{"category":"vehicle-crime","location_type":"Force","location":{"latitude":"51.384010","street":{"id":929253,"name":"On or near Dudley Drive"},"longitude":"-0.215299"},"context":"","outcome_status":{"category":"Status update unavailable","date":"2018-02"},"persistent_id":"5007bdfdf1371942bb4fb69d035ce47d3e2d92f84ac212081603cf5be48f0f43","id":60712003,"location_subtype":"","month":"2017-10"},{"category":"violent-crime","location_type":"Force","location":{"latitude":"51.390486","street":{"id":930163,"name":"On or near Parking Area"},"longitude":"-0.221271"},"context":"","outcome_status":{"category":"Investigation complete; no suspect identified","date":"2018-01"},"persistent_id":"934fbad4e5807213ece246f4985cf32a4a120029832a879e7ab9586108ca3832","id":60712712,"location_subtype":"","month":"2017-10"},{"category":"violent-crime","location_type":"Force","location":{"latitude":"51.381917","street":{"id":929372,"name":"On or near Dunster Avenue"},"longitude":"-0.220195"},"context":"","outcome_status":{"category":"Investigation complete; no suspect identified","date":"2017-11"},"persistent_id":"70aa1c347884a0e31b85f4300dfdc92419dbf2faba47b0e6642a27857268825f","id":60728965,"location_subtype":"","month":"2017-10"},{"category":"violent-crime","location_type":"Force","location":{"latitude":"51.391364","street":{"id":930171,"name":"On or near Buttermere Close"},"longitude":"-0.224068"},"context":"","outcome_status":{"category":"Status update unavailable","date":"2018-02"},"persistent_id":"8428e2a0cae77b3cd0ed2f6bccaff3a14b0217b6090fa7317b93ec7278723431","id":60723751,"location_subtype":"","month":"2017-10"},{"category":"violent-crime","location_type":"Force","location":{"latitude":"51.389386","street":{"id":930159,"name":"On or near Wydell Close"},"longitude":"-0.226459"},"context":"","outcome_status":{"category":"Investigation complete; no suspect identified","date":"2018-05"},"persistent_id":"c8f19db0aa3e4ff4f90688f6de9677a6da84afde3eef05ad8b2e92be9b80e117","id":60720138,"location_subtype":"","month":"2017-10"},{"category":"violent-crime","location_type":"Force","location":{"latitude":"51.391364","street":{"id":930171,"name":"On or near Buttermere Close"},"longitude":"-0.224068"},"context":"","outcome_status":{"category":"Investigation complete; no suspect identified","date":"2017-11"},"persistent_id":"47bf2008f5c036d9f90a3b41baa3b3661ef8f24d45a012c937f4214ea5e61b74","id":60698422,"location_subtype":"","month":"2017-10"},{"category":"violent-crime","location_type":"Force","location":{"latitude":"51.392565","street":{"id":930175,"name":"On or near Supermarket"},"longitude":"-0.222570"},"context":"","outcome_status":{"category":"Status update unavailable","date":"2018-02"},"persistent_id":"1df933218942d82a72f3ecc6b7dbb45aed4d880e8e45c01bfd1db13598677323","id":60704374,"location_subtype":"","month":"2017-10"},{"category":"violent-crime","location_type":"Force","location":{"latitude":"51.391364","street":{"id":930171,"name":"On or near Buttermere Close"},"longitude":"-0.224068"},"context":"","outcome_status":{"category":"Status update unavailable","date":"2018-02"},"persistent_id":"32e0508e056eecf806cd8453e06e7ac458064161e82099e5361eabf5f5347a08","id":60716542,"location_subtype":"","month":"2017-10"},{"category":"violent-crime","location_type":"Force","location":{"latitude":"51.392565","street":{"id":930175,"name":"On or near Supermarket"},"longitude":"-0.222570"},"context":"","outcome_status":{"category":"Status update unavailable","date":"2018-02"},"persistent_id":"a6d41e5442d7be73a5f5b49777dd75de6f7ddf41797cca1eed7a0d78b3af3464","id":60707983,"location_subtype":"","month":"2017-10"},{"category":"violent-crime","location_type":"Force","location":{"latitude":"51.381972","street":{"id":929374,"name":"On or near Charminster Road"},"longitude":"-0.225007"},"context":"","outcome_status":{"category":"Investigation complete; no suspect identified","date":"2017-11"},"persistent_id":"a5154c122704826ad69680ad10b0593b7a1e2a92c93d5c886ff36e165cb29fba","id":60716083,"location_subtype":"","month":"2017-10"},{"category":"violent-crime","location_type":"Force","location":{"latitude":"51.391926","street":{"id":930167,"name":"On or near Hillcross Avenue"},"longitude":"-0.219576"},"context":"","outcome_status":{"category":"Investigation complete; no suspect identified","date":"2017-12"},"persistent_id":"3584d203ad9182d5042a59c48cd165e9bc4c6974c90acd1311c348b419a72f82","id":60706057,"location_subtype":"","month":"2017-10"},{"category":"violent-crime","location_type":"Force","location":{"latitude":"51.388750","street":{"id":930165,"name":"On or near Tudor Drive"},"longitude":"-0.217098"},"context":"","outcome_status":{"category":"Investigation complete; no suspect identified","date":"2017-10"},"persistent_id":"b53e709b7103f43170f76f1cc3bec343176ae727c3e7db350bacb6a8685173df","id":60719598,"location_subtype":"","month":"2017-10"},{"category":"violent-crime","location_type":"Force","location":{"latitude":"51.388750","street":{"id":930165,"name":"On or near Tudor Drive"},"longitude":"-0.217098"},"context":"","outcome_status":{"category":"Investigation complete; no suspect identified","date":"2017-11"},"persistent_id":"bf60470d5ea4fbc8f1c314629a62c249d8639f769e0054b24e6e481387b04b81","id":60708254,"location_subtype":"","month":"2017-10"},{"category":"other-crime","location_type":"Force","location":{"latitude":"51.392565","street":{"id":930175,"name":"On or near Supermarket"},"longitude":"-0.222570"},"context":"","outcome_status":{"category":"Investigation complete; no suspect identified","date":"2017-10"},"persistent_id":"7287a823c0a3cc9336c14c51e3196dcc77b14c6941787c07548ad9bb43b38543","id":60682326,"location_subtype":"","month":"2017-10"},{"category":"other-crime","location_type":"Force","location":{"latitude":"51.383029","street":{"id":929377,"name":"On or near Salcombe Drive"},"longitude":"-0.221186"},"context":"","outcome_status":{"category":"Status update unavailable","date":"2018-02"},"persistent_id":"3a741a9abc0fe7dc2d7c491d51366e5902d66213ee4b52e83370227f3c7ee894","id":60717223,"location_subtype":"","month":"2017-10"}]