[{"category":"anti-social-behaviour","location_type":"Force","location":{"latitude":"51.543870","street":{"id":965121,"name":"On or near Adelaide Road"},"longitude":"-0.156614"},"context":"","outcome_status":null,"persistent_id":"","id":59433604,"location_subtype":"","month":"2017-08"},{"category":"anti-social-behaviour","location_type":"Force","location":{"latitude":"51.543870","street":{"id":965121,"name":"On or near Adelaide Road"},"longitude":"-0.156614"},"context":"","outcome_status":null,"persistent_id":"","id":59433593,"location_subtype":"","month":"2017-08"},{"category":"anti-social-behaviour","location_type":"Force","location":{"latitude":"51.543870","street":{"id":965121,"name":"On or near Adelaide Road"},"longitude":"-0.156614"},"context":"","outcome_status":null,"persistent_id":"","id":59433597,"location_subtype":"","month":"2017-08"},{"category":"anti-social-behaviour","location_type":"Force","location":{"latitude":"51.545404","street":{"id":967964,"name":"On or near Castle Mews"},"longitude":"-0.146659"},"context":"","outcome_status":null,"persistent_id":"","id":59433088,"location_subtype":"","month":"2017-08"},{"category":"anti-social-behaviour","location_type":"Force","location":{"latitude":"51.545389","street":{"id":967958,"name":"On or near Malden Crescent"},"longitude":"-0.149702"},"context":"","outcome_status":null,"persistent_id":"","id":59433136,"location_subtype":"","month":"2017-08"},{"category":"anti-social-behaviour","location_type":"Force","location":{"latitude":"51.546880","street":{"id":967948,"name":"On or near Talacre Road"},"longitude":"-0.149036"},"context":"","outcome_status":null,"persistent_id":"","id":59433149,"location_subtype":"","month":"2017-08"},{"category":"anti-social-behaviour","location_type":"Force","location":{"latitude":"51.549570","street":{"id":967819,"name":"On or near Grafton Road"},"longitude":"-0.148509"},"context":"","outcome_status":null,"persistent_id":"","id":59433139,"location_subtype":"","month":"2017-08"},{"category":"anti-social-behaviour","location_type":"Force","location":{"latitude":"51.543735","street":{"id":965100,"name":"On or near Ferdinand Street"},"longitude":"-0.149164"},"context":"","outcome_status":null,"persistent_id":"","id":59433146,"location_subtype":"","month":"2017-08"},{"category":"anti-social-behaviour","location_type":"Force","location":{"latitude":"51.544080","street":{"id":965118,"name":"On or near Belmont Street"},"longitude":"-0.151082"},"context":"","outcome_status":null,"persistent_id":"","id":59433173,"location_subtype":"","month":"2017-08"},{"category":"anti-social-behaviour","location_type":"Force","location":{"latitude":"51.544080","street":{"id":965118,"name":"On or near Belmont Street"},"longitude":"-0.151082"},"context":"","outcome_status":null,"persistent_id":"","id":59433175,"location_subtype":"","month":"2017-08"},{"category":"anti-social-behaviour","location_type":"Force","location":{"latitude":"51.548746","street":{"id":967822,"name":"On or near Bassett Street"},"longitude":"-0.151557"},"context":"","outcome_status":null,"persistent_id":"","id":59433177,"location_subtype":"","month":"2017-08"},{"category":"anti-social-behaviour","location_type":"Force","location":{"latitude":"51.548746","street":{"id":967822,"name":"On or near Bassett Street"},"longitude":"-0.151557"},"context":"","outcome_status":null,"persistent_id":"","id":59433181,"location_subtype":"","month":"2017-08"},{"category":"anti-social-behaviour","location_type":"Force","location":{"latitude":"51.548746","street":{"id":967822,"name":"On or near Bassett Street"},"longitude":"-0.151557"},"context":"","outcome_status":null,"persistent_id":"","id":59433183,"location_subtype":"","month":"2017-08"},{"category":"anti-social-behaviour","location_type":"Force","location":{"latitude":"51.548746","street":{"id":967822,"name":"On or near Bassett Street"},"longitude":"-0.151557"},"context":"","outcome_status":null,"persistent_id":"","id":59433185,"location_subtype":"","month":"2017-08"},{"category":"anti-social-behaviour","location_type":"Force","location":{"latitude":"51.546158","street":{"id":967949,"name":"On or near St Silas Place"},"longitude":"-0.152267"},"context":"","outcome_status":null,"persistent_id":"","id":59433535,"location_subtype":"","month":"2017-08"},{"category":"anti-social-behaviour","location_type":"Force","location":{"latitude":"51.544885","street":{"id":965106,"name":"On or near Crogsland Road"},"longitude":"-0.151958"},"context":"","outcome_status":null,"persistent_id":"","id":59433523,"location_subtype":"","month":"2017-08"},{"category":"anti-social-behaviour","location_type":"Force","location":{"latitude":"51.547176","street":{"id":967957,"name":"On or near Marsden Street"},"longitude":"-0.151837"},"context":"","outcome_status":null,"persistent_id":"","id":59433529,"location_subtype":"","month":"2017-08"},{"category":"anti-social-behaviour","location_type":"Force","location":{"latitude":"51.547176","street":{"id":967957,"name":"On or near Marsden Street"},"longitude":"-0.151837"},"context":"","outcome_status":null,"persistent_id":"","id":59433531,"location_subtype":"","month":"2017-08"},{"category":"anti-social-behaviour","location_type":"Force","location":{"latitude":"51.550499","street":{"id":967814,"name":"On or near Malden Road"},"longitude":"-0.154428"},"context":"","outcome_status":null,"persistent_id":"","id":59433554,"location_subtype":"","month":"2017-08"},{"category":"anti-social-behaviour","location_type":"Force","location":{"latitude":"51.545746","street":{"id":967947,"name":"On or near Truro Street"},"longitude":"-0.152962"},"context":"","outcome_status":null,"persistent_id":"","id":59433537,"location_subtype":"","month":"2017-08"},{"category":"anti-social-behaviour","location_type":"Force","location":{"latitude":"51.550499","street":{"id":967814,"name":"On or near Malden Road"},"longitude":"-0.154428"},"context":"","outcome_status":null,"persistent_id":"","id":59433556,"location_subtype":"","month":"2017-08"},{"category":"anti-social-behaviour","location_type":"Force","location":{"latitude":"51.550499","street":{"id":967814,"name":"On or near Malden Road"},"longitude":"-0.154428"},"context":"","outcome_status":null,"persistent_id":"","id":59433558,"location_subtype":"","month":"2017-08"},{"category":"anti-social-behaviour","location_type":"Force","location":{"latitude":"51.546767","street":{"id":967956,"name":"On or near Modbury Gardens"},"longitude":"-0.154983"},"context":"","outcome_status":null,"persistent_id":"","id":59433567,"location_subtype":"","month":"2017-08"},{"category":"anti-social-behaviour","location_type":"Force","location":{"latitude":"51.546767","street":{"id":967956,"name":"On or near Modbury Gardens"},"longitude":"-0.154983"},"context":"","outcome_status":null,"persistent_id":"","id":59433572,"location_subtype":"","month":"2017-08"},{"category":"anti-social-behaviour","location_type":"Force","location":{"latitude":"51.548421","street":{"id":967806,"name":"On or near St Thomas's Gardens"},"longitude":"-0.154325"},"context":"","outcome_status":null,"persistent_id":"","id":59433576,"location_subtype":"","month":"2017-08"},{"category":"anti-social-behaviour","location_type":"Force","location":{"latitude":"51.543870","street":{"id":965121,"name":"On or near Adelaide Road"},"longitude":"-0.156614"},"context":"","outcome_status":null,"persistent_id":"","id":59433587,"location_subtype":"","month":"2017-08"},{"category":"anti-social-behaviour","location_type":"Force","location":{"latitude":"51.543870","street":{"id":965121,"name":"On or near Adelaide Road"},"longitude":"-0.156614"},"context":"","outcome_status":null,"persistent_id":"","id":59433595,"location_subtype":"","month":"2017-08"},{"category":"anti-social-behaviour","location_type":"Force","location":{"latitude":"51.543870","street":{"id":965121,"name":"On or near Adelaide Road"},"longitude":"-0.156614"},"context":"","outcome_status":null,"persistent_id":"","id":59433599,"location_subtype":"","month":"2017-08"},{"category":"anti-social-behaviour","location_type":"Force","location":{"latitude":"51.543870","street":{"id":965121,"name":"On or near Adelaide Road"},"longitude":"-0.156614"},"context":"","outcome_status":null,"persistent_id":"","id":59433601,"location_subtype":"","month":"2017-08"},{"category":"anti-social-behaviour","location_type":"Force","location":{"latitude":"51.544702","street":{"id":965024,"name":"On or near Provost Road"},"longitude":"-0.157432"},"context":"","outcome_status":null,"persistent_id":"","id":59433625,"location_subtype":"","month":"2017-08"},{"category":"anti-social-behaviour","location_type":"Force","location":{"latitude":"51.544442","street":{"id":965093,"name":"On or near Harmood Street"},"longitude":"-0.147260"},"context":"","outcome_status":null,"persistent_id":"","id":59433121,"location_subtype":"","month":"2017-08"},{"category":"anti-social-behaviour","location_type":"Force","location":{"latitude":"51.544442","street":{"id":965093,"name":"On or near Harmood Street"},"longitude":"-0.147260"},"context":"","outcome_status":null,"persistent_id":"","id":59433123,"location_subtype":"","month":"2017-08"},{"category":"anti-social-behaviour","location_type":"Force","location":{"latitude":"51.543608","street":{"id":965101,"name":"On or near Ferdinand Place"},"longitude":"-0.148505"},"context":"","outcome_status":null,"persistent_id":"","id":59433131,"location_subtype":"","month":"2017-08"},{"category":"anti-social-behaviour","location_type":"Force","location":{"latitude":"51.545389","street":{"id":967958,"name":"On or near Malden Crescent"},"longitude":"-0.149702"},"context":"","outcome_status":null,"persistent_id":"","id":59433138,"location_subtype":"","month":"2017-08"},{"category":"anti-social-behaviour","location_type":"Force","location":{"latitude":"51.546880","street":{"id":967948,"name":"On or near Talacre Road"},"longitude":"-0.149036"},"context":"","outcome_status":null,"persistent_id":"","id":59433148,"location_subtype":"","month":"2017-08"},{"category":"anti-social-behaviour","location_type":"Force","location":{"latitude":"51.549341","street":{"id":967803,"name":"On or near Weedington Road"},"longitude":"-0.149931"},"context":"","outcome_status":null,"persistent_id":"","id":59433153,"location_subtype":"","month":"2017-08"},{"category":"anti-social-behaviour","location_type":"Force","location":{"latitude":"51.548746","street":{"id":967822,"name":"On or near Bassett Street"},"longitude":"-0.151557"},"context":"","outcome_status":null,"persistent_id":"","id":59433179,"location_subtype":"","month":"2017-08"},{"category":"anti-social-behaviour","location_type":"Force","location":{"latitude":"51.548746","street":{"id":967822,"name":"On or near Bassett Street"},"longitude":"-0.151557"},"context":"","outcome_status":null,"persistent_id":"","id":59433187,"location_subtype":"","month":"2017-08"},{"category":"anti-social-behaviour","location_type":"Force","location":{"latitude":"51.548746","street":{"id":967822,"name":"On or near Bassett Street"},"longitude":"-0.151557"},"context":"","outcome_status":null,"persistent_id":"","id":59433189,"location_subtype":"","month":"2017-08"},{"category":"anti-social-behaviour","location_type":"Force","location":{"latitude":"51.548746","street":{"id":967822,"name":"On or near Bassett Street"},"longitude":"-0.151557"},"context":"","outcome_status":null,"persistent_id":"","id":59433191,"location_subtype":"","month":"2017-08"},{"category":"anti-social-behaviour","location_type":"Force","location":{"latitude":"51.543870","street":{"id":965121,"name":"On or near Adelaide Road"},"longitude":"-0.156614"},"context":"","outcome_status":null,"persistent_id":"","id":59433602,"location_subtype":"","month":"2017-08"},{"category":"anti-social-behaviour","location_type":"Force","location":{"latitude":"51.546767","street":{"id":967956,"name":"On or near Modbury Gardens"},"longitude":"-0.154983"},"context":"","outcome_status":null,"persistent_id":"","id":59433570,"location_subtype":"","month":"2017-08"},{"category":"anti-social-behaviour","location_type":"Force","location":{"latitude":"51.543870","street":{"id":965121,"name":"On or near Adelaide Road"},"longitude":"-0.156614"},"context":"","outcome_status":null,"persistent_id":"","id":59433589,"location_subtype":"","month":"2017-08"},{"category":"anti-social-behaviour","location_type":"Force","location":{"latitude":"51.543870","street":{"id":965121,"name":"On or near Adelaide Road"},"longitude":"-0.156614"},"context":"","outcome_status":null,"persistent_id":"","id":59433591,"location_subtype":"","month":"2017-08"},{"category":"bicycle-theft","location_type":"Force","location":{"latitude":"51.546291","street":{"id":967955,"name":"On or near Newbury Mews"},"longitude":"-0.150430"},"context":"","outcome_status":{"category":"Status update unavailable","date":"2017-12"},"persistent_id":"83ddb0e72f83692bc1f670afd420831248479f662a7574dee0e74f3b457730db","id":59478568,"location_subtype":"","month":"2017-08"},{"category":"bicycle-theft","location_type":"Force","location":{"latitude":"51.550248","street":{"id":967812,"name":"On or near Quadrant Grove"},"longitude":"-0.155621"},"context":"","outcome_status":{"category":"Status update unavailable","date":"2017-12"},"persistent_id":"0a5b796dc9a57a5c63bb20ee7754e73f18246f38422bd3989792735a2fe09267","id":59455455,"location_subtype":"","month":"2017-08"},{"category":"bicycle-theft","location_type":"Force","location":{"latitude":"51.542855","street":{"id":965085,"name":"On or near King Henry's Road"},"longitude":"-0.156078"},"context":"","outcome_status":{"category":"Status update unavailable","date":"2017-12"},"persistent_id":"eadb47f798c9a40a7d0ce6bd08dcdc5ddfb4a6ba22ec1a3e7b7d8aa4e7a2e8d7","id":59468666,"location_subtype":"","month":"2017-08"},{"category":"burglary","location_type":"Force","location":{"latitude":"51.548746","street":{"id":967822,"name":"On or near Bassett Street"},"longitude":"-0.151557"},"context":"","outcome_status":{"category":"Status update unavailable","date":"2017-12"},"persistent_id":"9e37b4d310505bb991e11f427fc5118e5c2adc02cd174a2b7fec3491dfde0c42","id":59443370,"location_subtype":"","month":"2017-08"},{"category":"burglary","location_type":"Force","location":{"latitude":"51.544736","street":{"id":965079,"name":"On or near Powlett Place"},"longitude":"-0.147623"},"context":"","outcome_status":{"category":"Status update unavailable","date":"2017-12"},"persistent_id":"6cc30ca8b5b3752fc5e969057f6ad3bece1ec9025966bd1c0839f47d480dbcc8","id":59460697,"location_subtype":"","month":"2017-08"},{"category":"burglary","location_type":"Force","location":{"latitude":"51.543854","street":{"id":965041,"name":"On or near Eton Road"},"longitude":"-0.159571"},"context":"","outcome_status":{"category":"Investigation complete; no suspect identified","date":"2018-05"},"persistent_id":"763d45ccdecbaec3efafe02307cc75f976b9013452902a775f43088e3b6a0d16","id":59456600,"location_subtype":"","month":"2017-08"},{"category":"burglary","location_type":"Force","location":{"latitude":"51.550248","street":{"id":967812,"name":"On or near Quadrant Grove"},"longitude":"-0.155621"},"context":"","outcome_status":{"category":"Status update unavailable","date":"2017-12"},"persistent_id":"d1d2b3121f61b56face5054d30df0e907e640cf3f1ce65d5e817c868b6e8772c","id":59506737,"location_subtype":"","month":"2017-08"},{"category":"burglary","location_type":"Force","location":{"latitude":"51.544702","street":{"id":965024,"name":"On or near Provost Road"},"longitude":"-0.157432"},"context":"","outcome_status":{"category":"Status update unavailable","date":"2017-12"},"persistent_id":"7abb38a53baacf5fb418d2fef59860222b584c260d1506a448b95c2017a87790","id":59503312,"location_subtype":"","month":"2017-08"},{"category":"burglary","location_type":"Force","location":{"latitude":"51.543854","street":{"id":965041,"name":"On or near Eton Road"},"longitude":"-0.159571"},"context":"","outcome_status":{"category":"Status update unavailable","date":"2017-12"},"persistent_id":"f765c014ec5bb961880b8af606df387b131401f327505b6bb861a34889a3ad84","id":59453279,"location_subtype":"","month":"2017-08"},{"category":"burglary","location_type":"Force","location":{"latitude":"51.543854","street":{"id":965041,"name":"On or near Eton Road"},"longitude":"-0.159571"},"context":"","outcome_status":{"category":"Status update unavailable","date":"2017-12"},"persistent_id":"a91dde1c3cd97c786224754644c5c272d96c70f0beab3bdf3e64431a7e25c84d","id":59449515,"location_subtype":"","month":"2017-08"},{"category":"criminal-damage-arson","location_type":"Force","location":{"latitude":"51.544080","street":{"id":965118,"name":"On or near Belmont Street"},"longitude":"-0.151082"},"context":"","outcome_status":{"category":"Local resolution","date":"2017-10"},"persistent_id":"024f55212a364f6030bd6701f309c279b0a7e790c3fde98c37ba8512fc64edc8","id":59448486,"location_subtype":"","month":"2017-08"},{"category":"criminal-damage-arson","location_type":"Force","location":{"latitude":"51.548421","street":{"id":967806,"name":"On or near St Thomas's Gardens"},"longitude":"-0.154325"},"context":"","outcome_status":{"category":"Investigation complete; no suspect identified","date":"2017-08"},"persistent_id":"529573328d456cba66ece847da337caaef51aa52565d02bce07b366d2a3de556","id":59447753,"location_subtype":"","month":"2017-08"},{"category":"criminal-damage-arson","location_type":"Force","location":{"latitude":"51.548746","street":{"id":967822,"name":"On or near Bassett Street"},"longitude":"-0.151557"},"context":"","outcome_status":{"category":"Status update unavailable","date":"2017-12"},"persistent_id":"b82a732fbe188ea27831a17c1b6823e4a717b019b614f616168e6f74c29cc727","id":59512953,"location_subtype":"","month":"2017-08"},{"category":"criminal-damage-arson","location_type":"Force","location":{"latitude":"51.542855","street":{"id":965085,"name":"On or near King Henry's Road"},"longitude":"-0.156078"},"context":"","outcome_status":{"category":"Status update unavailable","date":"2017-12"},"persistent_id":"97e6fdf851da3861cf780d3b6f90f424d64b0115ff2a2b77b3f3b1c6b3edae22","id":59439638,"location_subtype":"","month":"2017-08"},{"category":"criminal-damage-arson","location_type":"Force","location":{"latitude":"51.543946","street":{"id":965108,"name":"On or near Clarence Way"},"longitude":"-0.146588"},"context":"","outcome_status":{"category":"Status update unavailable","date":"2017-12"},"persistent_id":"69a2692117fdac554286c8331f7e688ea1598e6e02eee2e17c0c96b3b9cfb8fa","id":59475615,"location_subtype":"","month":"2017-08"},{"category":"drugs","location_type":"Force","location":{"latitude":"51.547411","street":{"id":967959,"name":"On or near Maitland Park Road"},"longitude":"-0.155865"},"context":"","outcome_status":{"category":"Court result unavailable","date":"2018-02"},"persistent_id":"da7192d94dc4be4b868c8fc3cabeb4530d42ea69216bdbca89b2a566e23c5aea","id":59444791,"location_subtype":"","month":"2017-08"},{"category":"drugs","location_type":"Force","location":{"latitude":"51.547904","street":{"id":967823,"name":"On or near Baptist Gardens"},"longitude":"-0.154620"},"context":"","outcome_status":{"category":"Offender given a drugs possession warning","date":"2017-09"},"persistent_id":"ee31d673868fed7aead0d8efc2545c45da95770ab81ead7e01a8fe8765806faf","id":59440766,"location_subtype":"","month":"2017-08"},{"category":"drugs","location_type":"Force","location":{"latitude":"51.549459","street":{"id":967805,"name":"On or near Thurlow Terrace"},"longitude":"-0.155148"},"context":"","outcome_status":{"category":"Status update unavailable","date":"2017-12"},"persistent_id":"9fe7855c3fec642af4d6b001c66dc4cf0b78bf9a9f21965b6d4b44567cff9915","id":59501998,"location_subtype":"","month":"2017-08"},{"category":"drugs","location_type":"Force","location":{"latitude":"51.546880","street":{"id":967948,"name":"On or near Talacre Road"},"longitude":"-0.149036"},"context":"","outcome_status":{"category":"Offender given penalty notice","date":"2017-08"},"persistent_id":"a14eb3452a5e46095aac95ea0b865a9205b04b64f4bfe920cf1d92abe4a93428","id":59505079,"location_subtype":"","month":"2017-08"},{"category":"drugs","location_type":"Force","location":{"latitude":"51.546624","street":{"id":967961,"name":"On or near Dalby Street"},"longitude":"-0.147042"},"context":"","outcome_status":{"category":"Offender given a drugs possession warning","date":"2017-09"},"persistent_id":"b285e12ddc33b180bb676695a6c4e345e945370c44f9bf50da8639fe99fd68a1","id":59467261,"location_subtype":"","month":"2017-08"},{"category":"other-theft","location_type":"Force","location":{"latitude":"51.544080","street":{"id":965118,"name":"On or near Belmont Street"},"longitude":"-0.151082"},"context":"","outcome_status":{"category":"Status update unavailable","date":"2017-12"},"persistent_id":"aa7a4c9b2120a8b7673ca087ed5513e4bfcee1ee13e7bb93ef18f2fba983700c","id":59499361,"location_subtype":"","month":"2017-08"},{"category":"other-theft","location_type":"Force","location":{"latitude":"51.543735","street":{"id":965100,"name":"On or near Ferdinand Street"},"longitude":"-0.149164"},"context":"","outcome_status":{"category":"Investigation complete; no suspect identified","date":"2017-10"},"persistent_id":"c11f5d7f366c0732bb87c53caba36144ddf087016427fe2b0c137c421da96b2d","id":59461405,"location_subtype":"","month":"2017-08"},{"category":"other-theft","location_type":"Force","location":{"latitude":"51.543117","street":{"id":965124,"name":"On or near Nightclub"},"longitude":"-0.149319"},"context":"","outcome_status":{"category":"Status update unavailable","date":"2017-12"},"persistent_id":"dd8e66aefca73b4448f45916be3bae1e66afc25ba248784f1f6778f5dcbae7c4","id":59511339,"location_subtype":"","month":"2017-08"},{"category":"other-theft","location_type":"Force","location":{"latitude":"51.544798","street":{"id":965102,"name":"On or near Eton College Road"},"longitude":"-0.156115"},"context":"","outcome_status":{"category":"Status update unavailable","date":"2017-12"},"persistent_id":"90f10a1634a6b7c18519160be652ad34d5f341425e3382c8e2ef5b6c1c154296","id":59447616,"location_subtype":"","month":"2017-08"},{"category":"other-theft","location_type":"Force","location":{"latitude":"51.545389","street":{"id":967958,"name":"On or near Malden Crescent"},"longitude":"-0.149702"},"context":"","outcome_status":{"category":"Investigation complete; no suspect identified","date":"2017-09"},"persistent_id":"f39dcac619eda92664357d59b0bae38ccca10a77fc8499798cf2656d4ccf9d79","id":59451764,"location_subtype":"","month":"2017-08"},{"category":"other-theft","location_type":"Force","location":{"latitude":"51.547411","street":{"id":967959,"name":"On or near Maitland Park Road"},"longitude":"-0.155865"},"context":"","outcome_status":{"category":"Investigation complete; no suspect identified","date":"2017-09"},"persistent_id":"a738ff25cb72f2182dca1dedfa7942c2eb2c9a606166d9292074913b03651fc4","id":59441050,"location_subtype":"","month":"2017-08"},{"category":"other-theft","location_type":"Force","location":{"latitude":"51.545389","street":{"id":967958,"name":"On or near Malden Crescent"},"longitude":"-0.149702"},"context":"","outcome_status":{"category":"Status update unavailable","date":"2017-12"},"persistent_id":"afb9a5c1b3e17a5a85eeaadf140ad70a43f026b95ffc6a0eda8cd04135066a81","id":59446427,"location_subtype":"","month":"2017-08"},{"category":"other-theft","location_type":"Force","location":{"latitude":"51.544736","street":{"id":965079,"name":"On or near Powlett Place"},"longitude":"-0.147623"},"context":"","outcome_status":{"category":"Status update unavailable","date":"2017-12"},"persistent_id":"43794c36b3ea50af0e5d2584a759cb73a1c3c5940abd393e585fa1b6d1835954","id":59463040,"location_subtype":"","month":"2017-08"},{"category":"other-theft","location_type":"Force","location":{"latitude":"51.546624","street":{"id":967961,"name":"On or near Dalby Street"},"longitude":"-0.147042"},"context":"","outcome_status":{"category":"Status update unavailable","date":"2017-12"},"persistent_id":"4f4580dd77fca721c86eacbce08405284dbf16a38283041109c78857a3a1c2be","id":59492967,"location_subtype":"","month":"2017-08"},{"category":"other-theft","location_type":"Force","location":{"latitude":"51.544080","street":{"id":965118,"name":"On or near Belmont Street"},"longitude":"-0.151082"},"context":"","outcome_status":{"category":"Status update unavailable","date":"2017-12"},"persistent_id":"d191cdf4aed2df81118322f5a16237281b2d769ac4c7d0e68ab19579f64bf4ee","id":59506852,"location_subtype":"","month":"2017-08"},{"category":"other-theft","location_type":"Force","location":{"latitude":"51.547411","street":{"id":967959,"name":"On or near Maitland Park Road"},"longitude":"-0.155865"},"context":"","outcome_status":{"category":"Investigation complete; no suspect identified","date":"2017-11"},"persistent_id":"a0daf57e8038e18bfa66b2c91664806720a0f03eb3f39630b7ed4907294d4e9b","id":59498339,"location_subtype":"","month":"2017-08"},{"category":"other-theft","location_type":"Force","location":{"latitude":"51.543117","street":{"id":965124,"name":"On or near Nightclub"},"longitude":"-0.149319"},"context":"","outcome_status":{"category":"Status update unavailable","date":"2017-12"},"persistent_id":"ac34d46240d91c2864755fbf46576a0f362b99fdc6fdcb434e46405a1936e0ab","id":59507346,"location_subtype":"","month":"2017-08"},{"category":"other-theft","location_type":"Force","location":{"latitude":"51.548755","street":{"id":967804,"name":"On or near Warden Road"},"longitude":"-0.148181"},"context":"","outcome_status":{"category":"Status update unavailable","date":"2017-12"},"persistent_id":"bec77548b6c99f85c2bee12fbd1e78292e5844cd3cd943f046a93d116aa8c9c9","id":59436557,"location_subtype":"","month":"2017-08"},{"category":"other-theft","location_type":"Force","location":{"latitude":"51.546624","street":{"id":967961,"name":"On or near Dalby Street"},"longitude":"-0.147042"},"context":"","outcome_status":{"category":"Status update unavailable","date":"2017-12"},"persistent_id":"ea7d9f341b0a0de2d7bf64653422fb0504f81d667e9319403b42a12d160d9545","id":59451460,"location_subtype":"","month":"2017-08"},{"category":"public-order","location_type":"Force","location":{"latitude":"51.543735","street":{"id":965100,"name":"On or near Ferdinand Street"},"longitude":"-0.149164"},"context":"","outcome_status":{"category":"Court result unavailable","date":"2018-04"},"persistent_id":"c9e6335e52f0ef1f12554ea86bdcb737645cc7e1a353f72c908c6a0fe1cb2ee1","id":59505531,"location_subtype":"","month":"2017-08"},{"category":"public-order","location_type":"BTP","location":{"latitude":"51.544100","street":{"id":1488687,"name":"Chalk Farm (lu Station)"},"longitude":"-0.153820"},"context":"","outcome_status":{"category":"Status update unavailable","date":"2017-12"},"persistent_id":"","id":66342918,"location_subtype":"LU STATION","month":"2017-08"},{"category":"public-order","location_type":"Force","location":{"latitude":"51.548656","street":{"id":967813,"name":"On or near Malden Road"},"longitude":"-0.152685"},"context":"","outcome_status":{"category":"Investigation complete; no suspect identified","date":"2017-09"},"persistent_id":"1fe9a7c1553114c236d033a1920746229fd3fd04f50fb971e4ee5ac55ad71256","id":59465068,"location_subtype":"","month":"2017-08"},{"category":"public-order","location_type":"Force","location":{"latitude":"51.549345","street":{"id":967817,"name":"On or near Herbert Street"},"longitude":"-0.154186"},"context":"","outcome_status":{"category":"Investigation complete; no suspect identified","date":"2017-08"},"persistent_id":"c10e56f5781bd5979cd70f851cefd070ff6e3442b1f98b31b9348ec52f85b98e","id":59503859,"location_subtype":"","month":"2017-08"},{"category":"public-order","location_type":"Force","location":{"latitude":"51.543117","street":{"id":965124,"name":"On or near Nightclub"},"longitude":"-0.149319"},"context":"","outcome_status":{"category":"Investigation complete; no suspect identified","date":"2017-09"},"persistent_id":"ecb3add6fa0dd70d906a54cdd43d925bd7911108b564389c9878ec3527b4dc2d","id":59497239,"location_subtype":"","month":"2017-08"},{"category":"robbery","location_type":"Force","location":{"latitude":"51.547451","street":{"id":967946,"name":"On or near Wilkin Street Mews"},"longitude":"-0.147008"},"context":"","outcome_status":{"category":"Investigation complete; no suspect identified","date":"2017-09"},"persistent_id":"146b3a3d63ae503dd48629503fa84d9e77e9a9c02d8be1278554f9fb39c849c2","id":59496968,"location_subtype":"","month":"2017-08"},{"category":"robbery","location_type":"Force","location":{"latitude":"51.545917","street":{"id":967953,"name":"On or near Prince Of Wales Road"},"longitude":"-0.151267"},"context":"","outcome_status":{"category":"Investigation complete; no suspect identified","date":"2018-02"},"persistent_id":"8ae14753f037f8382b446cca6e99b719035831dde43bba7ae2e9ba93cb48aefb","id":59506739,"location_subtype":"","month":"2017-08"},{"category":"robbery","location_type":"Force","location":{"latitude":"51.543452","street":{"id":965126,"name":"On or near Supermarket"},"longitude":"-0.150603"},"context":"","outcome_status":{"category":"Status update unavailable","date":"2017-12"},"persistent_id":"e74eac7e8e922078d98de82ae135ddc27a18b84ebd6e7cf62c9fc1164d8c2558","id":59448375,"location_subtype":"","month":"2017-08"},{"category":"robbery","location_type":"Force","location":{"latitude":"51.543854","street":{"id":965041,"name":"On or near Eton Road"},"longitude":"-0.159571"},"context":"","outcome_status":{"category":"Status update unavailable","date":"2017-12"},"persistent_id":"ab444c6b5b822c9049c74faa7bc63054cce6a59e0f6933668c01ae554fe64ac6","id":59478679,"location_subtype":"","month":"2017-08"},{"category":"robbery","location_type":"Force","location":{"latitude":"51.544798","street":{"id":965102,"name":"On or near Eton College Road"},"longitude":"-0.156115"},"context":"","outcome_status":{"category":"Investigation complete; no suspect identified","date":"2017-08"},"persistent_id":"b0280a01ebb465309c01a65d15587e0ee37525ac6d0259a87686fd10e715ba0f","id":59436867,"location_subtype":"","month":"2017-08"},{"category":"robbery","location_type":"Force","location":{"latitude":"51.544080","street":{"id":965118,"name":"On or near Belmont Street"},"longitude":"-0.151082"},"context":"","outcome_status":{"category":"Investigation complete; no suspect identified","date":"2017-08"},"persistent_id":"8088dfc8a80e968000d8be93fff2de3033aeb66abfb5db360f249904cda32fb3","id":59452893,"location_subtype":"","month":"2017-08"},{"category":"shoplifting","location_type":"Force","location":{"latitude":"51.543452","street":{"id":965126,"name":"On or near Supermarket"},"longitude":"-0.150603"},"context":"","outcome_status":{"category":"Court result unavailable","date":"2018-03"},"persistent_id":"7250c40836ed574dbf7a3cf1ae391313bc167bf77569be4b9e23911d169bd68c","id":59439957,"location_subtype":"","month":"2017-08"},{"category":"shoplifting","location_type":"Force","location":{"latitude":"51.543452","street":{"id":965126,"name":"On or near Supermarket"},"longitude":"-0.150603"},"context":"","outcome_status":{"category":"Court result unavailable","date":"2018-02"},"persistent_id":"24938a64bb64d2089110b461fa4f362b591ba0ea59f58f11dd899f0a3ccc4c37","id":59487482,"location_subtype":"","month":"2017-08"},{"category":"theft-from-the-person","location_type":"Force","location":{"latitude":"51.543117","street":{"id":965124,"name":"On or near Nightclub"},"longitude":"-0.149319"},"context":"","outcome_status":{"category":"Status update unavailable","date":"2017-12"},"persistent_id":"5d989f1417ec1a01f70f7c35514cf4de1cedfc719753f9019b8bce3389193456","id":59447895,"location_subtype":"","month":"2017-08"},{"category":"theft-from-the-person","location_type":"Force","location":{"latitude":"51.548190","street":{"id":967882,"name":"On or near Fountain Mews"},"longitude":"-0.160233"},"context":"","outcome_status":{"category":"Investigation complete; no suspect identified","date":"2017-08"},"persistent_id":"93305391e3bf1af59529906489e677ffde64bf487548e08855b32c3432718a2b","id":59448229,"location_subtype":"","month":"2017-08"},{"category":"theft-from-the-person","location_type":"Force","location":{"latitude":"51.547176","street":{"id":967957,"name":"On or near Marsden Street"},"longitude":"-0.151837"},"context":"","outcome_status":{"category":"Status update unavailable","date":"2017-12"},"persistent_id":"ffe5cb98a5ef4f70bae82702c3c840f01e7cb66a29741681395f0f516d6c8adf","id":59440698,"location_subtype":"","month":"2017-08"},{"category":"theft-from-the-person","location_type":"Force","location":{"latitude":"51.547451","street":{"id":967946,"name":"On or near Wilkin Street Mews"},"longitude":"-0.147008"},"context":"","outcome_status":{"category":"Status update unavailable","date":"2017-12"},"persistent_id":"c80ce2ca37d14493f8f686fba27f320c3f004b32c920899e9ec3eb759c36ff4a","id":59447872,"location_subtype":"","month":"2017-08"},{"category":"theft-from-the-person","location_type":"Force","location":{"latitude":"51.543619","street":{"id":965115,"name":"On or near Bridge Approach"},"longitude":"-0.154908"},"context":"","outcome_status":{"category":"Status update unavailable","date":"2017-12"},"persistent_id":"c231e1a446c46e5627bc8f63e9f5f1e90bbdc135811445063cae19caeb2cb029","id":59471153,"location_subtype":"","month":"2017-08"},{"category":"theft-from-the-person","location_type":"Force","location":{"latitude":"51.544885","street":{"id":965106,"name":"On or near Crogsland Road"},"longitude":"-0.151958"},"context":"","outcome_status":{"category":"Status update unavailable","date":"2017-12"},"persistent_id":"6aae430097cd29b2d0dfa7451b17abbfa86eaa1e87fdf2e4e92c6fab0e733c30","id":59472988,"location_subtype":"","month":"2017-08"},{"category":"theft-from-the-person","location_type":"Force","location":{"latitude":"51.548956","street":{"id":967874,"name":"On or near Parkhill Road"},"longitude":"-0.158644"},"context":"","outcome_status":{"category":"Status update unavailable","date":"2017-12"},"persistent_id":"2a8e6d9e6b9781fef9f098fbd165d267e8b374599adb01e010804cc34bfdc140","id":59474147,"location_subtype":"","month":"2017-08"},{"category":"theft-from-the-person","location_type":"Force","location":{"latitude":"51.548190","street":{"id":967882,"name":"On or near Fountain Mews"},"longitude":"-0.160233"},"context":"","outcome_status":{"category":"Status update unavailable","date":"2017-12"},"persistent_id":"045e50f7edb9b0d3d074f6f19f237c57c8bdd254948cfa3b080d261dd2e6c396","id":59498649,"location_subtype":"","month":"2017-08"},{"category":"theft-from-the-person","location_type":"Force","location":{"latitude":"51.543452","street":{"id":965126,"name":"On or near Supermarket"},"longitude":"-0.150603"},"context":"","outcome_status":{"category":"Status update unavailable","date":"2017-12"},"persistent_id":"db461d6f8454b228b02c38a711d972f15ff38bd5f237620423207e9cf94a5626","id":59478039,"location_subtype":"","month":"2017-08"},{"category":"theft-from-the-person","location_type":"Force","location":{"latitude":"51.548190","street":{"id":967882,"name":"On or near Fountain Mews"},"longitude":"-0.160233"},"context":"","outcome_status":{"category":"Status update unavailable","date":"2017-12"},"persistent_id":"054e221a871c7c450739de5016b16080660a04d7e337c7cebe60dad412ffa62e","id":59492109,"location_subtype":"","month":"2017-08"},{"category":"theft-from-the-person","location_type":"Force","location":{"latitude":"51.542909","street":{"id":965110,"name":"On or near Chalk Farm Road"},"longitude":"-0.149226"},"context":"","outcome_status":{"category":"Investigation complete; no suspect identified","date":"2017-11"},"persistent_id":"db98447bace7aaa54feaa57f7d0d4d1c873743d441c14ce61277c9ce93a10a96","id":59503319,"location_subtype":"","month":"2017-08"},{"category":"theft-from-the-person","location_type":"Force","location":{"latitude":"51.543452","street":{"id":965126,"name":"On or near Supermarket"},"longitude":"-0.150603"},"context":"","outcome_status":{"category":"Status update unavailable","date":"2017-12"},"persistent_id":"405d60392e904fe9822c5df914ead6826e8b08ee58dd41085f3e7b8534d346de","id":59438844,"location_subtype":"","month":"2017-08"},{"category":"theft-from-the-person","location_type":"Force","location":{"latitude":"51.548264","street":{"id":967816,"name":"On or near Maitland Park Villas"},"longitude":"-0.156365"},"context":"","outcome_status":{"category":"Status update unavailable","date":"2017-12"},"persistent_id":"72afe8f3c4908e45c59512744dc832da6b43621db0e64ccb78bbea83f3bbc67c","id":59497304,"location_subtype":"","month":"2017-08"},{"category":"theft-from-the-person","location_type":"Force","location":{"latitude":"51.548264","street":{"id":967816,"name":"On or near Maitland Park Villas"},"longitude":"-0.156365"},"context":"","outcome_status":{"category":"Status update unavailable","date":"2017-12"},"persistent_id":"f2ce4e0f03a6538cf89cd8a806fb71dd02bd7f39f16958bd9853ca8bd3b3a829","id":59498163,"location_subtype":"","month":"2017-08"},{"category":"theft-from-the-person","location_type":"Force","location":{"latitude":"51.543196","street":{"id":965109,"name":"On or near Chalk Farm Road"},"longitude":"-0.150354"},"context":"","outcome_status":{"category":"Status update unavailable","date":"2017-12"},"persistent_id":"164ce29bc93c0419cf644aeff700d514bd5ec1777b4370bd1ba33b7852659165","id":59498451,"location_subtype":"","month":"2017-08"},{"category":"theft-from-the-person","location_type":"Force","location":{"latitude":"51.543854","street":{"id":965041,"name":"On or near Eton Road"},"longitude":"-0.159571"},"context":"","outcome_status":{"category":"Status update unavailable","date":"2017-12"},"persistent_id":"8324ec42de0a62a832dc793432597f3599b8c493a2e7c120e68b4f64e9a5ce24","id":59499302,"location_subtype":"","month":"2017-08"},{"category":"theft-from-the-person","location_type":"Force","location":{"latitude":"51.544104","street":{"id":965082,"name":"On or near Mead Close"},"longitude":"-0.149754"},"context":"","outcome_status":{"category":"Investigation complete; no suspect identified","date":"2017-10"},"persistent_id":"3a39469a7fdb5079ff870b7e795267b629b356af2c7d724887702ae14b30e85e","id":59454277,"location_subtype":"","month":"2017-08"},{"category":"theft-from-the-person","location_type":"Force","location":{"latitude":"51.545389","street":{"id":967958,"name":"On or near Malden Crescent"},"longitude":"-0.149702"},"context":"","outcome_status":{"category":"Status update unavailable","date":"2017-12"},"persistent_id":"84acaf995a8e5df80b6f3306c7722cd3c7969e329147b8503461ba588e413141","id":59503309,"location_subtype":"","month":"2017-08"},{"category":"theft-from-the-person","location_type":"Force","location":{"latitude":"51.543870","street":{"id":965121,"name":"On or near Adelaide Road"},"longitude":"-0.156614"},"context":"","outcome_status":{"category":"Status update unavailable","date":"2017-12"},"persistent_id":"4ac880476871cf9d1adbe0b1ab01bc1b5b852694fb9951d411641396bd5bc1b1","id":59503618,"location_subtype":"","month":"2017-08"},{"category":"theft-from-the-person","location_type":"Force","location":{"latitude":"51.548264","street":{"id":967816,"name":"On or near Maitland Park Villas"},"longitude":"-0.156365"},"context":"","outcome_status":{"category":"Investigation complete; no suspect identified","date":"2017-09"},"persistent_id":"7f8a557e389245bbcee6531a0fc76439c1d3c5e05bece537581d48ef5fc4214c","id":59506326,"location_subtype":"","month":"2017-08"},{"category":"theft-from-the-person","location_type":"Force","location":{"latitude":"51.544885","street":{"id":965106,"name":"On or near Crogsland Road"},"longitude":"-0.151958"},"context":"","outcome_status":{"category":"Status update unavailable","date":"2017-12"},"persistent_id":"fbf1f634b574d434b90908326ce61940b5ce9b58b6d400e678f9f4394b5127bc","id":59506515,"location_subtype":"","month":"2017-08"},{"category":"theft-from-the-person","location_type":"Force","location":{"latitude":"51.543117","street":{"id":965124,"name":"On or near Nightclub"},"longitude":"-0.149319"},"context":"","outcome_status":{"category":"Status update unavailable","date":"2017-12"},"persistent_id":"79c24732107ad5e4162ac2056d74f7d6c714d19d56f4944da9e2f98c09391e62","id":59506779,"location_subtype":"","month":"2017-08"},{"category":"theft-from-the-person","location_type":"Force","location":{"latitude":"51.543870","street":{"id":965121,"name":"On or near Adelaide Road"},"longitude":"-0.156614"},"context":"","outcome_status":{"category":"Status update unavailable","date":"2017-12"},"persistent_id":"fa7f9332dc9e107a372d361c28679d363e8d4460f9ea1242405e0efd130d3361","id":59500690,"location_subtype":"","month":"2017-08"},{"category":"theft-from-the-person","location_type":"Force","location":{"latitude":"51.545687","street":{"id":967962,"name":"On or near Craddock Street"},"longitude":"-0.153772"},"context":"","outcome_status":{"category":"Status update unavailable","date":"2017-12"},"persistent_id":"ae9fba1116ba03546671f446f9327e7c30f67793dec912803a365510f290abaf","id":59506973,"location_subtype":"","month":"2017-08"},{"category":"theft-from-the-person","location_type":"Force","location":{"latitude":"51.545917","street":{"id":967953,"name":"On or near Prince Of Wales Road"},"longitude":"-0.151267"},"context":"","outcome_status":{"category":"Status update unavailable","date":"2017-12"},"persistent_id":"d5b73823d4a1604433dff7b23f3d79fbe6bbb13f8c096065cb09ba6e4ef212db","id":59497615,"location_subtype":"","month":"2017-08"},{"category":"theft-from-the-person","location_type":"Force","location":{"latitude":"51.542880","street":{"id":965122,"name":"On or near Petrol Station"},"longitude":"-0.147425"},"context":"","outcome_status":{"category":"Status update unavailable","date":"2017-12"},"persistent_id":"9e54dc2ac45a26a0ac4521a9c3d0962251ab2a60becd61c2dbba08b82f5a8a01","id":59507801,"location_subtype":"","month":"2017-08"},{"category":"theft-from-the-person","location_type":"Force","location":{"latitude":"51.544798","street":{"id":965102,"name":"On or near Eton College Road"},"longitude":"-0.156115"},"context":"","outcome_status":{"category":"Status update unavailable","date":"2017-12"},"persistent_id":"ac6402b7f4f1fceb04ffbd598cdceb25268d33a0b435100474b5fd9d9f328378","id":59509920,"location_subtype":"","month":"2017-08"},{"category":"theft-from-the-person","location_type":"Force","location":{"latitude":"51.543117","street":{"id":965124,"name":"On or near Nightclub"},"longitude":"-0.149319"},"context":"","outcome_status":{"category":"Investigation complete; no suspect identified","date":"2017-09"},"persistent_id":"0295e860f8b705f6112dca9c38cd0838af0a4d1e36d9475fda7666f4d892d5ac","id":59509158,"location_subtype":"","month":"2017-08"},{"category":"theft-from-the-person","location_type":"Force","location":{"latitude":"51.545917","street":{"id":967953,"name":"On or near Prince Of Wales Road"},"longitude":"-0.151267"},"context":"","outcome_status":{"category":"Status update unavailable","date":"2017-12"},"persistent_id":"7e6eff11c204351ab46b0eecb6c624e1ab81dce70ffe89350bad3ce68694e87f","id":59511908,"location_subtype":"","month":"2017-08"},{"category":"theft-from-the-person","location_type":"Force","location":{"latitude":"51.542909","street":{"id":965110,"name":"On or near Chalk Farm Road"},"longitude":"-0.149226"},"context":"","outcome_status":{"category":"Investigation complete; no suspect identified","date":"2017-09"},"persistent_id":"8071838773821994f775cb9c93a4348eb8b289c80a38e49d4b581f5cae70b89c","id":59507717,"location_subtype":"","month":"2017-08"},{"category":"theft-from-the-person","location_type":"Force","location":{"latitude":"51.543733","street":{"id":965094,"name":"On or near Harmood Grove"},"longitude":"-0.146770"},"context":"","outcome_status":{"category":"Investigation complete; no suspect identified","date":"2017-08"},"persistent_id":"0900b988ab0ee559eb894f7c7a848cfef8c7641d6e853e8097793a7289b525a6","id":59443233,"location_subtype":"","month":"2017-08"},{"category":"theft-from-the-person","location_type":"Force","location":{"latitude":"51.543117","street":{"id":965124,"name":"On or near Nightclub"},"longitude":"-0.149319"},"context":"","outcome_status":{"category":"Investigation complete; no suspect identified","date":"2017-09"},"persistent_id":"1524f441b41ad567033527ff0b72d59ac7bd0dc93a8fe5e6d0e4ea4a21b6ac86","id":59507198,"location_subtype":"","month":"2017-08"},{"category":"theft-from-the-person","location_type":"Force","location":{"latitude":"51.542880","street":{"id":965122,"name":"On or near Petrol Station"},"longitude":"-0.147425"},"context":"","outcome_status":{"category":"Status update unavailable","date":"2017-12"},"persistent_id":"d59b113c6d7c6f8db6cb6fc9cd3bf05ca8889d98312e463640ad241aad725dd3","id":59440656,"location_subtype":"","month":"2017-08"},{"category":"theft-from-the-person","location_type":"Force","location":{"latitude":"51.543619","street":{"id":965115,"name":"On or near Bridge Approach"},"longitude":"-0.154908"},"context":"","outcome_status":{"category":"Investigation complete; no suspect identified","date":"2017-10"},"persistent_id":"2e7e6442564c3f6a2b915cdf82a2cb06722ab7dfcda6058d8eacf2c8ee9a77d4","id":59506341,"location_subtype":"","month":"2017-08"},{"category":"theft-from-the-person","location_type":"Force","location":{"latitude":"51.543946","street":{"id":965108,"name":"On or near Clarence Way"},"longitude":"-0.146588"},"context":"","outcome_status":{"category":"Status update unavailable","date":"2017-12"},"persistent_id":"e55492fd2b47f4dc76bd7a05f78e82b93b8f4194a11f94fd893dae79b0c35894","id":59442912,"location_subtype":"","month":"2017-08"},{"category":"theft-from-the-person","location_type":"Force","location":{"latitude":"51.543452","street":{"id":965126,"name":"On or near Supermarket"},"longitude":"-0.150603"},"context":"","outcome_status":{"category":"Status update unavailable","date":"2017-12"},"persistent_id":"19b9053f4997e03fc3f35c9572ca56ee5ca4d358c2d4f7e88829688c85119671","id":59441669,"location_subtype":"","month":"2017-08"},{"category":"theft-from-the-person","location_type":"Force","location":{"latitude":"51.542909","street":{"id":965110,"name":"On or near Chalk Farm Road"},"longitude":"-0.149226"},"context":"","outcome_status":{"category":"Status update unavailable","date":"2017-12"},"persistent_id":"c5014496f6f334b292e4a65a1b89d61c8108e58252da9e3ebd4c4a89edb39531","id":59447870,"location_subtype":"","month":"2017-08"},{"category":"theft-from-the-person","location_type":"Force","location":{"latitude":"51.546767","street":{"id":967956,"name":"On or near Modbury Gardens"},"longitude":"-0.154983"},"context":"","outcome_status":{"category":"Status update unavailable","date":"2017-12"},"persistent_id":"4979889f750f3dca595cac44c2946e145353c37c127987f8d3cf8ba979e64802","id":59450140,"location_subtype":"","month":"2017-08"},{"category":"theft-from-the-person","location_type":"Force","location":{"latitude":"51.548190","street":{"id":967882,"name":"On or near Fountain Mews"},"longitude":"-0.160233"},"context":"","outcome_status":{"category":"Status update unavailable","date":"2017-12"},"persistent_id":"d2f4500c51b0345b518b930b0f4825725c588f9ffd3f6ce8a435e59886105eb7","id":59451136,"location_subtype":"","month":"2017-08"},{"category":"theft-from-the-person","location_type":"Force","location":{"latitude":"51.542880","street":{"id":965122,"name":"On or near Petrol Station"},"longitude":"-0.147425"},"context":"","outcome_status":{"category":"Status update unavailable","date":"2017-12"},"persistent_id":"bbb77bd692facc10e18f8175fa8fbf8f8c77e01638fc00a49860c9c1906fe586","id":59438538,"location_subtype":"","month":"2017-08"},{"category":"theft-from-the-person","location_type":"Force","location":{"latitude":"51.545746","street":{"id":967947,"name":"On or near Truro Street"},"longitude":"-0.152962"},"context":"","outcome_status":{"category":"Status update unavailable","date":"2017-12"},"persistent_id":"d89561d4cac1e12c92ef223cf8354dfeb5dee6e9da6b2d4711b47e6c5b4c4354","id":59452316,"location_subtype":"","month":"2017-08"},{"category":"theft-from-the-person","location_type":"Force","location":{"latitude":"51.543452","street":{"id":965126,"name":"On or near Supermarket"},"longitude":"-0.150603"},"context":"","outcome_status":{"category":"Status update unavailable","date":"2017-12"},"persistent_id":"08081ffcfa0dce558482946e207fb009e0be30bfdcda0e5eac4ad922d60cf609","id":59453184,"location_subtype":"","month":"2017-08"},{"category":"theft-from-the-person","location_type":"Force","location":{"latitude":"51.548190","street":{"id":967882,"name":"On or near Fountain Mews"},"longitude":"-0.160233"},"context":"","outcome_status":{"category":"Status update unavailable","date":"2017-12"},"persistent_id":"3bb5c6aec9881b402a4c403baa6d2395b2fbfeaa341f2504254b3a2d693897da","id":59437490,"location_subtype":"","month":"2017-08"},{"category":"theft-from-the-person","location_type":"Force","location":{"latitude":"51.543733","street":{"id":965094,"name":"On or near Harmood Grove"},"longitude":"-0.146770"},"context":"","outcome_status":{"category":"Status update unavailable","date":"2017-12"},"persistent_id":"0699f84ab2560cb7ee16df51090ee8b8dbc35dd108c6cc0aecdf855de547ac38","id":59459962,"location_subtype":"","month":"2017-08"},{"category":"theft-from-the-person","location_type":"Force","location":{"latitude":"51.543870","street":{"id":965121,"name":"On or near Adelaide Road"},"longitude":"-0.156614"},"context":"","outcome_status":{"category":"Status update unavailable","date":"2017-12"},"persistent_id":"240b35aab5d6d360a69e148ffeac5180d9f514311cfe85d3b411cace3e82a971","id":59459963,"location_subtype":"","month":"2017-08"},{"category":"theft-from-the-person","location_type":"Force","location":{"latitude":"51.546624","street":{"id":967961,"name":"On or near Dalby Street"},"longitude":"-0.147042"},"context":"","outcome_status":{"category":"Investigation complete; no suspect identified","date":"2017-09"},"persistent_id":"ff1256e5475ba552b49cf55f6f4852ad116695d9fef5615c723cbb1fa495830c","id":59462523,"location_subtype":"","month":"2017-08"},{"category":"theft-from-the-person","location_type":"Force","location":{"latitude":"51.545687","street":{"id":967962,"name":"On or near Craddock Street"},"longitude":"-0.153772"},"context":"","outcome_status":{"category":"Status update unavailable","date":"2017-12"},"persistent_id":"afa4e13b464cef0a032f00ca8178f8ea49694884cee3d22b6e4432e64bd75ad8","id":59463394,"location_subtype":"","month":"2017-08"},{"category":"theft-from-the-person","location_type":"Force","location":{"latitude":"51.543117","street":{"id":965124,"name":"On or near Nightclub"},"longitude":"-0.149319"},"context":"","outcome_status":{"category":"Status update unavailable","date":"2017-12"},"persistent_id":"fb90d83abac4c0259c3ca54e9d0363a232529bd72c4eabe06b6b7dad51def064","id":59466889,"location_subtype":"","month":"2017-08"},{"category":"theft-from-the-person","location_type":"Force","location":{"latitude":"51.547451","street":{"id":967946,"name":"On or near Wilkin Street Mews"},"longitude":"-0.147008"},"context":"","outcome_status":{"category":"Status update unavailable","date":"2017-12"},"persistent_id":"84b1013e365e68e68ec955ef45d34b5512114589e2db4d78de2396e54dfb0a73","id":59506342,"location_subtype":"","month":"2017-08"},{"category":"vehicle-crime","location_type":"Force","location":{"latitude":"51.545404","street":{"id":967964,"name":"On or near Castle Mews"},"longitude":"-0.146659"},"context":"","outcome_status":{"category":"Status update unavailable","date":"2017-12"},"persistent_id":"49ab4d4d8098d8e97b8de7e775ebbe0c1cf5892f3745472a84af682dbdb6aada","id":59439022,"location_subtype":"","month":"2017-08"},{"category":"vehicle-crime","location_type":"Force","location":{"latitude":"51.546880","street":{"id":967948,"name":"On or near Talacre Road"},"longitude":"-0.149036"},"context":"","outcome_status":{"category":"Status update unavailable","date":"2017-12"},"persistent_id":"0d7ef4c8d0c73040b1a1b987c053228ebacae5cdc8390a633085898c3f92df45","id":59512955,"location_subtype":"","month":"2017-08"},{"category":"vehicle-crime","location_type":"Force","location":{"latitude":"51.547176","street":{"id":967957,"name":"On or near Marsden Street"},"longitude":"-0.151837"},"context":"","outcome_status":{"category":"Status update unavailable","date":"2017-12"},"persistent_id":"4e517fcd2dc14dc3568d65f4733d47d214b7528d919a86ee1e293fcdcf4bbf12","id":59448057,"location_subtype":"","month":"2017-08"},{"category":"vehicle-crime","location_type":"Force","location":{"latitude":"51.548956","street":{"id":967874,"name":"On or near Parkhill Road"},"longitude":"-0.158644"},"context":"","outcome_status":{"category":"Status update unavailable","date":"2017-12"},"persistent_id":"20c42505b553bed3aaa9c29619dabfa41befe5ef1ec2c80bdd19bed1ae82daf6","id":59505032,"location_subtype":"","month":"2017-08"},{"category":"vehicle-crime","location_type":"Force","location":{"latitude":"51.545389","street":{"id":967958,"name":"On or near Malden Crescent"},"longitude":"-0.149702"},"context":"","outcome_status":{"category":"Status update unavailable","date":"2017-12"},"persistent_id":"6b0d12dd2dfec5f38bebc4caffedbba02d650d33abf21a0dace9780f446a1f33","id":59497872,"location_subtype":"","month":"2017-08"},{"category":"vehicle-crime","location_type":"Force","location":{"latitude":"51.549222","street":{"id":967828,"name":"On or near Allcroft Road"},"longitude":"-0.150989"},"context":"","outcome_status":{"category":"Status update unavailable","date":"2017-12"},"persistent_id":"2764692bfcd5f2d11fc5f516e3621ce2aeb4bc7e4bf097f22459db0cfb99cdb2","id":59512387,"location_subtype":"","month":"2017-08"},{"category":"vehicle-crime","location_type":"Force","location":{"latitude":"51.543619","street":{"id":965115,"name":"On or near Bridge Approach"},"longitude":"-0.154908"},"context":"","outcome_status":{"category":"Status update unavailable","date":"2017-12"},"persistent_id":"a7d49dcd45cc26af2e9ddc880ae4d32aab72f00866190f7b3bf25946a773ccd8","id":59492736,"location_subtype":"","month":"2017-08"},{"category":"violent-crime","location_type":"Force","location":{"latitude":"51.543452","street":{"id":965126,"name":"On or near Supermarket"},"longitude":"-0.150603"},"context":"","outcome_status":{"category":"Status update unavailable","date":"2017-12"},"persistent_id":"04265fac669019b30a5c98450f0f0be7cc3b47879bd1e44dc2d0fcdc76d5f89c","id":59452785,"location_subtype":"","month":"2017-08"},{"category":"violent-crime","location_type":"Force","location":{"latitude":"51.545917","street":{"id":967953,"name":"On or near Prince Of Wales Road"},"longitude":"-0.151267"},"context":"","outcome_status":{"category":"Investigation complete; no suspect identified","date":"2017-09"},"persistent_id":"32b1bad574ac6ac8cea909afcbe9a072d01e10edec7339d731619c4ec9748980","id":59438331,"location_subtype":"","month":"2017-08"},{"category":"violent-crime","location_type":"Force","location":{"latitude":"51.544080","street":{"id":965118,"name":"On or near Belmont Street"},"longitude":"-0.151082"},"context":"","outcome_status":{"category":"Defendant found not guilty","date":"2017-10"},"persistent_id":"ae7b8100c5d0990152170a219d8d989e12c022e5fa5e703968b92ad6d5a2d34a","id":59472794,"location_subtype":"","month":"2017-08"},{"category":"violent-crime","location_type":"Force","location":{"latitude":"51.545389","street":{"id":967958,"name":"On or near Malden Crescent"},"longitude":"-0.149702"},"context":"","outcome_status":{"category":"Investigation complete; no suspect identified","date":"2017-09"},"persistent_id":"f62c02d1f45349404718b9bbe07413375d0aa681a839ae1930f7734e0de26bdf","id":59498204,"location_subtype":"","month":"2017-08"},{"category":"violent-crime","location_type":"Force","location":{"latitude":"51.548656","street":{"id":967813,"name":"On or near Malden Road"},"longitude":"-0.152685"},"context":"","outcome_status":{"category":"Status update unavailable","date":"2017-12"},"persistent_id":"32a9bc16d953db0c451dd41c41f73a28cc0999a5225470b20df904f40e672bae","id":59507032,"location_subtype":"","month":"2017-08"},{"category":"violent-crime","location_type":"Force","location":{"latitude":"51.543452","street":{"id":965126,"name":"On or near Supermarket"},"longitude":"-0.150603"},"context":"","outcome_status":{"category":"Offender given a caution","date":"2017-10"},"persistent_id":"856fe1b265a30efabd411efce85bae628d858c2de9ee1575cba37a5f5fce9e35","id":59442248,"location_subtype":"","month":"2017-08"},{"category":"violent-crime","location_type":"Force","location":{"latitude":"51.547176","street":{"id":967957,"name":"On or near Marsden Street"},"longitude":"-0.151837"},"context":"","outcome_status":{"category":"Investigation complete; no suspect identified","date":"2017-11"},"persistent_id":"ca1480c99f06e9dd3f23336df6c2fd8dca45a32b3e1094b426bf3ee777255fa0","id":59479482,"location_subtype":"","month":"2017-08"},{"category":"violent-crime","location_type":"Force","location":{"latitude":"51.544080","street":{"id":965118,"name":"On or near Belmont Street"},"longitude":"-0.151082"},"context":"","outcome_status":{"category":"Status update unavailable","date":"2017-12"},"persistent_id":"26f973f5501d5def3728651fee85a37873cf750d5b015a4ec25417ebc7622d86","id":59464852,"location_subtype":"","month":"2017-08"},{"category":"violent-crime","location_type":"Force","location":{"latitude":"51.548245","street":{"id":967825,"name":"On or near Athlone Street"},"longitude":"-0.148346"},"context":"","outcome_status":{"category":"Offender given a caution","date":"2017-09"},"persistent_id":"61d7cd98b3b7facca8e32d76a2c8642c4b4e519cb0b5cfd2894b071b4cc17328","id":59466492,"location_subtype":"","month":"2017-08"},{"category":"violent-crime","location_type":"Force","location":{"latitude":"51.544736","street":{"id":965079,"name":"On or near Powlett Place"},"longitude":"-0.147623"},"context":"","outcome_status":{"category":"Investigation complete; no suspect identified","date":"2018-02"},"persistent_id":"a43be5b152663e7c880f4cdf7b230cedb83f03801fbf5fda6bcf691b245a504b","id":59504444,"location_subtype":"","month":"2017-08"},{"category":"violent-crime","location_type":"Force","location":{"latitude":"51.543117","street":{"id":965124,"name":"On or near Nightclub"},"longitude":"-0.149319"},"context":"","outcome_status":{"category":"Status update unavailable","date":"2017-12"},"persistent_id":"942ba9e048cbebbe1c5c84a3bae0d6077dcf450cd5c0529299afe2600d1c6c08","id":59467921,"location_subtype":"","month":"2017-08"},{"category":"violent-crime","location_type":"Force","location":{"latitude":"51.544080","street":{"id":965118,"name":"On or near Belmont Street"},"longitude":"-0.151082"},"context":"","outcome_status":{"category":"Status update unavailable","date":"2017-12"},"persistent_id":"9fb79aca472fa6d1a1a4918d07f309c041c5b0704a3529de1a2ddd3d84b3c91a","id":59447177,"location_subtype":"","month":"2017-08"},{"category":"violent-crime","location_type":"Force","location":{"latitude":"51.543452","street":{"id":965126,"name":"On or near Supermarket"},"longitude":"-0.150603"},"context":"","outcome_status":{"category":"Status update unavailable","date":"2017-12"},"persistent_id":"ad93e25761efac379ae13c583a11b0d3bbaa9086bf5402681fae80c6ab4e5e70","id":59469258,"location_subtype":"","month":"2017-08"},{"category":"violent-crime","location_type":"Force","location":{"latitude":"51.542909","street":{"id":965110,"name":"On or near Chalk Farm Road"},"longitude":"-0.149226"},"context":"","outcome_status":{"category":"Investigation complete; no suspect identified","date":"2017-09"},"persistent_id":"1881406ba1cdd2c1ee501cac0e52f63cbdc87368c6e20e4c8020d0db4e78d43e","id":59469618,"location_subtype":"","month":"2017-08"},{"category":"violent-crime","location_type":"Force","location":{"latitude":"51.549345","street":{"id":967817,"name":"On or near Herbert Street"},"longitude":"-0.154186"},"context":"","outcome_status":{"category":"Status update unavailable","date":"2017-12"},"persistent_id":"3c1da32f9039d32e0de4d123f8aea725ccb612be5cc3ee72bb13ece63ed767c9","id":59512896,"location_subtype":"","month":"2017-08"},{"category":"violent-crime","location_type":"Force","location":{"latitude":"51.543117","street":{"id":965124,"name":"On or near Nightclub"},"longitude":"-0.149319"},"context":"","outcome_status":{"category":"Status update unavailable","date":"2017-12"},"persistent_id":"942ba9e048cbebbe1c5c84a3bae0d6077dcf450cd5c0529299afe2600d1c6c08","id":59472446,"location_subtype":"","month":"2017-08"},{"category":"violent-crime","location_type":"Force","location":{"latitude":"51.548767","street":{"id":967811,"name":"On or near Queen's Crescent"},"longitude":"-0.153503"},"context":"","outcome_status":{"category":"Status update unavailable","date":"2017-12"},"persistent_id":"9ac993f2bec7eecbed3e1467272b90c773576fdb72480aad096d7c8bb8d9707d","id":59472730,"location_subtype":"","month":"2017-08"},{"category":"violent-crime","location_type":"BTP","location":{"latitude":"51.544100","street":{"id":1488687,"name":"Chalk Farm (lu Station)"},"longitude":"-0.153820"},"context":"","outcome_status":{"category":"Status update unavailable","date":"2017-12"},"persistent_id":"","id":66342917,"location_subtype":"LU STATION","month":"2017-08"},{"category":"violent-crime","location_type":"BTP","location":{"latitude":"51.546900","street":{"id":1486840,"name":"Kentish Town West (station)"},"longitude":"-0.146810"},"context":"","outcome_status":{"category":"Status update unavailable","date":"2017-12"},"persistent_id":"","id":66345631,"location_subtype":"STATION","month":"2017-08"},{"category":"violent-crime","location_type":"Force","location":{"latitude":"51.545687","street":{"id":967962,"name":"On or near Craddock Street"},"longitude":"-0.153772"},"context":"","outcome_status":{"category":"Investigation complete; no suspect identified","date":"2017-09"},"persistent_id":"de571b7feb2744d5db36e65c6dffaea4c9082f5e2da6686bd298d687603848ae","id":59463810,"location_subtype":"","month":"2017-08"},{"category":"violent-crime","location_type":"Force","location":{"latitude":"51.550499","street":{"id":967814,"name":"On or near Malden Road"},"longitude":"-0.154428"},"context":"","outcome_status":{"category":"Awaiting court outcome","date":"2018-04"},"persistent_id":"ece81d2690bdf62be8a4c2c951fc234e028eab726aed5f18993ab5f233af7006","id":59458158,"location_subtype":"","month":"2017-08"},{"category":"violent-crime","location_type":"Force","location":{"latitude":"51.544080","street":{"id":965118,"name":"On or near Belmont Street"},"longitude":"-0.151082"},"context":"","outcome_status":{"category":"Status update unavailable","date":"2017-12"},"persistent_id":"81a7d64d793bb77806ff26548b54a9ee99280d70346c4a36882a2f1a46fd40b7","id":59450738,"location_subtype":"","month":"2017-08"},{"category":"violent-crime","location_type":"Force","location":{"latitude":"51.543870","street":{"id":965121,"name":"On or near Adelaide Road"},"longitude":"-0.156614"},"context":"","outcome_status":{"category":"Investigation complete; no suspect identified","date":"2017-09"},"persistent_id":"998c01c3d8d17e42fde3888a91d8c69427368d7a559b6fb6627633082691ba77","id":59496074,"location_subtype":"","month":"2017-08"},{"category":"violent-crime","location_type":"Force","location":{"latitude":"51.546767","street":{"id":967956,"name":"On or near Modbury Gardens"},"longitude":"-0.154983"},"context":"","outcome_status":{"category":"Investigation complete; no suspect identified","date":"2017-09"},"persistent_id":"aa3436cc2ac8ef060ce72c1df1304eac34db0959b0f796c9dd1f34fe6e0cdc8c","id":59503342,"location_subtype":"","month":"2017-08"},{"category":"violent-crime","location_type":"Force","location":{"latitude":"51.543452","street":{"id":965126,"name":"On or near Supermarket"},"longitude":"-0.150603"},"context":"","outcome_status":{"category":"Investigation complete; no suspect identified","date":"2017-09"},"persistent_id":"880bc5d8eb214e219257248913adf73ce3f40990ac11216e2373091b052ac559","id":59477300,"location_subtype":"","month":"2017-08"},{"category":"other-crime","location_type":"Force","location":{"latitude":"51.543735","street":{"id":965100,"name":"On or near Ferdinand Street"},"longitude":"-0.149164"},"context":"","outcome_status":{"category":"Court result unavailable","date":"2018-03"},"persistent_id":"6ff25bcc9fe4df686550c01fda2e19551f36179b13af340d698ef888e5bba386","id":59506217,"location_subtype":"","month":"2017-08"}]