[{"category":"anti-social-behaviour","location_type":"Force","location":{"latitude":"51.522559","street":{"id":962550,"name":"On or near Mallards Road"},"longitude":"0.108615"},"context":"","outcome_status":null,"persistent_id":"","id":59432582,"location_subtype":"","month":"2017-08"},{"category":"anti-social-behaviour","location_type":"Force","location":{"latitude":"51.522559","street":{"id":962550,"name":"On or near Mallards Road"},"longitude":"0.108615"},"context":"","outcome_status":null,"persistent_id":"","id":59432587,"location_subtype":"","month":"2017-08"},{"category":"anti-social-behaviour","location_type":"Force","location":{"latitude":"51.522559","street":{"id":962550,"name":"On or near Mallards Road"},"longitude":"0.108615"},"context":"","outcome_status":null,"persistent_id":"","id":59432589,"location_subtype":"","month":"2017-08"},{"category":"anti-social-behaviour","location_type":"Force","location":{"latitude":"51.522559","street":{"id":962550,"name":"On or near Mallards Road"},"longitude":"0.108615"},"context":"","outcome_status":null,"persistent_id":"","id":59432590,"location_subtype":"","month":"2017-08"},{"category":"anti-social-behaviour","location_type":"Force","location":{"latitude":"51.532721","street":{"id":962986,"name":"On or near Ripple Road"},"longitude":"0.109114"},"context":"","outcome_status":null,"persistent_id":"","id":59432598,"location_subtype":"","month":"2017-08"},{"category":"anti-social-behaviour","location_type":"Force","location":{"latitude":"51.529844","street":{"id":963155,"name":"On or near Maybury Road"},"longitude":"0.105102"},"context":"","outcome_status":null,"persistent_id":"","id":59432629,"location_subtype":"","month":"2017-08"},{"category":"anti-social-behaviour","location_type":"Force","location":{"latitude":"51.530270","street":{"id":963157,"name":"On or near Charlton Crescent"},"longitude":"0.098893"},"context":"","outcome_status":null,"persistent_id":"","id":59432661,"location_subtype":"","month":"2017-08"},{"category":"anti-social-behaviour","location_type":"Force","location":{"latitude":"51.534273","street":{"id":963030,"name":"On or near Goresbrook Road"},"longitude":"0.115847"},"context":"","outcome_status":null,"persistent_id":"","id":59432519,"location_subtype":"","month":"2017-08"},{"category":"anti-social-behaviour","location_type":"Force","location":{"latitude":"51.527917","street":{"id":963056,"name":"On or near Crouch Avenue"},"longitude":"0.115235"},"context":"","outcome_status":null,"persistent_id":"","id":59432523,"location_subtype":"","month":"2017-08"},{"category":"anti-social-behaviour","location_type":"Force","location":{"latitude":"51.526396","street":{"id":962539,"name":"On or near Havering Way"},"longitude":"0.113809"},"context":"","outcome_status":null,"persistent_id":"","id":59432529,"location_subtype":"","month":"2017-08"},{"category":"anti-social-behaviour","location_type":"Force","location":{"latitude":"51.526396","street":{"id":962539,"name":"On or near Havering Way"},"longitude":"0.113809"},"context":"","outcome_status":null,"persistent_id":"","id":59432531,"location_subtype":"","month":"2017-08"},{"category":"anti-social-behaviour","location_type":"Force","location":{"latitude":"51.528565","street":{"id":963060,"name":"On or near Roxwell Road"},"longitude":"0.109195"},"context":"","outcome_status":null,"persistent_id":"","id":59432561,"location_subtype":"","month":"2017-08"},{"category":"anti-social-behaviour","location_type":"Force","location":{"latitude":"51.534273","street":{"id":963030,"name":"On or near Goresbrook Road"},"longitude":"0.115847"},"context":"","outcome_status":null,"persistent_id":"","id":59432507,"location_subtype":"","month":"2017-08"},{"category":"anti-social-behaviour","location_type":"Force","location":{"latitude":"51.527918","street":{"id":963057,"name":"On or near Abridge Way"},"longitude":"0.116187"},"context":"","outcome_status":null,"persistent_id":"","id":59432521,"location_subtype":"","month":"2017-08"},{"category":"anti-social-behaviour","location_type":"Force","location":{"latitude":"51.528565","street":{"id":963060,"name":"On or near Roxwell Road"},"longitude":"0.109195"},"context":"","outcome_status":null,"persistent_id":"","id":59432563,"location_subtype":"","month":"2017-08"},{"category":"anti-social-behaviour","location_type":"Force","location":{"latitude":"51.522559","street":{"id":962550,"name":"On or near Mallards Road"},"longitude":"0.108615"},"context":"","outcome_status":null,"persistent_id":"","id":59432585,"location_subtype":"","month":"2017-08"},{"category":"anti-social-behaviour","location_type":"Force","location":{"latitude":"51.532721","street":{"id":962986,"name":"On or near Ripple Road"},"longitude":"0.109114"},"context":"","outcome_status":null,"persistent_id":"","id":59432595,"location_subtype":"","month":"2017-08"},{"category":"anti-social-behaviour","location_type":"Force","location":{"latitude":"51.522370","street":{"id":962552,"name":"On or near Grebe Close"},"longitude":"0.109125"},"context":"","outcome_status":null,"persistent_id":"","id":59432605,"location_subtype":"","month":"2017-08"},{"category":"anti-social-behaviour","location_type":"Force","location":{"latitude":"51.516739","street":{"id":962533,"name":"On or near Atcost Road"},"longitude":"0.104210"},"context":"","outcome_status":null,"persistent_id":"","id":59432611,"location_subtype":"","month":"2017-08"},{"category":"anti-social-behaviour","location_type":"Force","location":{"latitude":"51.529301","street":{"id":963150,"name":"On or near Ray Gardens"},"longitude":"0.105784"},"context":"","outcome_status":null,"persistent_id":"","id":59432613,"location_subtype":"","month":"2017-08"},{"category":"anti-social-behaviour","location_type":"Force","location":{"latitude":"51.529301","street":{"id":963150,"name":"On or near Ray Gardens"},"longitude":"0.105784"},"context":"","outcome_status":null,"persistent_id":"","id":59432615,"location_subtype":"","month":"2017-08"},{"category":"anti-social-behaviour","location_type":"Force","location":{"latitude":"51.529235","street":{"id":963151,"name":"On or near Farr Avenue"},"longitude":"0.104454"},"context":"","outcome_status":null,"persistent_id":"","id":59432635,"location_subtype":"","month":"2017-08"},{"category":"anti-social-behaviour","location_type":"Force","location":{"latitude":"51.521269","street":{"id":923855,"name":"On or near River Road"},"longitude":"0.096822"},"context":"","outcome_status":null,"persistent_id":"","id":59432665,"location_subtype":"","month":"2017-08"},{"category":"anti-social-behaviour","location_type":"Force","location":{"latitude":"51.524924","street":{"id":962525,"name":"On or near Shopping Area"},"longitude":"0.094092"},"context":"","outcome_status":null,"persistent_id":"","id":59432669,"location_subtype":"","month":"2017-08"},{"category":"anti-social-behaviour","location_type":"Force","location":{"latitude":"51.521269","street":{"id":923855,"name":"On or near River Road"},"longitude":"0.096822"},"context":"","outcome_status":null,"persistent_id":"","id":59432663,"location_subtype":"","month":"2017-08"},{"category":"anti-social-behaviour","location_type":"Force","location":{"latitude":"51.530270","street":{"id":963157,"name":"On or near Charlton Crescent"},"longitude":"0.098893"},"context":"","outcome_status":null,"persistent_id":"","id":59432652,"location_subtype":"","month":"2017-08"},{"category":"anti-social-behaviour","location_type":"Force","location":{"latitude":"51.534273","street":{"id":963030,"name":"On or near Goresbrook Road"},"longitude":"0.115847"},"context":"","outcome_status":null,"persistent_id":"","id":59432515,"location_subtype":"","month":"2017-08"},{"category":"anti-social-behaviour","location_type":"Force","location":{"latitude":"51.532610","street":{"id":962900,"name":"On or near Parking Area"},"longitude":"0.132683"},"context":"","outcome_status":null,"persistent_id":"","id":59422334,"location_subtype":"","month":"2017-08"},{"category":"anti-social-behaviour","location_type":"Force","location":{"latitude":"51.530192","street":{"id":962974,"name":"On or near Petrol Station"},"longitude":"0.143946"},"context":"","outcome_status":null,"persistent_id":"","id":59431114,"location_subtype":"","month":"2017-08"},{"category":"anti-social-behaviour","location_type":"Force","location":{"latitude":"51.530192","street":{"id":962974,"name":"On or near Petrol Station"},"longitude":"0.143946"},"context":"","outcome_status":null,"persistent_id":"","id":59431116,"location_subtype":"","month":"2017-08"},{"category":"anti-social-behaviour","location_type":"Force","location":{"latitude":"51.532610","street":{"id":962900,"name":"On or near Parking Area"},"longitude":"0.132683"},"context":"","outcome_status":null,"persistent_id":"","id":59431253,"location_subtype":"","month":"2017-08"},{"category":"anti-social-behaviour","location_type":"Force","location":{"latitude":"51.532610","street":{"id":962900,"name":"On or near Parking Area"},"longitude":"0.132683"},"context":"","outcome_status":null,"persistent_id":"","id":59431255,"location_subtype":"","month":"2017-08"},{"category":"anti-social-behaviour","location_type":"Force","location":{"latitude":"51.531834","street":{"id":962999,"name":"On or near Pedestrian Subway"},"longitude":"0.128869"},"context":"","outcome_status":null,"persistent_id":"","id":59431304,"location_subtype":"","month":"2017-08"},{"category":"anti-social-behaviour","location_type":"Force","location":{"latitude":"51.529445","street":{"id":963061,"name":"On or near Wivenhoe Road"},"longitude":"0.110779"},"context":"","outcome_status":null,"persistent_id":"","id":59432542,"location_subtype":"","month":"2017-08"},{"category":"anti-social-behaviour","location_type":"Force","location":{"latitude":"51.529445","street":{"id":963061,"name":"On or near Wivenhoe Road"},"longitude":"0.110779"},"context":"","outcome_status":null,"persistent_id":"","id":59432544,"location_subtype":"","month":"2017-08"},{"category":"anti-social-behaviour","location_type":"Force","location":{"latitude":"51.529445","street":{"id":963061,"name":"On or near Wivenhoe Road"},"longitude":"0.110779"},"context":"","outcome_status":null,"persistent_id":"","id":59432546,"location_subtype":"","month":"2017-08"},{"category":"anti-social-behaviour","location_type":"Force","location":{"latitude":"51.528565","street":{"id":963060,"name":"On or near Roxwell Road"},"longitude":"0.109195"},"context":"","outcome_status":null,"persistent_id":"","id":59432565,"location_subtype":"","month":"2017-08"},{"category":"anti-social-behaviour","location_type":"Force","location":{"latitude":"51.528565","street":{"id":963060,"name":"On or near Roxwell Road"},"longitude":"0.109195"},"context":"","outcome_status":null,"persistent_id":"","id":59432576,"location_subtype":"","month":"2017-08"},{"category":"anti-social-behaviour","location_type":"Force","location":{"latitude":"51.522559","street":{"id":962550,"name":"On or near Mallards Road"},"longitude":"0.108615"},"context":"","outcome_status":null,"persistent_id":"","id":59432578,"location_subtype":"","month":"2017-08"},{"category":"anti-social-behaviour","location_type":"Force","location":{"latitude":"51.522559","street":{"id":962550,"name":"On or near Mallards Road"},"longitude":"0.108615"},"context":"","outcome_status":null,"persistent_id":"","id":59432580,"location_subtype":"","month":"2017-08"},{"category":"anti-social-behaviour","location_type":"Force","location":{"latitude":"51.522559","street":{"id":962550,"name":"On or near Mallards Road"},"longitude":"0.108615"},"context":"","outcome_status":null,"persistent_id":"","id":59432583,"location_subtype":"","month":"2017-08"},{"category":"burglary","location_type":"Force","location":{"latitude":"51.516739","street":{"id":962533,"name":"On or near Atcost Road"},"longitude":"0.104210"},"context":"","outcome_status":{"category":"Investigation complete; no suspect identified","date":"2017-11"},"persistent_id":"b226a5afb61727b99c3aa0d4386fd17c86eaac05aa14895182618dc888dfd20a","id":59477695,"location_subtype":"","month":"2017-08"},{"category":"burglary","location_type":"Force","location":{"latitude":"51.531671","street":{"id":963024,"name":"On or near Ripple Road"},"longitude":"0.122489"},"context":"","outcome_status":{"category":"Status update unavailable","date":"2017-12"},"persistent_id":"ce152893e783fde64fc46fbb6008a197609ca136f24008714e0d6f26bbaa28ac","id":59453381,"location_subtype":"","month":"2017-08"},{"category":"burglary","location_type":"Force","location":{"latitude":"51.529235","street":{"id":963151,"name":"On or near Farr Avenue"},"longitude":"0.104454"},"context":"","outcome_status":{"category":"Court result unavailable","date":"2018-05"},"persistent_id":"c88095af0138272ae373df433196393dcf4a275198c6981fab867eb596c7beb9","id":59457698,"location_subtype":"","month":"2017-08"},{"category":"burglary","location_type":"Force","location":{"latitude":"51.530597","street":{"id":963008,"name":"On or near Steel Approach"},"longitude":"0.116224"},"context":"","outcome_status":{"category":"Status update unavailable","date":"2017-12"},"persistent_id":"80489e1d60fda3cd6a04d7f846f1ca62911093eedbea0cd2df921e7acbaf2692","id":59460262,"location_subtype":"","month":"2017-08"},{"category":"burglary","location_type":"Force","location":{"latitude":"51.525064","street":{"id":962526,"name":"On or near Thames Road"},"longitude":"0.105877"},"context":"","outcome_status":{"category":"Status update unavailable","date":"2017-12"},"persistent_id":"bb717f632f739aeb8ef32f6c3dbe78cac8aae727cf63055aaeef3f803a73a47b","id":59443160,"location_subtype":"","month":"2017-08"},{"category":"burglary","location_type":"Force","location":{"latitude":"51.522087","street":{"id":962547,"name":"On or near Riverdale Close"},"longitude":"0.110885"},"context":"","outcome_status":{"category":"Investigation complete; no suspect identified","date":"2017-10"},"persistent_id":"a501cb6e163394f989f6e1be375a46a89bf20ffe1ad3f8611ad3cb854d9b7611","id":59464340,"location_subtype":"","month":"2017-08"},{"category":"burglary","location_type":"Force","location":{"latitude":"51.528151","street":{"id":963153,"name":"On or near Bastable Avenue"},"longitude":"0.104736"},"context":"","outcome_status":{"category":"Investigation complete; no suspect identified","date":"2017-08"},"persistent_id":"069d0c4ea914d36bbc8947e2a84354b8acd6c4ff016199f8b16421ff55c3d2ff","id":59507189,"location_subtype":"","month":"2017-08"},{"category":"burglary","location_type":"Force","location":{"latitude":"51.524924","street":{"id":962525,"name":"On or near Shopping Area"},"longitude":"0.094092"},"context":"","outcome_status":{"category":"Status update unavailable","date":"2017-12"},"persistent_id":"8a2b02618b9f91043a22dd85cb83737e3550420d0e6c709cdd168d86e1229777","id":59471501,"location_subtype":"","month":"2017-08"},{"category":"burglary","location_type":"Force","location":{"latitude":"51.529582","street":{"id":963156,"name":"On or near Maud Gardens"},"longitude":"0.099121"},"context":"","outcome_status":{"category":"Investigation complete; no suspect identified","date":"2017-10"},"persistent_id":"e6350bf26829c70295bce8d3c46672458b207f8bcf7e2d7269f0fb0e9688e5f8","id":59454704,"location_subtype":"","month":"2017-08"},{"category":"burglary","location_type":"Force","location":{"latitude":"51.525978","street":{"id":962519,"name":"On or near Radford Way"},"longitude":"0.098509"},"context":"","outcome_status":{"category":"Investigation complete; no suspect identified","date":"2017-11"},"persistent_id":"139b6ad6da57a1521b6c7982d8cb247197ee11b77e119cf34c8a024cae8be57a","id":59440647,"location_subtype":"","month":"2017-08"},{"category":"burglary","location_type":"Force","location":{"latitude":"51.527918","street":{"id":963057,"name":"On or near Abridge Way"},"longitude":"0.116187"},"context":"","outcome_status":{"category":"Investigation complete; no suspect identified","date":"2017-08"},"persistent_id":"79718c10ef9d6e538a2488427926d192d3c93059decf627f7c4b8f20b5522b93","id":59452505,"location_subtype":"","month":"2017-08"},{"category":"burglary","location_type":"Force","location":{"latitude":"51.533685","street":{"id":963025,"name":"On or near Maplestead Road"},"longitude":"0.114017"},"context":"","outcome_status":{"category":"Status update unavailable","date":"2017-12"},"persistent_id":"fbf8b12d479d1fe2090fac3bc8597f1d020a22f0b6a2a6a1396f2995f3d59b0d","id":59473754,"location_subtype":"","month":"2017-08"},{"category":"burglary","location_type":"Force","location":{"latitude":"51.526794","street":{"id":962522,"name":"On or near Curzon Crescent"},"longitude":"0.099166"},"context":"","outcome_status":{"category":"Status update unavailable","date":"2017-12"},"persistent_id":"2e64a0d8446593e67d7e9d72be8314da06075a92a406b0143c87a480dcf9712a","id":59475040,"location_subtype":"","month":"2017-08"},{"category":"burglary","location_type":"Force","location":{"latitude":"51.528815","street":{"id":963152,"name":"On or near Endeavour Way"},"longitude":"0.106785"},"context":"","outcome_status":{"category":"Status update unavailable","date":"2017-12"},"persistent_id":"958e8f56c93ce93de05e05fac2277e597b21576177e0c599c3cdc19c7cbdd318","id":59470938,"location_subtype":"","month":"2017-08"},{"category":"criminal-damage-arson","location_type":"Force","location":{"latitude":"51.522484","street":{"id":923574,"name":"On or near Atlantis Close"},"longitude":"0.112288"},"context":"","outcome_status":{"category":"Status update unavailable","date":"2017-12"},"persistent_id":"00b724503424bac1236ce6a8044860ad26a0b51314fb465dd13765bb6235aaf6","id":59465794,"location_subtype":"","month":"2017-08"},{"category":"criminal-damage-arson","location_type":"Force","location":{"latitude":"51.527384","street":{"id":962518,"name":"On or near Stanley Avenue"},"longitude":"0.098847"},"context":"","outcome_status":{"category":"Status update unavailable","date":"2017-12"},"persistent_id":"302b5ab8557639965d624ec77c9a74c62e1b00a47ed9e7a285da4b512cce75ab","id":59441542,"location_subtype":"","month":"2017-08"},{"category":"criminal-damage-arson","location_type":"Force","location":{"latitude":"51.524070","street":{"id":962557,"name":"On or near Anchor Close"},"longitude":"0.112621"},"context":"","outcome_status":{"category":"Investigation complete; no suspect identified","date":"2017-08"},"persistent_id":"66bacfca4dd5298351b7a5689afb65bacf0468f333959b8095230636a8c9df54","id":59447847,"location_subtype":"","month":"2017-08"},{"category":"criminal-damage-arson","location_type":"Force","location":{"latitude":"51.527918","street":{"id":963057,"name":"On or near Abridge Way"},"longitude":"0.116187"},"context":"","outcome_status":{"category":"Investigation complete; no suspect identified","date":"2017-10"},"persistent_id":"a401ffd40f3b16bd93e08736346ed84f1021712b4e873603905dbc134763c85c","id":59496912,"location_subtype":"","month":"2017-08"},{"category":"criminal-damage-arson","location_type":"Force","location":{"latitude":"51.529301","street":{"id":963150,"name":"On or near Ray Gardens"},"longitude":"0.105784"},"context":"","outcome_status":{"category":"Status update unavailable","date":"2017-12"},"persistent_id":"1d61d16ebe5c2e2afbee94a10558b5047b87a5c32598c286bf7d258e17ca71c7","id":59503011,"location_subtype":"","month":"2017-08"},{"category":"criminal-damage-arson","location_type":"Force","location":{"latitude":"51.522484","street":{"id":923574,"name":"On or near Atlantis Close"},"longitude":"0.112288"},"context":"","outcome_status":{"category":"Status update unavailable","date":"2017-12"},"persistent_id":"08e89084f596cb83628c6cbdfc533d5072f2c7342d87dcd64d3adf4d5fd89e0f","id":59466136,"location_subtype":"","month":"2017-08"},{"category":"criminal-damage-arson","location_type":"Force","location":{"latitude":"51.526520","street":{"id":962559,"name":"On or near Sovereign Road"},"longitude":"0.120346"},"context":"","outcome_status":{"category":"Investigation complete; no suspect identified","date":"2017-08"},"persistent_id":"ee97afe7cada9be696fcd02b23fe068198f3945f85f0816ae9ff5410e98f0b0d","id":59459910,"location_subtype":"","month":"2017-08"},{"category":"criminal-damage-arson","location_type":"Force","location":{"latitude":"51.528815","street":{"id":963152,"name":"On or near Endeavour Way"},"longitude":"0.106785"},"context":"","outcome_status":{"category":"Investigation complete; no suspect identified","date":"2017-09"},"persistent_id":"17602381d4545a04e3270d3d943c8b6982e2cbfdea6f0efacb2accd4a4c00482","id":59476231,"location_subtype":"","month":"2017-08"},{"category":"criminal-damage-arson","location_type":"Force","location":{"latitude":"51.531104","street":{"id":962936,"name":"On or near Morrison Road"},"longitude":"0.135886"},"context":"","outcome_status":{"category":"Status update unavailable","date":"2017-12"},"persistent_id":"18dfe7cb56116c29ad17564a7390f35af5d98afc5bd8610e60e11745c2e75bbe","id":59455229,"location_subtype":"","month":"2017-08"},{"category":"criminal-damage-arson","location_type":"Force","location":{"latitude":"51.529234","street":{"id":963059,"name":"On or near Stebbing Way"},"longitude":"0.109025"},"context":"","outcome_status":{"category":"Status update unavailable","date":"2017-12"},"persistent_id":"313c94dcf0b62c29e1a2265681404bbd95354ee449f424eaa81089e87c13ee85","id":59452173,"location_subtype":"","month":"2017-08"},{"category":"criminal-damage-arson","location_type":"Force","location":{"latitude":"51.526622","street":{"id":962558,"name":"On or near Alderman Avenue"},"longitude":"0.109726"},"context":"","outcome_status":{"category":"Offender given a caution","date":"2017-09"},"persistent_id":"213bb8113384c7f8f4e79ee9ecd0e27f48083e8fc315416c661e88b4fd8745e5","id":59452156,"location_subtype":"","month":"2017-08"},{"category":"criminal-damage-arson","location_type":"Force","location":{"latitude":"51.527690","street":{"id":962556,"name":"On or near Chelmer Crescent"},"longitude":"0.112370"},"context":"","outcome_status":{"category":"Status update unavailable","date":"2017-12"},"persistent_id":"79e12cdc9eb999872811e1d866f9b53c37cab43e2607e09c4b6d470fdfb8e98c","id":59448026,"location_subtype":"","month":"2017-08"},{"category":"drugs","location_type":"Force","location":{"latitude":"51.525705","street":{"id":962540,"name":"On or near Great Galley Close"},"longitude":"0.118175"},"context":"","outcome_status":{"category":"Offender given a caution","date":"2017-08"},"persistent_id":"feea8350c9fb011b4766b0d2cf9ea8cfdad3672f9385adcacbc4e1a6b9de07ac","id":59502125,"location_subtype":"","month":"2017-08"},{"category":"drugs","location_type":"Force","location":{"latitude":"51.530270","street":{"id":963157,"name":"On or near Charlton Crescent"},"longitude":"0.098893"},"context":"","outcome_status":{"category":"Offender given a drugs possession warning","date":"2017-08"},"persistent_id":"521a78ab47f3e12ed199a456d2d47ab49051d3115266b7d800cda29c82460737","id":59473684,"location_subtype":"","month":"2017-08"},{"category":"drugs","location_type":"Force","location":{"latitude":"51.528556","street":{"id":963159,"name":"On or near Waverley Gardens"},"longitude":"0.091606"},"context":"","outcome_status":{"category":"Offender given a drugs possession warning","date":"2017-08"},"persistent_id":"7426c6679e04f1179ac2827d953be16588cf758e654941e584c0c44fd47dbae2","id":59446386,"location_subtype":"","month":"2017-08"},{"category":"drugs","location_type":"Force","location":{"latitude":"51.526396","street":{"id":962539,"name":"On or near Havering Way"},"longitude":"0.113809"},"context":"","outcome_status":{"category":"Offender given penalty notice","date":"2017-08"},"persistent_id":"5d12bc041eab2bb5f3e8e0be8bf8768978c458abfe7b7f92368e1f0747489425","id":59446374,"location_subtype":"","month":"2017-08"},{"category":"drugs","location_type":"Force","location":{"latitude":"51.528556","street":{"id":963159,"name":"On or near Waverley Gardens"},"longitude":"0.091606"},"context":"","outcome_status":{"category":"Investigation complete; no suspect identified","date":"2017-08"},"persistent_id":"563df2268507500ef377f1a44732fff1e765f12b59a308af0e46de20f6bc1b47","id":59453742,"location_subtype":"","month":"2017-08"},{"category":"other-theft","location_type":"Force","location":{"latitude":"51.529975","street":{"id":962976,"name":"On or near Supermarket"},"longitude":"0.142061"},"context":"","outcome_status":{"category":"Investigation complete; no suspect identified","date":"2017-09"},"persistent_id":"84684ce1aecbfe910b45300b2d5d89b4d6df31c1aa2246394e7b4e1feec2f754","id":59510481,"location_subtype":"","month":"2017-08"},{"category":"other-theft","location_type":"Force","location":{"latitude":"51.530192","street":{"id":962974,"name":"On or near Petrol Station"},"longitude":"0.143946"},"context":"","outcome_status":{"category":"Status update unavailable","date":"2017-12"},"persistent_id":"92997f479794aef6dff17bf3334473c0f0b2fd03a254f280ce0658db25d5e9c0","id":59450921,"location_subtype":"","month":"2017-08"},{"category":"other-theft","location_type":"Force","location":{"latitude":"51.529975","street":{"id":962976,"name":"On or near Supermarket"},"longitude":"0.142061"},"context":"","outcome_status":{"category":"Investigation complete; no suspect identified","date":"2017-11"},"persistent_id":"266571e8c9a8025c4c5788cce77c548019423c6570bb81c37c469363c0820172","id":59457522,"location_subtype":"","month":"2017-08"},{"category":"other-theft","location_type":"Force","location":{"latitude":"51.525064","street":{"id":962526,"name":"On or near Thames Road"},"longitude":"0.105877"},"context":"","outcome_status":{"category":"Status update unavailable","date":"2017-12"},"persistent_id":"2afaed12a5d856f8223cdcd13b0c7f42cbb74242437727676fb057d245305b5f","id":59491168,"location_subtype":"","month":"2017-08"},{"category":"other-theft","location_type":"Force","location":{"latitude":"51.522370","street":{"id":962552,"name":"On or near Grebe Close"},"longitude":"0.109125"},"context":"","outcome_status":{"category":"Investigation complete; no suspect identified","date":"2017-10"},"persistent_id":"1714a75c1cda617998fcb7c14b29be12127cf3d5bcca2a6c0ce293b379581704","id":59450572,"location_subtype":"","month":"2017-08"},{"category":"other-theft","location_type":"Force","location":{"latitude":"51.522431","street":{"id":962551,"name":"On or near Hornbeam Close"},"longitude":"0.110224"},"context":"","outcome_status":{"category":"Investigation complete; no suspect identified","date":"2017-10"},"persistent_id":"ebce2445d47c0413e2c375883403a1abd8044221ff70a419499dada20522c646","id":59455488,"location_subtype":"","month":"2017-08"},{"category":"other-theft","location_type":"Force","location":{"latitude":"51.529975","street":{"id":962976,"name":"On or near Supermarket"},"longitude":"0.142061"},"context":"","outcome_status":{"category":"Status update unavailable","date":"2017-12"},"persistent_id":"f4cadc3a7ca08d1bef7d5ff0a81db5124c0a1e0741dbbe14519b775267b44a53","id":59502362,"location_subtype":"","month":"2017-08"},{"category":"other-theft","location_type":"Force","location":{"latitude":"51.529975","street":{"id":962976,"name":"On or near Supermarket"},"longitude":"0.142061"},"context":"","outcome_status":{"category":"Investigation complete; no suspect identified","date":"2017-08"},"persistent_id":"72283133e42b5958dac7af4be945cc720d5570f9df11c0b1e1553687b68c9443","id":59446838,"location_subtype":"","month":"2017-08"},{"category":"other-theft","location_type":"Force","location":{"latitude":"51.529975","street":{"id":962976,"name":"On or near Supermarket"},"longitude":"0.142061"},"context":"","outcome_status":{"category":"Investigation complete; no suspect identified","date":"2017-08"},"persistent_id":"b7cbb489074218afa43b9b84430ae1fb15a858b6e4b07323a544543ad64dffb8","id":59446964,"location_subtype":"","month":"2017-08"},{"category":"other-theft","location_type":"Force","location":{"latitude":"51.529975","street":{"id":962976,"name":"On or near Supermarket"},"longitude":"0.142061"},"context":"","outcome_status":{"category":"Investigation complete; no suspect identified","date":"2017-12"},"persistent_id":"4a8caba19d7092f7effb171cd29c9f7ab6faa40418d9b5c1319c63643c4d4d99","id":59448282,"location_subtype":"","month":"2017-08"},{"category":"other-theft","location_type":"Force","location":{"latitude":"51.529975","street":{"id":962976,"name":"On or near Supermarket"},"longitude":"0.142061"},"context":"","outcome_status":{"category":"Status update unavailable","date":"2017-12"},"persistent_id":"c97a99ca9acf5452a0e9d94d7bf70acf71c69bcc22620ccd4662eef3b1f8c308","id":59449299,"location_subtype":"","month":"2017-08"},{"category":"other-theft","location_type":"Force","location":{"latitude":"51.529975","street":{"id":962976,"name":"On or near Supermarket"},"longitude":"0.142061"},"context":"","outcome_status":{"category":"Investigation complete; no suspect identified","date":"2017-08"},"persistent_id":"49fe15bbeed9c048a8efd1eb5392001414df35371d7d0179f07780b54262a45e","id":59467935,"location_subtype":"","month":"2017-08"},{"category":"other-theft","location_type":"Force","location":{"latitude":"51.529975","street":{"id":962976,"name":"On or near Supermarket"},"longitude":"0.142061"},"context":"","outcome_status":{"category":"Investigation complete; no suspect identified","date":"2017-09"},"persistent_id":"cb1311f863a4c07747342c1ba79f419e87c8ff66251b531156d59d28f42bbce6","id":59471711,"location_subtype":"","month":"2017-08"},{"category":"other-theft","location_type":"Force","location":{"latitude":"51.529975","street":{"id":962976,"name":"On or near Supermarket"},"longitude":"0.142061"},"context":"","outcome_status":{"category":"Investigation complete; no suspect identified","date":"2017-09"},"persistent_id":"a9f764cffa740f50bffb220d2a5beb8af28182e8690f04bdac102769c5da86af","id":59472636,"location_subtype":"","month":"2017-08"},{"category":"other-theft","location_type":"Force","location":{"latitude":"51.529975","street":{"id":962976,"name":"On or near Supermarket"},"longitude":"0.142061"},"context":"","outcome_status":{"category":"Investigation complete; no suspect identified","date":"2017-09"},"persistent_id":"746b8ce964db8b1cd37582b99327ad8112eb87a5054594f620ee17d992f30e43","id":59472923,"location_subtype":"","month":"2017-08"},{"category":"other-theft","location_type":"Force","location":{"latitude":"51.523479","street":{"id":962523,"name":"On or near Creek Road"},"longitude":"0.099936"},"context":"","outcome_status":{"category":"Status update unavailable","date":"2017-12"},"persistent_id":"407229f75a8ad5a0e1028afce674150dbc54d7de9be9d9a87f21561567f94420","id":59473909,"location_subtype":"","month":"2017-08"},{"category":"other-theft","location_type":"Force","location":{"latitude":"51.530192","street":{"id":962974,"name":"On or near Petrol Station"},"longitude":"0.143946"},"context":"","outcome_status":{"category":"Status update unavailable","date":"2017-12"},"persistent_id":"bb08a2974ce42d31c1639f4ab9be5106641846d38d13197fca4c3a6d1b7ffddb","id":59499946,"location_subtype":"","month":"2017-08"},{"category":"other-theft","location_type":"Force","location":{"latitude":"51.522458","street":{"id":962560,"name":"On or near Rob Pascoe Lane"},"longitude":"0.136086"},"context":"","outcome_status":{"category":"Status update unavailable","date":"2017-12"},"persistent_id":"283e8b8df410f06765eef74b46f0d3577cf54b387065a7da5d66362950513ce0","id":59502721,"location_subtype":"","month":"2017-08"},{"category":"other-theft","location_type":"Force","location":{"latitude":"51.530192","street":{"id":962974,"name":"On or near Petrol Station"},"longitude":"0.143946"},"context":"","outcome_status":{"category":"Investigation complete; no suspect identified","date":"2017-10"},"persistent_id":"4a783e03466851f1319670feaa8285a6850e5701491a96aa51ba9c1f26ed053a","id":59502970,"location_subtype":"","month":"2017-08"},{"category":"other-theft","location_type":"Force","location":{"latitude":"51.531671","street":{"id":963024,"name":"On or near Ripple Road"},"longitude":"0.122489"},"context":"","outcome_status":{"category":"Investigation complete; no suspect identified","date":"2017-08"},"persistent_id":"01400b37c887d46f8407d29d56c0697e5483071384bd083d530f46197a9de4da","id":59449809,"location_subtype":"","month":"2017-08"},{"category":"other-theft","location_type":"Force","location":{"latitude":"51.526076","street":{"id":962561,"name":"On or near Choats Manor Way"},"longitude":"0.140869"},"context":"","outcome_status":{"category":"Investigation complete; no suspect identified","date":"2017-08"},"persistent_id":"27ce13ff9cc7fb34505337d210d8ce601df569930d8848de9a107f973209826e","id":59450575,"location_subtype":"","month":"2017-08"},{"category":"other-theft","location_type":"Force","location":{"latitude":"51.527712","street":{"id":962980,"name":"On or near Choats Manor Way"},"longitude":"0.142388"},"context":"","outcome_status":{"category":"Investigation complete; no suspect identified","date":"2017-10"},"persistent_id":"d9af0c964f57e05c712bd4976e10fa5e18268fefe1598739b299502f73b83c80","id":59493605,"location_subtype":"","month":"2017-08"},{"category":"other-theft","location_type":"Force","location":{"latitude":"51.529975","street":{"id":962976,"name":"On or near Supermarket"},"longitude":"0.142061"},"context":"","outcome_status":{"category":"Investigation complete; no suspect identified","date":"2017-10"},"persistent_id":"dbc231ae9f96d35ed398254d9fe031069f95d639446619d581fa28effbbb5ee3","id":59477604,"location_subtype":"","month":"2017-08"},{"category":"other-theft","location_type":"Force","location":{"latitude":"51.531671","street":{"id":963024,"name":"On or near Ripple Road"},"longitude":"0.122489"},"context":"","outcome_status":{"category":"Investigation complete; no suspect identified","date":"2017-12"},"persistent_id":"3b28a9ad99237b1e0b28e06ba6aabb105afba3c22ee50480905047feac07461b","id":59500550,"location_subtype":"","month":"2017-08"},{"category":"possession-of-weapons","location_type":"Force","location":{"latitude":"51.527384","street":{"id":962518,"name":"On or near Stanley Avenue"},"longitude":"0.098847"},"context":"","outcome_status":{"category":"Investigation complete; no suspect identified","date":"2017-10"},"persistent_id":"e5ae60e8f8846d2b899a6ad5b801d14678d0a48666858a4cf3c53208d953e680","id":59443771,"location_subtype":"","month":"2017-08"},{"category":"possession-of-weapons","location_type":"Force","location":{"latitude":"51.522949","street":{"id":962555,"name":"On or near Galleons Drive"},"longitude":"0.108936"},"context":"","outcome_status":{"category":"Status update unavailable","date":"2017-12"},"persistent_id":"1fe3bf597236183d75894b7d1eb6272d718e23ac33cb9bb7b753f849eba2d251","id":59478027,"location_subtype":"","month":"2017-08"},{"category":"public-order","location_type":"Force","location":{"latitude":"51.524753","street":{"id":962534,"name":"On or near Crossness Road"},"longitude":"0.101609"},"context":"","outcome_status":{"category":"Status update unavailable","date":"2017-12"},"persistent_id":"16344a8ea7291091251361b10a3e5a3e0211763b76b2adab1743ac62805e5dd0","id":59444155,"location_subtype":"","month":"2017-08"},{"category":"public-order","location_type":"Force","location":{"latitude":"51.526800","street":{"id":962543,"name":"On or near Blessing Way"},"longitude":"0.119811"},"context":"","outcome_status":{"category":"Offender given community sentence","date":"2017-12"},"persistent_id":"b7e3459ce6ddf581d260cbb9247cc999d3d08640aa972f4ef151b6a8b2801385","id":59455358,"location_subtype":"","month":"2017-08"},{"category":"public-order","location_type":"Force","location":{"latitude":"51.532721","street":{"id":962986,"name":"On or near Ripple Road"},"longitude":"0.109114"},"context":"","outcome_status":{"category":"Court result unavailable","date":"2018-03"},"persistent_id":"7f0bd74006d9a3887b2dd61579152ecb4cfd03c465e47349c99c8aff3674e2a7","id":59447668,"location_subtype":"","month":"2017-08"},{"category":"public-order","location_type":"Force","location":{"latitude":"51.522985","street":{"id":962527,"name":"On or near Seagull Close"},"longitude":"0.107467"},"context":"","outcome_status":{"category":"Investigation complete; no suspect identified","date":"2017-11"},"persistent_id":"12b026c3b7eb38a8081e906d86250ac2484c87ad80e50a207b61efc59a5d359e","id":59478900,"location_subtype":"","month":"2017-08"},{"category":"public-order","location_type":"Force","location":{"latitude":"51.534273","street":{"id":963030,"name":"On or near Goresbrook Road"},"longitude":"0.115847"},"context":"","outcome_status":{"category":"Investigation complete; no suspect identified","date":"2017-08"},"persistent_id":"d6935b3f6feab0a333b0bbfb68633ebc80525341c4153ee273f5d30e078463d7","id":59449660,"location_subtype":"","month":"2017-08"},{"category":"public-order","location_type":"Force","location":{"latitude":"51.528565","street":{"id":963060,"name":"On or near Roxwell Road"},"longitude":"0.109195"},"context":"","outcome_status":{"category":"Investigation complete; no suspect identified","date":"2017-08"},"persistent_id":"79e9206ced9ac32b764b240b8f52c11dce94ee6b4ac553d121b682ce7fbdf75d","id":59453900,"location_subtype":"","month":"2017-08"},{"category":"public-order","location_type":"Force","location":{"latitude":"51.532721","street":{"id":962986,"name":"On or near Ripple Road"},"longitude":"0.109114"},"context":"","outcome_status":{"category":"Court result unavailable","date":"2018-03"},"persistent_id":"67a4d6a7a11a8918e021d20a93bdb4b99bee6440b26651f3072ad478c36491e7","id":59448550,"location_subtype":"","month":"2017-08"},{"category":"public-order","location_type":"Force","location":{"latitude":"51.532721","street":{"id":962986,"name":"On or near Ripple Road"},"longitude":"0.109114"},"context":"","outcome_status":{"category":"Awaiting court outcome","date":"2018-03"},"persistent_id":"2210761a9792cca9cf6c93a2b53663725a68dbfb8438ada7e56e1a4aaafdd39e","id":59452989,"location_subtype":"","month":"2017-08"},{"category":"public-order","location_type":"Force","location":{"latitude":"51.526800","street":{"id":962543,"name":"On or near Blessing Way"},"longitude":"0.119811"},"context":"","outcome_status":{"category":"Status update unavailable","date":"2017-12"},"persistent_id":"b7e3459ce6ddf581d260cbb9247cc999d3d08640aa972f4ef151b6a8b2801385","id":59455357,"location_subtype":"","month":"2017-08"},{"category":"robbery","location_type":"Force","location":{"latitude":"51.527570","street":{"id":963055,"name":"On or near Keel Close"},"longitude":"0.121000"},"context":"","outcome_status":{"category":"Investigation complete; no suspect identified","date":"2017-09"},"persistent_id":"8b4ccf369ef4b6343bad6ab5a79442b433b103ee4489eb53749f226a6969257d","id":59453401,"location_subtype":"","month":"2017-08"},{"category":"robbery","location_type":"Force","location":{"latitude":"51.533053","street":{"id":963031,"name":"On or near Gale Street"},"longitude":"0.127095"},"context":"","outcome_status":{"category":"Defendant found not guilty","date":"2017-11"},"persistent_id":"507c284872565fb23b2518bfbfd1a0ade54e26b18af52b24ef04013ec9283681","id":59471263,"location_subtype":"","month":"2017-08"},{"category":"robbery","location_type":"Force","location":{"latitude":"51.522949","street":{"id":962555,"name":"On or near Galleons Drive"},"longitude":"0.108936"},"context":"","outcome_status":{"category":"Investigation complete; no suspect identified","date":"2018-02"},"persistent_id":"8696d53642abf9edd151e051c9eb8814f86ee928e093bced08575d658704067a","id":59473275,"location_subtype":"","month":"2017-08"},{"category":"shoplifting","location_type":"Force","location":{"latitude":"51.529975","street":{"id":962976,"name":"On or near Supermarket"},"longitude":"0.142061"},"context":"","outcome_status":{"category":"Court result unavailable","date":"2018-03"},"persistent_id":"99587b710580fc29c636116705d25622a274d0727717c31009bd9b40ea5cae3d","id":59472553,"location_subtype":"","month":"2017-08"},{"category":"shoplifting","location_type":"Force","location":{"latitude":"51.529975","street":{"id":962976,"name":"On or near Supermarket"},"longitude":"0.142061"},"context":"","outcome_status":{"category":"Investigation complete; no suspect identified","date":"2017-09"},"persistent_id":"b15ddf007ded17e5e44315fa06247b4b6c2ee33714d92d1638cb4fb232f44f14","id":59501641,"location_subtype":"","month":"2017-08"},{"category":"shoplifting","location_type":"Force","location":{"latitude":"51.529975","street":{"id":962976,"name":"On or near Supermarket"},"longitude":"0.142061"},"context":"","outcome_status":{"category":"Investigation complete; no suspect identified","date":"2017-10"},"persistent_id":"e3d226cb94d0f813cebf0bb99f9351e607e76d6a1c5ce5d67757935b66575022","id":59475322,"location_subtype":"","month":"2017-08"},{"category":"shoplifting","location_type":"Force","location":{"latitude":"51.530192","street":{"id":962974,"name":"On or near Petrol Station"},"longitude":"0.143946"},"context":"","outcome_status":{"category":"Investigation complete; no suspect identified","date":"2017-10"},"persistent_id":"1cee728392fd6ec46ca1850d9383e9b6691b5c4ed3649649b1a345a1d2e2954a","id":59508217,"location_subtype":"","month":"2017-08"},{"category":"shoplifting","location_type":"Force","location":{"latitude":"51.529975","street":{"id":962976,"name":"On or near Supermarket"},"longitude":"0.142061"},"context":"","outcome_status":{"category":"Offender given a caution","date":"2017-09"},"persistent_id":"5660e30a942c3fecb3e8b470824d65ceb03f29967a71273ef6e5b75a624ad915","id":59477489,"location_subtype":"","month":"2017-08"},{"category":"shoplifting","location_type":"Force","location":{"latitude":"51.529975","street":{"id":962976,"name":"On or near Supermarket"},"longitude":"0.142061"},"context":"","outcome_status":{"category":"Offender given conditional discharge","date":"2018-01"},"persistent_id":"7c3d051d0404a105f4e535c6c597f54d0ad71e8ab65d1db771eac7802b624124","id":59451341,"location_subtype":"","month":"2017-08"},{"category":"shoplifting","location_type":"Force","location":{"latitude":"51.529975","street":{"id":962976,"name":"On or near Supermarket"},"longitude":"0.142061"},"context":"","outcome_status":{"category":"Investigation complete; no suspect identified","date":"2017-12"},"persistent_id":"6ea3dc739666e7c4bb8a262c5829121890346e87a2f223a0eb4046ef9eb1064a","id":59454180,"location_subtype":"","month":"2017-08"},{"category":"shoplifting","location_type":"Force","location":{"latitude":"51.529975","street":{"id":962976,"name":"On or near Supermarket"},"longitude":"0.142061"},"context":"","outcome_status":{"category":"Status update unavailable","date":"2017-12"},"persistent_id":"8ff021b27b205662805099bdf7eb9c10f14e71cba46f907deb91df3f7a8e75bc","id":59451208,"location_subtype":"","month":"2017-08"},{"category":"vehicle-crime","location_type":"Force","location":{"latitude":"51.529975","street":{"id":962976,"name":"On or near Supermarket"},"longitude":"0.142061"},"context":"","outcome_status":{"category":"Status update unavailable","date":"2017-12"},"persistent_id":"99f4b3a3fbcb9a37d06265742a19147a716bd835f54de3b74911a9a415aa5ee1","id":59450421,"location_subtype":"","month":"2017-08"},{"category":"vehicle-crime","location_type":"Force","location":{"latitude":"51.524753","street":{"id":962534,"name":"On or near Crossness Road"},"longitude":"0.101609"},"context":"","outcome_status":{"category":"Status update unavailable","date":"2017-12"},"persistent_id":"f8241ac1db848bba4d365175bbbf8c0fa98706adb5518e768d261d69dec0936f","id":59448171,"location_subtype":"","month":"2017-08"},{"category":"vehicle-crime","location_type":"Force","location":{"latitude":"51.529234","street":{"id":963059,"name":"On or near Stebbing Way"},"longitude":"0.109025"},"context":"","outcome_status":{"category":"Status update unavailable","date":"2017-12"},"persistent_id":"6f29abd40145124384a5031a1812aadc80004c9fd06efea63feca1a7a6d42685","id":59448484,"location_subtype":"","month":"2017-08"},{"category":"vehicle-crime","location_type":"Force","location":{"latitude":"51.528565","street":{"id":963060,"name":"On or near Roxwell Road"},"longitude":"0.109195"},"context":"","outcome_status":{"category":"Status update unavailable","date":"2017-12"},"persistent_id":"e0e7ebbea26496a62de0c117135478540d918850ff62fdaae23bdabe3886acdf","id":59447842,"location_subtype":"","month":"2017-08"},{"category":"vehicle-crime","location_type":"Force","location":{"latitude":"51.523479","street":{"id":962523,"name":"On or near Creek Road"},"longitude":"0.099936"},"context":"","outcome_status":{"category":"Status update unavailable","date":"2017-12"},"persistent_id":"08b3f40fe151bc5600c8ddfdbe3e414ba77c6511d8b28ce123041818ece4ed89","id":59449894,"location_subtype":"","month":"2017-08"},{"category":"vehicle-crime","location_type":"Force","location":{"latitude":"51.519971","street":{"id":923854,"name":"On or near Hindmans Way"},"longitude":"0.140813"},"context":"","outcome_status":{"category":"Status update unavailable","date":"2017-12"},"persistent_id":"5c90ca6ae63cf03f720642cbd8593610a7674b8b7559e380884f4e9da6589450","id":59453504,"location_subtype":"","month":"2017-08"},{"category":"vehicle-crime","location_type":"Force","location":{"latitude":"51.529301","street":{"id":963150,"name":"On or near Ray Gardens"},"longitude":"0.105784"},"context":"","outcome_status":{"category":"Status update unavailable","date":"2017-12"},"persistent_id":"402eaa2bceab01d6f688b41308439079fd9f08f79f42bc0937e892851d453f20","id":59452168,"location_subtype":"","month":"2017-08"},{"category":"vehicle-crime","location_type":"Force","location":{"latitude":"51.521902","street":{"id":962524,"name":"On or near Theatre\/concert Hall"},"longitude":"0.099633"},"context":"","outcome_status":{"category":"Status update unavailable","date":"2017-12"},"persistent_id":"4e0ebf78625f78c6175b237a2974da949e80862f87b8b5cc7fc188a7cf4e89b4","id":59452545,"location_subtype":"","month":"2017-08"},{"category":"vehicle-crime","location_type":"Force","location":{"latitude":"51.528556","street":{"id":963159,"name":"On or near Waverley Gardens"},"longitude":"0.091606"},"context":"","outcome_status":{"category":"Investigation complete; no suspect identified","date":"2017-09"},"persistent_id":"736064d32e4ca09c71c5e1e92687abd284a5d87b830accfec8452449b13953e1","id":59452688,"location_subtype":"","month":"2017-08"},{"category":"vehicle-crime","location_type":"Force","location":{"latitude":"51.521902","street":{"id":962524,"name":"On or near Theatre\/concert Hall"},"longitude":"0.099633"},"context":"","outcome_status":{"category":"Investigation complete; no suspect identified","date":"2017-09"},"persistent_id":"f1b8b893d2b8c3ac80b195aaf54ff331c67ef5cace4430aae0190739c2c54825","id":59450687,"location_subtype":"","month":"2017-08"},{"category":"vehicle-crime","location_type":"Force","location":{"latitude":"51.526622","street":{"id":962558,"name":"On or near Alderman Avenue"},"longitude":"0.109726"},"context":"","outcome_status":{"category":"Investigation complete; no suspect identified","date":"2017-09"},"persistent_id":"1541097fa703c45dec4a1a3ae1a57402b34e2ab2cbe288cfd1dfc98ebc955035","id":59444179,"location_subtype":"","month":"2017-08"},{"category":"vehicle-crime","location_type":"Force","location":{"latitude":"51.523479","street":{"id":962523,"name":"On or near Creek Road"},"longitude":"0.099936"},"context":"","outcome_status":{"category":"Status update unavailable","date":"2017-12"},"persistent_id":"be41b700d8e0ab9b329dcc9e1dfacbe86e008c8f1d14945497791177d679a61e","id":59475988,"location_subtype":"","month":"2017-08"},{"category":"vehicle-crime","location_type":"Force","location":{"latitude":"51.531834","street":{"id":962999,"name":"On or near Pedestrian Subway"},"longitude":"0.128869"},"context":"","outcome_status":{"category":"Status update unavailable","date":"2017-12"},"persistent_id":"2a8972ce2a75354d211b627f88cd0129d4c670b88528eba0ad9beeed05396921","id":59476698,"location_subtype":"","month":"2017-08"},{"category":"vehicle-crime","location_type":"Force","location":{"latitude":"51.529975","street":{"id":962976,"name":"On or near Supermarket"},"longitude":"0.142061"},"context":"","outcome_status":{"category":"Status update unavailable","date":"2017-12"},"persistent_id":"3965885dacc834c79a8a9920f20effa531e1837447bdb9fee42cd99b302189ff","id":59477189,"location_subtype":"","month":"2017-08"},{"category":"vehicle-crime","location_type":"Force","location":{"latitude":"51.528815","street":{"id":963152,"name":"On or near Endeavour Way"},"longitude":"0.106785"},"context":"","outcome_status":{"category":"Status update unavailable","date":"2017-12"},"persistent_id":"8a99888bc17583d1abbaeb29abd427ffc5b588b5e074c14f7dfdb0296e83633f","id":59477687,"location_subtype":"","month":"2017-08"},{"category":"vehicle-crime","location_type":"Force","location":{"latitude":"51.530120","street":{"id":963158,"name":"On or near Alfred's Way (east Ham And Barking By-pass)"},"longitude":"0.094691"},"context":"","outcome_status":{"category":"Status update unavailable","date":"2017-12"},"persistent_id":"586de8e83702268fce5d4e8ed22cb05d46aac40ba402a273048701373bec4a77","id":59506418,"location_subtype":"","month":"2017-08"},{"category":"vehicle-crime","location_type":"Force","location":{"latitude":"51.530192","street":{"id":962974,"name":"On or near Petrol Station"},"longitude":"0.143946"},"context":"","outcome_status":{"category":"Status update unavailable","date":"2017-12"},"persistent_id":"7bc1f5d3221b4ed2ba1593cba4bfea7bb10bd58374ca07f31716e1b74c9f0217","id":59459568,"location_subtype":"","month":"2017-08"},{"category":"vehicle-crime","location_type":"Force","location":{"latitude":"51.516739","street":{"id":962533,"name":"On or near Atcost Road"},"longitude":"0.104210"},"context":"","outcome_status":{"category":"Status update unavailable","date":"2017-12"},"persistent_id":"f49a36523cc28f065e4240bafbba94e2ef532a2d76db6cff9048fe11bf30e4c9","id":59453309,"location_subtype":"","month":"2017-08"},{"category":"vehicle-crime","location_type":"Force","location":{"latitude":"51.521902","street":{"id":962524,"name":"On or near Theatre\/concert Hall"},"longitude":"0.099633"},"context":"","outcome_status":{"category":"Status update unavailable","date":"2017-12"},"persistent_id":"65448940869addd50ca27e81cfe73d49fbf1ebfd06dd395a2785a4d4c866e26b","id":59453948,"location_subtype":"","month":"2017-08"},{"category":"vehicle-crime","location_type":"Force","location":{"latitude":"51.528565","street":{"id":963060,"name":"On or near Roxwell Road"},"longitude":"0.109195"},"context":"","outcome_status":{"category":"Status update unavailable","date":"2017-12"},"persistent_id":"1dd940884fd99b701bc1317830cb7247487d23ba256eec793f4d4b66605dc195","id":59438474,"location_subtype":"","month":"2017-08"},{"category":"vehicle-crime","location_type":"Force","location":{"latitude":"51.522985","street":{"id":962527,"name":"On or near Seagull Close"},"longitude":"0.107467"},"context":"","outcome_status":{"category":"Status update unavailable","date":"2017-12"},"persistent_id":"afc86d199e1104e6b664ca9dee505589406181149b33cfe1be5137cc63bf7865","id":59445068,"location_subtype":"","month":"2017-08"},{"category":"violent-crime","location_type":"Force","location":{"latitude":"51.522985","street":{"id":962527,"name":"On or near Seagull Close"},"longitude":"0.107467"},"context":"","outcome_status":{"category":"Investigation complete; no suspect identified","date":"2017-10"},"persistent_id":"4bcdcd060839fd4ed1d70f9ecbc0edc429e285320068af51e617fbbe14ae8327","id":59499835,"location_subtype":"","month":"2017-08"},{"category":"violent-crime","location_type":"Force","location":{"latitude":"51.530270","street":{"id":963157,"name":"On or near Charlton Crescent"},"longitude":"0.098893"},"context":"","outcome_status":{"category":"Status update unavailable","date":"2017-12"},"persistent_id":"df1cbd9f6198abee349751113aa8df35544f669624586a52ef341636bf391ee7","id":59447538,"location_subtype":"","month":"2017-08"},{"category":"violent-crime","location_type":"Force","location":{"latitude":"51.532610","street":{"id":962900,"name":"On or near Parking Area"},"longitude":"0.132683"},"context":"","outcome_status":{"category":"Investigation complete; no suspect identified","date":"2017-09"},"persistent_id":"4d8a785a162aad6b6bab6ef1c946f687542b317b094042ad118d32acfb9fbb76","id":59444296,"location_subtype":"","month":"2017-08"},{"category":"violent-crime","location_type":"Force","location":{"latitude":"51.529582","street":{"id":963156,"name":"On or near Maud Gardens"},"longitude":"0.099121"},"context":"","outcome_status":{"category":"Investigation complete; no suspect identified","date":"2018-03"},"persistent_id":"551fb9fb0385a486894b65b54d9914adf261f51662137c830e4ed63afd1cf973","id":59445321,"location_subtype":"","month":"2017-08"},{"category":"violent-crime","location_type":"Force","location":{"latitude":"51.530120","street":{"id":963158,"name":"On or near Alfred's Way (east Ham And Barking By-pass)"},"longitude":"0.094691"},"context":"","outcome_status":{"category":"Investigation complete; no suspect identified","date":"2018-06"},"persistent_id":"5f1f7b2b3c08a9ad8c6a7c37912c36091bb25ee538162c6c583332dbacb04d7f","id":59437398,"location_subtype":"","month":"2017-08"},{"category":"violent-crime","location_type":"Force","location":{"latitude":"51.516739","street":{"id":962533,"name":"On or near Atcost Road"},"longitude":"0.104210"},"context":"","outcome_status":{"category":"Investigation complete; no suspect identified","date":"2017-09"},"persistent_id":"506eee908eca17a121ee1c5dacb513ae68ef0309cd2ebf3bee3fe9744b424f1d","id":59509343,"location_subtype":"","month":"2017-08"},{"category":"violent-crime","location_type":"Force","location":{"latitude":"51.529975","street":{"id":962976,"name":"On or near Supermarket"},"longitude":"0.142061"},"context":"","outcome_status":{"category":"Investigation complete; no suspect identified","date":"2017-10"},"persistent_id":"2ee3fe6cbcc36dc593ca40181806e7a10857e561164cc397807b4a80ad717991","id":59471262,"location_subtype":"","month":"2017-08"},{"category":"violent-crime","location_type":"Force","location":{"latitude":"51.534273","street":{"id":963030,"name":"On or near Goresbrook Road"},"longitude":"0.115847"},"context":"","outcome_status":{"category":"Offender sent to prison","date":"2017-11"},"persistent_id":"c1018d3f29ede1da06cc7fbb1dede4bda51f8dc57b4135de865070914373b0f5","id":59471794,"location_subtype":"","month":"2017-08"},{"category":"violent-crime","location_type":"Force","location":{"latitude":"51.524481","street":{"id":962554,"name":"On or near Gallions Close"},"longitude":"0.108243"},"context":"","outcome_status":{"category":"Investigation complete; no suspect identified","date":"2017-09"},"persistent_id":"1a69ec76ce6ca70191c18ee8200ab8dfcfb4268481ddc943a5e36e2cf8c7de40","id":59448999,"location_subtype":"","month":"2017-08"},{"category":"violent-crime","location_type":"Force","location":{"latitude":"51.529975","street":{"id":962976,"name":"On or near Supermarket"},"longitude":"0.142061"},"context":"","outcome_status":{"category":"Status update unavailable","date":"2017-12"},"persistent_id":"2ee3fe6cbcc36dc593ca40181806e7a10857e561164cc397807b4a80ad717991","id":59471261,"location_subtype":"","month":"2017-08"},{"category":"violent-crime","location_type":"Force","location":{"latitude":"51.526622","street":{"id":962558,"name":"On or near Alderman Avenue"},"longitude":"0.109726"},"context":"","outcome_status":{"category":"Status update unavailable","date":"2017-12"},"persistent_id":"3bdcdc0fa68948ea675591c585f13db28d553686700321663a0b0bbd50d8974e","id":59446660,"location_subtype":"","month":"2017-08"},{"category":"violent-crime","location_type":"Force","location":{"latitude":"51.530192","street":{"id":962974,"name":"On or near Petrol Station"},"longitude":"0.143946"},"context":"","outcome_status":{"category":"Status update unavailable","date":"2017-12"},"persistent_id":"1cee728392fd6ec46ca1850d9383e9b6691b5c4ed3649649b1a345a1d2e2954a","id":59507550,"location_subtype":"","month":"2017-08"},{"category":"violent-crime","location_type":"Force","location":{"latitude":"51.530192","street":{"id":962974,"name":"On or near Petrol Station"},"longitude":"0.143946"},"context":"","outcome_status":{"category":"Status update unavailable","date":"2017-12"},"persistent_id":"c3d4bf55addb518e101d37436c390ae9fec1924854dd782f9a8a47ffbc673ec3","id":59510641,"location_subtype":"","month":"2017-08"},{"category":"violent-crime","location_type":"Force","location":{"latitude":"51.534273","street":{"id":963030,"name":"On or near Goresbrook Road"},"longitude":"0.115847"},"context":"","outcome_status":{"category":"Status update unavailable","date":"2017-12"},"persistent_id":"a91c2b3f186343a3927c6eccbd424de9adc0c1dd414e76e09f6d862d12aa9cb5","id":59452777,"location_subtype":"","month":"2017-08"},{"category":"violent-crime","location_type":"Force","location":{"latitude":"51.530270","street":{"id":963157,"name":"On or near Charlton Crescent"},"longitude":"0.098893"},"context":"","outcome_status":{"category":"Status update unavailable","date":"2017-12"},"persistent_id":"338b8b8ab56c7d572cf64d5f8c65069ad92e08fdc8120547cb8efc49cb7535f4","id":59446843,"location_subtype":"","month":"2017-08"},{"category":"violent-crime","location_type":"Force","location":{"latitude":"51.529975","street":{"id":962976,"name":"On or near Supermarket"},"longitude":"0.142061"},"context":"","outcome_status":{"category":"Court result unavailable","date":"2018-02"},"persistent_id":"8ff021b27b205662805099bdf7eb9c10f14e71cba46f907deb91df3f7a8e75bc","id":59451628,"location_subtype":"","month":"2017-08"},{"category":"violent-crime","location_type":"Force","location":{"latitude":"51.526673","street":{"id":962528,"name":"On or near Sports\/recreation Area"},"longitude":"0.102404"},"context":"","outcome_status":{"category":"Status update unavailable","date":"2017-12"},"persistent_id":"7789bb0b9eb828323b580be813970e92e330a907bf4dcd20f756e9e60bf513b1","id":59448692,"location_subtype":"","month":"2017-08"},{"category":"violent-crime","location_type":"Force","location":{"latitude":"51.527712","street":{"id":962980,"name":"On or near Choats Manor Way"},"longitude":"0.142388"},"context":"","outcome_status":{"category":"Investigation complete; no suspect identified","date":"2017-10"},"persistent_id":"abe640367781e32233eaa65445e9740914063223c7b53a98901bb85d27396fc4","id":59452754,"location_subtype":"","month":"2017-08"},{"category":"violent-crime","location_type":"Force","location":{"latitude":"51.522087","street":{"id":962547,"name":"On or near Riverdale Close"},"longitude":"0.110885"},"context":"","outcome_status":{"category":"Investigation complete; no suspect identified","date":"2017-10"},"persistent_id":"842d7a714c298ed8ab102c1896e6573d81a9bb154b9fb7df41c85c40c57754ea","id":59438778,"location_subtype":"","month":"2017-08"},{"category":"violent-crime","location_type":"Force","location":{"latitude":"51.522559","street":{"id":962550,"name":"On or near Mallards Road"},"longitude":"0.108615"},"context":"","outcome_status":{"category":"Defendant found not guilty","date":"2018-01"},"persistent_id":"43284cdcf0620e033759cf41adb2704814bdffb6238ddd6e8569315bf51ed62c","id":59472891,"location_subtype":"","month":"2017-08"},{"category":"violent-crime","location_type":"Force","location":{"latitude":"51.529975","street":{"id":962976,"name":"On or near Supermarket"},"longitude":"0.142061"},"context":"","outcome_status":{"category":"Status update unavailable","date":"2017-12"},"persistent_id":"8ff021b27b205662805099bdf7eb9c10f14e71cba46f907deb91df3f7a8e75bc","id":59451627,"location_subtype":"","month":"2017-08"},{"category":"violent-crime","location_type":"Force","location":{"latitude":"51.529445","street":{"id":963061,"name":"On or near Wivenhoe Road"},"longitude":"0.110779"},"context":"","outcome_status":{"category":"Status update unavailable","date":"2017-12"},"persistent_id":"3e89c3e72decbeac2327241911eba40d95163c07b0934d5b3a3aba6cf9ed02b0","id":59448664,"location_subtype":"","month":"2017-08"},{"category":"violent-crime","location_type":"Force","location":{"latitude":"51.532610","street":{"id":962900,"name":"On or near Parking Area"},"longitude":"0.132683"},"context":"","outcome_status":{"category":"Status update unavailable","date":"2017-12"},"persistent_id":"4d8a785a162aad6b6bab6ef1c946f687542b317b094042ad118d32acfb9fbb76","id":59443424,"location_subtype":"","month":"2017-08"},{"category":"violent-crime","location_type":"Force","location":{"latitude":"51.527384","street":{"id":962518,"name":"On or near Stanley Avenue"},"longitude":"0.098847"},"context":"","outcome_status":{"category":"Status update unavailable","date":"2017-12"},"persistent_id":"ddfb2ec7551880d009b57df890f7f96dddb28cc0d8269c0186cda23d3aec9c99","id":59447304,"location_subtype":"","month":"2017-08"},{"category":"violent-crime","location_type":"Force","location":{"latitude":"51.529235","street":{"id":963151,"name":"On or near Farr Avenue"},"longitude":"0.104454"},"context":"","outcome_status":{"category":"Investigation complete; no suspect identified","date":"2018-01"},"persistent_id":"aafbe826a917068bb5d4290fbdf0484405224a9ec4ef26b9b9cf3c80534a9296","id":59506479,"location_subtype":"","month":"2017-08"},{"category":"violent-crime","location_type":"Force","location":{"latitude":"51.534273","street":{"id":963030,"name":"On or near Goresbrook Road"},"longitude":"0.115847"},"context":"","outcome_status":{"category":"Investigation complete; no suspect identified","date":"2017-10"},"persistent_id":"2e5bf38d61c1cde6e89bb9437839d5a582e35bcb8bcc0e375051d330c444480a","id":59443834,"location_subtype":"","month":"2017-08"},{"category":"violent-crime","location_type":"Force","location":{"latitude":"51.529975","street":{"id":962976,"name":"On or near Supermarket"},"longitude":"0.142061"},"context":"","outcome_status":{"category":"Status update unavailable","date":"2017-12"},"persistent_id":"3243c5b783189eda1aa6e46266d528174eb9fadad35379e5ba39f007cc919381","id":59450190,"location_subtype":"","month":"2017-08"},{"category":"violent-crime","location_type":"Force","location":{"latitude":"51.528565","street":{"id":963060,"name":"On or near Roxwell Road"},"longitude":"0.109195"},"context":"","outcome_status":{"category":"Investigation complete; no suspect identified","date":"2017-09"},"persistent_id":"5cbf4ec9ba01d1a1c44ab6676bd6a0b977a1adcd7cb42a32ec6440cc55d44e28","id":59469916,"location_subtype":"","month":"2017-08"},{"category":"violent-crime","location_type":"Force","location":{"latitude":"51.528565","street":{"id":963060,"name":"On or near Roxwell Road"},"longitude":"0.109195"},"context":"","outcome_status":{"category":"Status update unavailable","date":"2017-12"},"persistent_id":"95bf527bc692b55def7e5726fe303030444385622d4ac0d440f0c243cae222ad","id":59468224,"location_subtype":"","month":"2017-08"},{"category":"violent-crime","location_type":"Force","location":{"latitude":"51.534273","street":{"id":963030,"name":"On or near Goresbrook Road"},"longitude":"0.115847"},"context":"","outcome_status":{"category":"Awaiting court outcome","date":"2018-02"},"persistent_id":"713c6d65364eaf1cc2f12d95d89fa172d6a6958340aedd34c22abdb2d6942d7f","id":59467530,"location_subtype":"","month":"2017-08"},{"category":"violent-crime","location_type":"Force","location":{"latitude":"51.529975","street":{"id":962976,"name":"On or near Supermarket"},"longitude":"0.142061"},"context":"","outcome_status":{"category":"Status update unavailable","date":"2017-12"},"persistent_id":"99587b710580fc29c636116705d25622a274d0727717c31009bd9b40ea5cae3d","id":59472165,"location_subtype":"","month":"2017-08"},{"category":"violent-crime","location_type":"Force","location":{"latitude":"51.522985","street":{"id":962527,"name":"On or near Seagull Close"},"longitude":"0.107467"},"context":"","outcome_status":{"category":"Investigation complete; no suspect identified","date":"2017-09"},"persistent_id":"7ed46ba6c4437012713afea1e2b282cafcaeb9febbdd0727cfa8462e2e309d75","id":59447474,"location_subtype":"","month":"2017-08"},{"category":"violent-crime","location_type":"Force","location":{"latitude":"51.529844","street":{"id":963155,"name":"On or near Maybury Road"},"longitude":"0.105102"},"context":"","outcome_status":{"category":"Investigation complete; no suspect identified","date":"2017-10"},"persistent_id":"4e6c2a71172b26f29bcea3eb7e734b902222ef6ff29b8487667c02d7678e2792","id":59465739,"location_subtype":"","month":"2017-08"},{"category":"violent-crime","location_type":"Force","location":{"latitude":"51.527158","street":{"id":962521,"name":"On or near Hockley Mews"},"longitude":"0.095377"},"context":"","outcome_status":{"category":"Status update unavailable","date":"2017-12"},"persistent_id":"975d8d2c274eab56f7e620f3a7d1ef1040a121896cab3a1858ee64ddec17f281","id":59472741,"location_subtype":"","month":"2017-08"},{"category":"violent-crime","location_type":"Force","location":{"latitude":"51.526800","street":{"id":962543,"name":"On or near Blessing Way"},"longitude":"0.119811"},"context":"","outcome_status":{"category":"Investigation complete; no suspect identified","date":"2017-10"},"persistent_id":"c9cdc2efd7600c0828d74c4f6a7edbb0730a8054844a35e787dc0c3ca8869c5b","id":59448553,"location_subtype":"","month":"2017-08"},{"category":"violent-crime","location_type":"Force","location":{"latitude":"51.522087","street":{"id":962547,"name":"On or near Riverdale Close"},"longitude":"0.110885"},"context":"","outcome_status":{"category":"Investigation complete; no suspect identified","date":"2017-09"},"persistent_id":"485e67f01455d5dabfe69ad443e90f2023d314e5218a0db1feee8154945da640","id":59473758,"location_subtype":"","month":"2017-08"},{"category":"other-crime","location_type":"Force","location":{"latitude":"51.529844","street":{"id":963155,"name":"On or near Maybury Road"},"longitude":"0.105102"},"context":"","outcome_status":{"category":"Investigation complete; no suspect identified","date":"2017-08"},"persistent_id":"9efae256f8757f37a7cdff64307c38a772bc2cc4b1128e538f5364bf4963239d","id":59445298,"location_subtype":"","month":"2017-08"}]