[{"category":"anti-social-behaviour","location_type":"Force","location":{"latitude":"52.051307","street":{"id":1135940,"name":"On or near Pownall Road"},"longitude":"1.166037"},"context":"","outcome_status":null,"persistent_id":"","id":65715608,"location_subtype":"","month":"2018-06"},{"category":"anti-social-behaviour","location_type":"Force","location":{"latitude":"52.043956","street":{"id":1134904,"name":"On or near Severn Road"},"longitude":"1.175800"},"context":"","outcome_status":null,"persistent_id":"","id":65715368,"location_subtype":"","month":"2018-06"},{"category":"anti-social-behaviour","location_type":"Force","location":{"latitude":"52.049841","street":{"id":1135926,"name":"On or near Alston Road"},"longitude":"1.176057"},"context":"","outcome_status":null,"persistent_id":"","id":65715393,"location_subtype":"","month":"2018-06"},{"category":"anti-social-behaviour","location_type":"Force","location":{"latitude":"52.048968","street":{"id":1135923,"name":"On or near Derby Road"},"longitude":"1.181728"},"context":"","outcome_status":null,"persistent_id":"","id":65715162,"location_subtype":"","month":"2018-06"},{"category":"anti-social-behaviour","location_type":"Force","location":{"latitude":"52.051307","street":{"id":1135940,"name":"On or near Pownall Road"},"longitude":"1.166037"},"context":"","outcome_status":null,"persistent_id":"","id":65714566,"location_subtype":"","month":"2018-06"},{"category":"anti-social-behaviour","location_type":"Force","location":{"latitude":"52.043956","street":{"id":1134904,"name":"On or near Severn Road"},"longitude":"1.175800"},"context":"","outcome_status":null,"persistent_id":"","id":65715577,"location_subtype":"","month":"2018-06"},{"category":"anti-social-behaviour","location_type":"Force","location":{"latitude":"52.051812","street":{"id":1135935,"name":"On or near Cavendish Street"},"longitude":"1.172973"},"context":"","outcome_status":null,"persistent_id":"","id":65714873,"location_subtype":"","month":"2018-06"},{"category":"bicycle-theft","location_type":"Force","location":{"latitude":"52.050560","street":{"id":1135954,"name":"On or near Duke Street"},"longitude":"1.165357"},"context":"","outcome_status":{"category":"Under investigation","date":"2018-06"},"persistent_id":"d38fd3267710b186bf01203cfa1ffe2f05f0e60371ef9e7c358dc2439de824d3","id":65712527,"location_subtype":"","month":"2018-06"},{"category":"bicycle-theft","location_type":"Force","location":{"latitude":"52.048291","street":{"id":1135942,"name":"On or near Patteson Road"},"longitude":"1.164788"},"context":"","outcome_status":{"category":"Under investigation","date":"2018-06"},"persistent_id":"9d9529a831cdb0c7c9decb4c15279a27b333b0adda658319e4a0c40ef93fb750","id":65707212,"location_subtype":"","month":"2018-06"},{"category":"bicycle-theft","location_type":"Force","location":{"latitude":"52.048968","street":{"id":1135923,"name":"On or near Derby Road"},"longitude":"1.181728"},"context":"","outcome_status":{"category":"Investigation complete; no suspect identified","date":"2018-06"},"persistent_id":"9f03a2c1cec2726cd95e0fc76db981a00b816f221deb065b8f79ef683de289dd","id":65706891,"location_subtype":"","month":"2018-06"},{"category":"bicycle-theft","location_type":"Force","location":{"latitude":"52.050560","street":{"id":1135954,"name":"On or near Duke Street"},"longitude":"1.165357"},"context":"","outcome_status":{"category":"Under investigation","date":"2018-06"},"persistent_id":"7586f7444724ed9c4d4e146853b5098bb7f89fbcf7575006691e9a3d526f80db","id":65712529,"location_subtype":"","month":"2018-06"},{"category":"burglary","location_type":"Force","location":{"latitude":"52.044916","street":{"id":1134921,"name":"On or near Cliff Lane"},"longitude":"1.172557"},"context":"","outcome_status":{"category":"Under investigation","date":"2018-06"},"persistent_id":"3ffcfdc4bf6c33a353824cff5723fec2eaca59e288c9afd1261f850ef5956f32","id":65713134,"location_subtype":"","month":"2018-06"},{"category":"burglary","location_type":"Force","location":{"latitude":"52.044916","street":{"id":1134921,"name":"On or near Cliff Lane"},"longitude":"1.172557"},"context":"","outcome_status":{"category":"Investigation complete; no suspect identified","date":"2018-06"},"persistent_id":"6232286e84c8d1e8225346ca345a989c27c412683ab681761b9b3a59924969d6","id":65707859,"location_subtype":"","month":"2018-06"},{"category":"burglary","location_type":"Force","location":{"latitude":"52.044158","street":{"id":1134918,"name":"On or near Sports\/recreation Area"},"longitude":"1.166640"},"context":"","outcome_status":{"category":"Investigation complete; no suspect identified","date":"2018-06"},"persistent_id":"9c6f4d2bfa6dd82fad01aef93d52fd9b17495b3e7d7dfee26a8333dd2282fd5e","id":65707540,"location_subtype":"","month":"2018-06"},{"category":"burglary","location_type":"Force","location":{"latitude":"52.048677","street":{"id":1135922,"name":"On or near Felixstowe Road"},"longitude":"1.177521"},"context":"","outcome_status":{"category":"Under investigation","date":"2018-06"},"persistent_id":"01909df516548c7f63e9b6602f82b5b3a40f7ec3cc4754b396663ffee002a98b","id":65709930,"location_subtype":"","month":"2018-06"},{"category":"burglary","location_type":"Force","location":{"latitude":"52.048705","street":{"id":1135958,"name":"On or near Anchor Street"},"longitude":"1.164467"},"context":"","outcome_status":{"category":"Investigation complete; no suspect identified","date":"2018-06"},"persistent_id":"fa6b312b0a0a2c1f1b2fdc6188c7a7f9bc79bb59854c4a8eec4d851b2e85b3b0","id":65708162,"location_subtype":"","month":"2018-06"},{"category":"burglary","location_type":"Force","location":{"latitude":"52.046953","street":{"id":1135906,"name":"On or near Nacton Road"},"longitude":"1.177092"},"context":"","outcome_status":{"category":"Under investigation","date":"2018-06"},"persistent_id":"4d29f8aaf475a4840519650ddfca783fa966c2b138b8a290a21e5b0cc7d92fce","id":65710916,"location_subtype":"","month":"2018-06"},{"category":"criminal-damage-arson","location_type":"Force","location":{"latitude":"52.044158","street":{"id":1134918,"name":"On or near Sports\/recreation Area"},"longitude":"1.166640"},"context":"","outcome_status":{"category":"Under investigation","date":"2018-06"},"persistent_id":"f6ba234ab83b23b46872d7405305b090bf8eea89ad072a25adffec39944d0b6e","id":65707287,"location_subtype":"","month":"2018-06"},{"category":"criminal-damage-arson","location_type":"Force","location":{"latitude":"52.051313","street":{"id":1135941,"name":"On or near Plough Street"},"longitude":"1.168153"},"context":"","outcome_status":{"category":"Investigation complete; no suspect identified","date":"2018-06"},"persistent_id":"820d227c1172821014919bc06a4423a14a234210f55515a4ca6814bec64b7c99","id":65710792,"location_subtype":"","month":"2018-06"},{"category":"criminal-damage-arson","location_type":"Force","location":{"latitude":"52.049841","street":{"id":1135926,"name":"On or near Alston Road"},"longitude":"1.176057"},"context":"","outcome_status":{"category":"Under investigation","date":"2018-06"},"persistent_id":"70779d11d6c86ad9d98f8e9051b642794bb291ceea1a25efeae8d8372eff6b5f","id":65705609,"location_subtype":"","month":"2018-06"},{"category":"criminal-damage-arson","location_type":"Force","location":{"latitude":"52.044158","street":{"id":1134918,"name":"On or near Sports\/recreation Area"},"longitude":"1.166640"},"context":"","outcome_status":{"category":"Under investigation","date":"2018-06"},"persistent_id":"edf262710d2742ab36d745cec7bc58bf6d095b3bc917292c31bf473ffe1a2c60","id":65709578,"location_subtype":"","month":"2018-06"},{"category":"criminal-damage-arson","location_type":"Force","location":{"latitude":"52.049894","street":{"id":1135936,"name":"On or near Bishop's Hill"},"longitude":"1.171072"},"context":"","outcome_status":{"category":"Investigation complete; no suspect identified","date":"2018-06"},"persistent_id":"d7c38dcc92bfe339bbecfbab212f9deb141900a86e25f3f272a8d41ffc0257f7","id":65706062,"location_subtype":"","month":"2018-06"},{"category":"criminal-damage-arson","location_type":"Force","location":{"latitude":"52.051812","street":{"id":1135935,"name":"On or near Cavendish Street"},"longitude":"1.172973"},"context":"","outcome_status":{"category":"Under investigation","date":"2018-06"},"persistent_id":"9695bbaf3c3f218448c171d0d5f26e2ad6de3276229eb34a0aed8a9101253188","id":65712720,"location_subtype":"","month":"2018-06"},{"category":"drugs","location_type":"Force","location":{"latitude":"52.053488","street":{"id":1135850,"name":"On or near Supermarket"},"longitude":"1.173223"},"context":"","outcome_status":{"category":"Under investigation","date":"2018-06"},"persistent_id":"342b6c0698acb4bad4ac6c0f7251ceebd3f01e00d8440d1c5f50738af7a78c01","id":65708929,"location_subtype":"","month":"2018-06"},{"category":"drugs","location_type":"Force","location":{"latitude":"52.049660","street":{"id":1135914,"name":"On or near Sandhurst Avenue"},"longitude":"1.174746"},"context":"","outcome_status":{"category":"Offender given a drugs possession warning","date":"2018-06"},"persistent_id":"fae0bdad0522728da7bb62784881e733f5a1446db26a0e0e46b19441e188ac5b","id":65708926,"location_subtype":"","month":"2018-06"},{"category":"drugs","location_type":"Force","location":{"latitude":"52.052691","street":{"id":1132389,"name":"On or near Devonshire Road"},"longitude":"1.171737"},"context":"","outcome_status":{"category":"Under investigation","date":"2018-06"},"persistent_id":"d8be4934d3a0872076e605c3a24e4d36fbab0a8c5dc20d6b59c55cd4d357e129","id":65706376,"location_subtype":"","month":"2018-06"},{"category":"other-theft","location_type":"Force","location":{"latitude":"52.044916","street":{"id":1134921,"name":"On or near Cliff Lane"},"longitude":"1.172557"},"context":"","outcome_status":{"category":"Under investigation","date":"2018-06"},"persistent_id":"4f4d5f5cb11cbf0f2734b7a47a8dc5cf94771610cb9c1f9d9e17d6c69d11dcbc","id":65712894,"location_subtype":"","month":"2018-06"},{"category":"other-theft","location_type":"Force","location":{"latitude":"52.047499","street":{"id":1135915,"name":"On or near Salisbury Road"},"longitude":"1.178517"},"context":"","outcome_status":{"category":"Under investigation","date":"2018-06"},"persistent_id":"ba6de97af467420a58a94108a9161cbb29bb67b801c1cbcc5f1d27ff86afeb05","id":65711966,"location_subtype":"","month":"2018-06"},{"category":"other-theft","location_type":"Force","location":{"latitude":"52.052574","street":{"id":1135960,"name":"On or near A1156"},"longitude":"1.164741"},"context":"","outcome_status":{"category":"Under investigation","date":"2018-06"},"persistent_id":"a8177de8c0247807b50c2c3f4d4a3747fc5d5a90f03cdf8e0af7aaacb7e9543c","id":65713207,"location_subtype":"","month":"2018-06"},{"category":"possession-of-weapons","location_type":"Force","location":{"latitude":"52.052574","street":{"id":1135960,"name":"On or near A1156"},"longitude":"1.164741"},"context":"","outcome_status":{"category":"Awaiting court outcome","date":"2018-06"},"persistent_id":"8a60d321fe01980a8093cbbfd2b1bd4a33ecab9807ff466457754c78d5c704d4","id":65706245,"location_subtype":"","month":"2018-06"},{"category":"possession-of-weapons","location_type":"Force","location":{"latitude":"52.044158","street":{"id":1134918,"name":"On or near Sports\/recreation Area"},"longitude":"1.166640"},"context":"","outcome_status":{"category":"Awaiting court outcome","date":"2018-06"},"persistent_id":"722d115a20528b53f5ce50c52c418d0e7bcde7c7ba7e1967965c74e6ea4eb7cb","id":65707500,"location_subtype":"","month":"2018-06"},{"category":"public-order","location_type":"Force","location":{"latitude":"52.052574","street":{"id":1135960,"name":"On or near A1156"},"longitude":"1.164741"},"context":"","outcome_status":{"category":"Under investigation","date":"2018-06"},"persistent_id":"12b602e43fb8f6f04c8f0401d1c03c599a3b0bfd5f2467f1c63fa5a5cb2a9c4e","id":65712996,"location_subtype":"","month":"2018-06"},{"category":"public-order","location_type":"Force","location":{"latitude":"52.049605","street":{"id":1135946,"name":"On or near Myrtle Road"},"longitude":"1.168791"},"context":"","outcome_status":{"category":"Under investigation","date":"2018-06"},"persistent_id":"e9e8fc5622304fc68f2bda4bf8ac141adc618f13e68009ceb5bc0a374b62d660","id":65712251,"location_subtype":"","month":"2018-06"},{"category":"shoplifting","location_type":"Force","location":{"latitude":"52.050500","street":{"id":1135950,"name":"On or near Hope Court"},"longitude":"1.166257"},"context":"","outcome_status":{"category":"Under investigation","date":"2018-06"},"persistent_id":"006314d0f8053a7dce8f27da6eb384067a558e095eab213492e465798286af12","id":65711958,"location_subtype":"","month":"2018-06"},{"category":"theft-from-the-person","location_type":"Force","location":{"latitude":"52.044158","street":{"id":1134918,"name":"On or near Sports\/recreation Area"},"longitude":"1.166640"},"context":"","outcome_status":{"category":"Under investigation","date":"2018-06"},"persistent_id":"15e5ca47cbb211c5fba363b8cb56099857cca688fa3123fc53cd7560266b92e7","id":65708529,"location_subtype":"","month":"2018-06"},{"category":"vehicle-crime","location_type":"Force","location":{"latitude":"52.048291","street":{"id":1135942,"name":"On or near Patteson Road"},"longitude":"1.164788"},"context":"","outcome_status":{"category":"Under investigation","date":"2018-06"},"persistent_id":"33a885ac034fc781e3e2b9be2bbdf3266c009ba9559bd6128a251fd5ad5c766e","id":65706594,"location_subtype":"","month":"2018-06"},{"category":"vehicle-crime","location_type":"Force","location":{"latitude":"52.052558","street":{"id":1135920,"name":"On or near Foxhall Road"},"longitude":"1.181021"},"context":"","outcome_status":{"category":"Investigation complete; no suspect identified","date":"2018-06"},"persistent_id":"99d5a95fcb1a77773b2c97d7702eec2e0dfc565e09623cb394a56aee022253e9","id":65705766,"location_subtype":"","month":"2018-06"},{"category":"violent-crime","location_type":"Force","location":{"latitude":"52.050663","street":{"id":1135933,"name":"On or near Mitre Way"},"longitude":"1.170558"},"context":"","outcome_status":{"category":"Unable to prosecute suspect","date":"2018-06"},"persistent_id":"a235734e051505d14fe8fd4b82305f4b259c1d1ac934d160f79a0993b4bffb56","id":65708127,"location_subtype":"","month":"2018-06"},{"category":"violent-crime","location_type":"Force","location":{"latitude":"52.052936","street":{"id":1135919,"name":"On or near Foxhall Road"},"longitude":"1.176000"},"context":"","outcome_status":{"category":"Under investigation","date":"2018-06"},"persistent_id":"c087e725e636662b5cd4ebcda71a606d64a59a037f12ebe0abf3bbfa6019e762","id":65710167,"location_subtype":"","month":"2018-06"},{"category":"violent-crime","location_type":"Force","location":{"latitude":"52.053488","street":{"id":1135850,"name":"On or near Supermarket"},"longitude":"1.173223"},"context":"","outcome_status":{"category":"Under investigation","date":"2018-06"},"persistent_id":"b446c8d01ed1c7e1cf3f1813504bfe4dee6fcba02a2288d709da20db20a79bb7","id":65709095,"location_subtype":"","month":"2018-06"},{"category":"violent-crime","location_type":"Force","location":{"latitude":"52.048291","street":{"id":1135942,"name":"On or near Patteson Road"},"longitude":"1.164788"},"context":"","outcome_status":{"category":"Unable to prosecute suspect","date":"2018-06"},"persistent_id":"e8a669e07ec60be66af4f689b203f92e730a95345414f8cd1ae7a4058e64f1c0","id":65710440,"location_subtype":"","month":"2018-06"},{"category":"violent-crime","location_type":"Force","location":{"latitude":"52.050663","street":{"id":1135933,"name":"On or near Mitre Way"},"longitude":"1.170558"},"context":"","outcome_status":{"category":"Unable to prosecute suspect","date":"2018-06"},"persistent_id":"1bd4c1ebaa60ed21c9b4a2e06798ffa8704a5187fe0e8d6f475da12ffb5c2b5c","id":65710816,"location_subtype":"","month":"2018-06"},{"category":"violent-crime","location_type":"Force","location":{"latitude":"52.051511","street":{"id":1135912,"name":"On or near Upper Cavendish Street"},"longitude":"1.179487"},"context":"","outcome_status":{"category":"Unable to prosecute suspect","date":"2018-06"},"persistent_id":"1191144c6704178ef8448596aeafea138e79d1b819832f4062fe777afc694f30","id":65711847,"location_subtype":"","month":"2018-06"},{"category":"violent-crime","location_type":"Force","location":{"latitude":"52.048677","street":{"id":1135922,"name":"On or near Felixstowe Road"},"longitude":"1.177521"},"context":"","outcome_status":{"category":"Unable to prosecute suspect","date":"2018-06"},"persistent_id":"186f048d23f8c73911e6335113ed0a92bb065148d684299cb5439721b6fcda51","id":65705839,"location_subtype":"","month":"2018-06"},{"category":"violent-crime","location_type":"Force","location":{"latitude":"52.053488","street":{"id":1135850,"name":"On or near Supermarket"},"longitude":"1.173223"},"context":"","outcome_status":{"category":"Investigation complete; no suspect identified","date":"2018-06"},"persistent_id":"18f24870d59262a4ce339ef4987240f487a9ea9b05dd52d207fdf1d75af6b92a","id":65709050,"location_subtype":"","month":"2018-06"},{"category":"violent-crime","location_type":"Force","location":{"latitude":"52.049660","street":{"id":1135914,"name":"On or near Sandhurst Avenue"},"longitude":"1.174746"},"context":"","outcome_status":{"category":"Under investigation","date":"2018-06"},"persistent_id":"af76a10ccc40228f91ad34851c3bb53f1a3b58800bce30256778eeab7fa3c456","id":65710378,"location_subtype":"","month":"2018-06"},{"category":"violent-crime","location_type":"Force","location":{"latitude":"52.048291","street":{"id":1135942,"name":"On or near Patteson Road"},"longitude":"1.164788"},"context":"","outcome_status":{"category":"Unable to prosecute suspect","date":"2018-06"},"persistent_id":"1f0d668bc8a2c37b21094f5a8702e59c9a3a914c71fb964802f9d186466faffb","id":65706257,"location_subtype":"","month":"2018-06"},{"category":"violent-crime","location_type":"Force","location":{"latitude":"52.050557","street":{"id":1135916,"name":"On or near Rosehill Road"},"longitude":"1.177830"},"context":"","outcome_status":{"category":"Unable to prosecute suspect","date":"2018-06"},"persistent_id":"a6258401d3858ec1dc93c0f7ad568ecb57273bfe875f23e78f27a656ca69b51c","id":65706528,"location_subtype":"","month":"2018-06"},{"category":"violent-crime","location_type":"Force","location":{"latitude":"52.053488","street":{"id":1135850,"name":"On or near Supermarket"},"longitude":"1.173223"},"context":"","outcome_status":{"category":"Under investigation","date":"2018-06"},"persistent_id":"c9862ca2ed703040ebfc2260d52094fb3654150a94e38e47161fe9af7d86b146","id":65707119,"location_subtype":"","month":"2018-06"},{"category":"violent-crime","location_type":"Force","location":{"latitude":"52.050557","street":{"id":1135916,"name":"On or near Rosehill Road"},"longitude":"1.177830"},"context":"","outcome_status":{"category":"Under investigation","date":"2018-06"},"persistent_id":"d032f069f46c425ab71ac96d9e5db49a42c493264897f802a06617bc41d9009b","id":65708427,"location_subtype":"","month":"2018-06"},{"category":"violent-crime","location_type":"Force","location":{"latitude":"52.050132","street":{"id":1135938,"name":"On or near Tye Road"},"longitude":"1.167252"},"context":"","outcome_status":{"category":"Under investigation","date":"2018-06"},"persistent_id":"99457fc0946b7a9d8303a502c444fd83012bffcab213cc576776ed0ab83891ba","id":65713706,"location_subtype":"","month":"2018-06"},{"category":"violent-crime","location_type":"Force","location":{"latitude":"52.043956","street":{"id":1134904,"name":"On or near Severn Road"},"longitude":"1.175800"},"context":"","outcome_status":{"category":"Under investigation","date":"2018-06"},"persistent_id":"cbd4ddeeb71ed6556b44f87d1d848ab318532cc602aa1fbe7bb8347e6df9ea72","id":65710693,"location_subtype":"","month":"2018-06"},{"category":"violent-crime","location_type":"Force","location":{"latitude":"52.043956","street":{"id":1134904,"name":"On or near Severn Road"},"longitude":"1.175800"},"context":"","outcome_status":{"category":"Under investigation","date":"2018-06"},"persistent_id":"deeb3d576618e58639f2c292ade250954bf67873e4f1d2a16db122ef5c620c02","id":65712441,"location_subtype":"","month":"2018-06"},{"category":"violent-crime","location_type":"Force","location":{"latitude":"52.042885","street":{"id":1134911,"name":"On or near Derwent Road"},"longitude":"1.176497"},"context":"","outcome_status":{"category":"Under investigation","date":"2018-06"},"persistent_id":"daa9e0aa007ad709b416fa2476ca8be808437a06d86d21fe3c9142a9aef26d9a","id":65711849,"location_subtype":"","month":"2018-06"},{"category":"violent-crime","location_type":"Force","location":{"latitude":"52.050500","street":{"id":1135950,"name":"On or near Hope Court"},"longitude":"1.166257"},"context":"","outcome_status":{"category":"Under investigation","date":"2018-06"},"persistent_id":"d123e1be62da143b9279dc428b9d18babb03b0a5bbdb9e9bd5db22c8a40b3be9","id":65712020,"location_subtype":"","month":"2018-06"},{"category":"violent-crime","location_type":"Force","location":{"latitude":"52.053488","street":{"id":1135850,"name":"On or near Supermarket"},"longitude":"1.173223"},"context":"","outcome_status":{"category":"Under investigation","date":"2018-06"},"persistent_id":"c78006cfa3b1965378645efd1541bb2bdc019bd5ff89fe038d301ee869bb65c7","id":65710210,"location_subtype":"","month":"2018-06"},{"category":"violent-crime","location_type":"Force","location":{"latitude":"52.053056","street":{"id":1135934,"name":"On or near Gladstone Road"},"longitude":"1.172565"},"context":"","outcome_status":{"category":"Unable to prosecute suspect","date":"2018-06"},"persistent_id":"49e0db3981e929a9c3469e267a4b85571a8ab6a1ad98625ef0d32136c23ede4b","id":65707839,"location_subtype":"","month":"2018-06"},{"category":"other-crime","location_type":"Force","location":{"latitude":"52.053488","street":{"id":1135850,"name":"On or near Supermarket"},"longitude":"1.173223"},"context":"","outcome_status":{"category":"Under investigation","date":"2018-06"},"persistent_id":"20808a18886141c311d7a0d3ad3184d3d93ce172d0f02600e18822c81996c340","id":65708821,"location_subtype":"","month":"2018-06"},{"category":"other-crime","location_type":"Force","location":{"latitude":"52.047712","street":{"id":1135917,"name":"On or near Osborne Road"},"longitude":"1.179276"},"context":"","outcome_status":{"category":"Unable to prosecute suspect","date":"2018-06"},"persistent_id":"ef2861021335bcc213acd1e332bee07089b5e057bfaf901eddb5f909f98b6beb","id":65711026,"location_subtype":"","month":"2018-06"}]