[{"category":"burglary","location_type":"Force","location":{"latitude":"51.646783","street":{"id":756340,"name":"On or near Penrice Green"},"longitude":"-3.005838"},"context":"","outcome_status":{"category":"Under investigation","date":"2018-06"},"persistent_id":"969320b7c3bbab392a5a8fbd9a7b4112a07e66241a752e9f376dd5064dc663fa","id":65988688,"location_subtype":"","month":"2018-06"},{"category":"burglary","location_type":"Force","location":{"latitude":"51.644957","street":{"id":756322,"name":"On or near Olway Close"},"longitude":"-3.005899"},"context":"","outcome_status":{"category":"Under investigation","date":"2018-06"},"persistent_id":"5b126f27de35a87440a6121f61e8c1a16680c94a3a76fe5ea7d90608439f62f5","id":65988607,"location_subtype":"","month":"2018-06"},{"category":"criminal-damage-arson","location_type":"Force","location":{"latitude":"51.647188","street":{"id":756337,"name":"On or near St Brides Close"},"longitude":"-3.006873"},"context":"","outcome_status":{"category":"Under investigation","date":"2018-06"},"persistent_id":"aa6cc6dc955210c3dd48f749100b27e7ab2d9a3da17b69c241ee0485f6c3c90d","id":65986111,"location_subtype":"","month":"2018-06"},{"category":"other-theft","location_type":"Force","location":{"latitude":"51.648454","street":{"id":756511,"name":"On or near Liswerry Close"},"longitude":"-3.003938"},"context":"","outcome_status":{"category":"Under investigation","date":"2018-06"},"persistent_id":"c3f2881eee612d2db078922f4dd3bd309defb043ec8f84ce4ac802d1651f3732","id":65986840,"location_subtype":"","month":"2018-06"},{"category":"public-order","location_type":"Force","location":{"latitude":"51.646265","street":{"id":756335,"name":"On or near Tudor Woods"},"longitude":"-3.004381"},"context":"","outcome_status":{"category":"Under investigation","date":"2018-06"},"persistent_id":"a003a950fc819f53f2413ce8e4f03f277fb456bf958cdb9374baac28e43198d9","id":65986954,"location_subtype":"","month":"2018-06"},{"category":"public-order","location_type":"Force","location":{"latitude":"51.649448","street":{"id":756490,"name":"On or near Llan-yr-avon Way"},"longitude":"-3.006403"},"context":"","outcome_status":{"category":"Under investigation","date":"2018-06"},"persistent_id":"5a92c2bf0af5e3e083eb328b6090bed45de69e9f09368acc403f893cb2b93377","id":65987364,"location_subtype":"","month":"2018-06"},{"category":"public-order","location_type":"Force","location":{"latitude":"51.649976","street":{"id":756484,"name":"On or near Narberth Crescent"},"longitude":"-3.004593"},"context":"","outcome_status":{"category":"Under investigation","date":"2018-06"},"persistent_id":"fad7cebf5f9a22c331ca051a51054b1dec804b6ab4beec73e23e2fa1c9bfbbc4","id":65987289,"location_subtype":"","month":"2018-06"},{"category":"public-order","location_type":"Force","location":{"latitude":"51.652662","street":{"id":756470,"name":"On or near Turnpike Road"},"longitude":"-3.002860"},"context":"","outcome_status":{"category":"Under investigation","date":"2018-06"},"persistent_id":"b74d40edb6370b694d66d5783eca36933edab17e4af40bf48504a4e9acaa4bc0","id":65987146,"location_subtype":"","month":"2018-06"},{"category":"public-order","location_type":"Force","location":{"latitude":"51.645922","street":{"id":756344,"name":"On or near Llan-yr-avon Square"},"longitude":"-3.007640"},"context":"","outcome_status":{"category":"Under investigation","date":"2018-06"},"persistent_id":"d8854540cefd8129010ce12b9de1ba44dcf9ea488d3f5e0ab48b6d5a50ec8b77","id":65987042,"location_subtype":"","month":"2018-06"},{"category":"shoplifting","location_type":"Force","location":{"latitude":"51.652662","street":{"id":756470,"name":"On or near Turnpike Road"},"longitude":"-3.002860"},"context":"","outcome_status":{"category":"Under investigation","date":"2018-06"},"persistent_id":"32e6fb889292221548df38ee1b1958ad668db781544eac99bc85557cef54b391","id":65988028,"location_subtype":"","month":"2018-06"},{"category":"vehicle-crime","location_type":"Force","location":{"latitude":"51.647188","street":{"id":756337,"name":"On or near St Brides Close"},"longitude":"-3.006873"},"context":"","outcome_status":{"category":"Under investigation","date":"2018-06"},"persistent_id":"772f794f2af46d41877a54f679f649a9cdd4148e0475f8ac6351aeb8d93eef23","id":65988136,"location_subtype":"","month":"2018-06"},{"category":"violent-crime","location_type":"Force","location":{"latitude":"51.647374","street":{"id":756339,"name":"On or near Rhodri Place"},"longitude":"-3.003943"},"context":"","outcome_status":{"category":"Under investigation","date":"2018-06"},"persistent_id":"123abfa303505b25993e5ab66f190deaef2fe26494b56dec11a05ccab52674b8","id":65984699,"location_subtype":"","month":"2018-06"},{"category":"violent-crime","location_type":"Force","location":{"latitude":"51.645922","street":{"id":756344,"name":"On or near Llan-yr-avon Square"},"longitude":"-3.007640"},"context":"","outcome_status":{"category":"Under investigation","date":"2018-06"},"persistent_id":"ad497c45c85cc23063fafc16919b5d0c8fbc3f4b08573126266bb580d94740f1","id":65984731,"location_subtype":"","month":"2018-06"},{"category":"violent-crime","location_type":"Force","location":{"latitude":"51.652662","street":{"id":756470,"name":"On or near Turnpike Road"},"longitude":"-3.002860"},"context":"","outcome_status":{"category":"Under investigation","date":"2018-06"},"persistent_id":"2792f0fa8d38ae2a0de725acaabf99463fbbe8cc785155f321e5c99ff382afdb","id":65984373,"location_subtype":"","month":"2018-06"},{"category":"violent-crime","location_type":"Force","location":{"latitude":"51.650121","street":{"id":756487,"name":"On or near Manorbier Drive"},"longitude":"-3.008716"},"context":"","outcome_status":{"category":"Unable to prosecute suspect","date":"2018-06"},"persistent_id":"a8d020129c1fb6b421cfe2b5b1960862b21b6443bd096c4b9c8f3de3ed51a2f7","id":65984569,"location_subtype":"","month":"2018-06"}]