[{"category":"anti-social-behaviour","location_type":"Force","location":{"latitude":"50.859683","street":{"id":658890,"name":"On or near Hambledon Gardens"},"longitude":"-2.152883"},"context":"","outcome_status":null,"persistent_id":"fcfead36d3cb5e5a3de0a2fcc7eb4d2849f124f12d4dfd02f8c77e715912c24e","id":65608652,"location_subtype":"","month":"2018-06"},{"category":"anti-social-behaviour","location_type":"Force","location":{"latitude":"50.864119","street":{"id":658867,"name":"On or near Tudor Gardens"},"longitude":"-2.150795"},"context":"","outcome_status":null,"persistent_id":"ed98651b00b73176dfb915a6bf1441e258de4d184ee9299f8888ea79c38a8b57","id":65608680,"location_subtype":"","month":"2018-06"},{"category":"anti-social-behaviour","location_type":"Force","location":{"latitude":"50.857457","street":{"id":658756,"name":"On or near Wimborne Road"},"longitude":"-2.149722"},"context":"","outcome_status":null,"persistent_id":"f58a8045b4c2dbbb9944263c7275574b18af3a85eea1fe35a5e09c4be5b80873","id":65608691,"location_subtype":"","month":"2018-06"},{"category":"anti-social-behaviour","location_type":"Force","location":{"latitude":"50.857710","street":{"id":658762,"name":"On or near Chapel Gardens"},"longitude":"-2.155832"},"context":"","outcome_status":null,"persistent_id":"2ce662d1ae971389584611156227b969e4abc59008ec80b41a638d8051bcb17d","id":65609252,"location_subtype":"","month":"2018-06"},{"category":"anti-social-behaviour","location_type":"Force","location":{"latitude":"50.857710","street":{"id":658762,"name":"On or near Chapel Gardens"},"longitude":"-2.155832"},"context":"","outcome_status":null,"persistent_id":"b27084c74dc3fc58f1aefde1393b2521677b2cd0c74b36ab2eca0772a2ebf1e0","id":65609256,"location_subtype":"","month":"2018-06"},{"category":"anti-social-behaviour","location_type":"Force","location":{"latitude":"50.861233","street":{"id":658895,"name":"On or near Downside Close"},"longitude":"-2.150430"},"context":"","outcome_status":null,"persistent_id":"ce23261af47f9ce32c6e7a508c6f5a093122cc869bdf4fa1856134cdf30add7c","id":65609374,"location_subtype":"","month":"2018-06"},{"category":"anti-social-behaviour","location_type":"Force","location":{"latitude":"50.859683","street":{"id":658890,"name":"On or near Hambledon Gardens"},"longitude":"-2.152883"},"context":"","outcome_status":null,"persistent_id":"74d93987c11c7e78023fe985bda98e46e70a231f653e22889280e99e6103b742","id":65607109,"location_subtype":"","month":"2018-06"},{"category":"anti-social-behaviour","location_type":"Force","location":{"latitude":"50.855763","street":{"id":658750,"name":"On or near Meadow View"},"longitude":"-2.158809"},"context":"","outcome_status":null,"persistent_id":"b9269d1b4f8592a730b43b73940e108c56561cd315d6831388a4f49350e224e6","id":65607938,"location_subtype":"","month":"2018-06"},{"category":"anti-social-behaviour","location_type":"Force","location":{"latitude":"50.855626","street":{"id":658716,"name":"On or near Parking Area"},"longitude":"-2.160243"},"context":"","outcome_status":null,"persistent_id":"97a42df8aa8b54cd96574828014e6f1dfec49637dd72f90dc9cc7c6fbcefe775","id":65607720,"location_subtype":"","month":"2018-06"},{"category":"anti-social-behaviour","location_type":"Force","location":{"latitude":"50.859683","street":{"id":658890,"name":"On or near Hambledon Gardens"},"longitude":"-2.152883"},"context":"","outcome_status":null,"persistent_id":"59c2c64fd82ceea68620289608940289cb5c7a2ec4d6f6b07b169ee5cf4b189a","id":65608200,"location_subtype":"","month":"2018-06"},{"category":"anti-social-behaviour","location_type":"Force","location":{"latitude":"50.859683","street":{"id":658890,"name":"On or near Hambledon Gardens"},"longitude":"-2.152883"},"context":"","outcome_status":null,"persistent_id":"8a5fddf504080d2851001783bd69eec5077940a51330f847f5a46895f4944472","id":65608324,"location_subtype":"","month":"2018-06"},{"category":"burglary","location_type":"Force","location":{"latitude":"50.855349","street":{"id":649603,"name":"On or near Westbury Way"},"longitude":"-2.152784"},"context":"","outcome_status":{"category":"Under investigation","date":"2018-06"},"persistent_id":"20ae02f7f64c21ae821341fbbd7ce2734b2084fbd9fc16d99d7de3d965bd2027","id":65605259,"location_subtype":"","month":"2018-06"},{"category":"criminal-damage-arson","location_type":"Force","location":{"latitude":"50.855349","street":{"id":649603,"name":"On or near Westbury Way"},"longitude":"-2.152784"},"context":"","outcome_status":{"category":"Under investigation","date":"2018-06"},"persistent_id":"4980de1a54ca3980b51091ed8473412641b9aa145ee41a0e2a1d462502e43e3e","id":65605871,"location_subtype":"","month":"2018-06"},{"category":"criminal-damage-arson","location_type":"Force","location":{"latitude":"50.856388","street":{"id":658754,"name":"On or near Windmill Road"},"longitude":"-2.155429"},"context":"","outcome_status":{"category":"Under investigation","date":"2018-06"},"persistent_id":"900d14e4cc21a42e9616eca0decba503865e65c2ab034f3db3f9bf6ef1d9d2f1","id":65603578,"location_subtype":"","month":"2018-06"},{"category":"criminal-damage-arson","location_type":"Force","location":{"latitude":"50.861337","street":{"id":658888,"name":"On or near Highfields"},"longitude":"-2.153443"},"context":"","outcome_status":{"category":"Under investigation","date":"2018-06"},"persistent_id":"4f79e59b77467f8c47de54c1c3f7a1109909c13fbc60f0f5b5d8d64fe483fa93","id":65605766,"location_subtype":"","month":"2018-06"},{"category":"other-theft","location_type":"Force","location":{"latitude":"50.861113","street":{"id":658881,"name":"On or near Martin Close"},"longitude":"-2.152433"},"context":"","outcome_status":{"category":"Under investigation","date":"2018-06"},"persistent_id":"f2f1376821071b779cb0056cdb8ec6860d66ad4b21550b845e99177d55a0f355","id":65603939,"location_subtype":"","month":"2018-06"},{"category":"shoplifting","location_type":"Force","location":{"latitude":"50.855894","street":{"id":658760,"name":"On or near Langton Crescent"},"longitude":"-2.155499"},"context":"","outcome_status":{"category":"Under investigation","date":"2018-06"},"persistent_id":"5e2f52708186e13d95a40beb608db41774338d4d6fe6705bf6463e27aac05581","id":65604139,"location_subtype":"","month":"2018-06"},{"category":"shoplifting","location_type":"Force","location":{"latitude":"50.855894","street":{"id":658760,"name":"On or near Langton Crescent"},"longitude":"-2.155499"},"context":"","outcome_status":{"category":"Under investigation","date":"2018-06"},"persistent_id":"4eb5c45a3076101a99d9e6dd8dc91f68f2a8975f6ca0153098aef8afcec1cbf0","id":65604140,"location_subtype":"","month":"2018-06"},{"category":"shoplifting","location_type":"Force","location":{"latitude":"50.855894","street":{"id":658760,"name":"On or near Langton Crescent"},"longitude":"-2.155499"},"context":"","outcome_status":{"category":"Under investigation","date":"2018-06"},"persistent_id":"c926d10740c384b2fc1044710cede4c56b7c431f2d082a58e3ab5904014c5fbd","id":65604137,"location_subtype":"","month":"2018-06"},{"category":"shoplifting","location_type":"Force","location":{"latitude":"50.855894","street":{"id":658760,"name":"On or near Langton Crescent"},"longitude":"-2.155499"},"context":"","outcome_status":{"category":"Under investigation","date":"2018-06"},"persistent_id":"42c20d68bc5f08f05c52876e7ae0b1c5810a6642d0f022fad434f31df1c76d61","id":65604138,"location_subtype":"","month":"2018-06"},{"category":"vehicle-crime","location_type":"Force","location":{"latitude":"50.856572","street":{"id":658717,"name":"On or near Parking Area"},"longitude":"-2.159607"},"context":"","outcome_status":{"category":"Investigation complete; no suspect identified","date":"2018-06"},"persistent_id":"6e5984244918717a6fff4fc70f423a55e6ebf4d5871f6a05a78be3b3f0f9cb2d","id":65604993,"location_subtype":"","month":"2018-06"},{"category":"violent-crime","location_type":"Force","location":{"latitude":"50.855349","street":{"id":649603,"name":"On or near Westbury Way"},"longitude":"-2.152784"},"context":"","outcome_status":{"category":"Unable to prosecute suspect","date":"2018-06"},"persistent_id":"6be72fd1e1f773ab6eed91934e044d0ac25b9e437330c76fc1c2bf21f7e4c082","id":65605872,"location_subtype":"","month":"2018-06"},{"category":"violent-crime","location_type":"Force","location":{"latitude":"50.855894","street":{"id":658760,"name":"On or near Langton Crescent"},"longitude":"-2.155499"},"context":"","outcome_status":{"category":"Under investigation","date":"2018-06"},"persistent_id":"bd46346fa57d643a4b911738b30646985180d8a9464bd05de4043f1a46dcd360","id":65602297,"location_subtype":"","month":"2018-06"},{"category":"violent-crime","location_type":"Force","location":{"latitude":"50.864119","street":{"id":658867,"name":"On or near Tudor Gardens"},"longitude":"-2.150795"},"context":"","outcome_status":{"category":"Under investigation","date":"2018-06"},"persistent_id":"28b381c5cb9c7ff141b37120724be73eaa07eebea0c035c01c95d44c6b5618ce","id":65604686,"location_subtype":"","month":"2018-06"},{"category":"violent-crime","location_type":"Force","location":{"latitude":"50.855349","street":{"id":649603,"name":"On or near Westbury Way"},"longitude":"-2.152784"},"context":"","outcome_status":{"category":"Under investigation","date":"2018-06"},"persistent_id":"c41938ea230479b831744abf9bc5360e479984c12a13b83fbc6482f1e5a2b412","id":65605873,"location_subtype":"","month":"2018-06"},{"category":"violent-crime","location_type":"Force","location":{"latitude":"50.861337","street":{"id":658888,"name":"On or near Highfields"},"longitude":"-2.153443"},"context":"","outcome_status":{"category":"Under investigation","date":"2018-06"},"persistent_id":"97853f9cc8d805a4959356ab48569c9ce68af5310debe52da27214a66161606d","id":65606442,"location_subtype":"","month":"2018-06"},{"category":"violent-crime","location_type":"Force","location":{"latitude":"50.855349","street":{"id":649603,"name":"On or near Westbury Way"},"longitude":"-2.152784"},"context":"","outcome_status":{"category":"Under investigation","date":"2018-06"},"persistent_id":"906551a29955c97563e58cbe9719e6472202df1f3962e3ad86ec2093a9a3c4db","id":65607004,"location_subtype":"","month":"2018-06"},{"category":"violent-crime","location_type":"Force","location":{"latitude":"50.855349","street":{"id":649603,"name":"On or near Westbury Way"},"longitude":"-2.152784"},"context":"","outcome_status":{"category":"Under investigation","date":"2018-06"},"persistent_id":"707436b3cc71e48775461815557279c03db26db88b97aa38de580cf92ea2abdd","id":65607005,"location_subtype":"","month":"2018-06"},{"category":"violent-crime","location_type":"Force","location":{"latitude":"50.855763","street":{"id":658750,"name":"On or near Meadow View"},"longitude":"-2.158809"},"context":"","outcome_status":{"category":"Local resolution","date":"2018-06"},"persistent_id":"9d9cf21c2789201e1431415f40bb96c452c607f1d2dbea8f2966a2884b66d3ba","id":65602235,"location_subtype":"","month":"2018-06"},{"category":"violent-crime","location_type":"Force","location":{"latitude":"50.861337","street":{"id":658888,"name":"On or near Highfields"},"longitude":"-2.153443"},"context":"","outcome_status":{"category":"Awaiting court outcome","date":"2018-06"},"persistent_id":"d474a783c6f78d05c60a1a391756b4f6bbd9b6e92a1854cc70ca25f7e83f9343","id":65604053,"location_subtype":"","month":"2018-06"},{"category":"violent-crime","location_type":"Force","location":{"latitude":"50.864119","street":{"id":658867,"name":"On or near Tudor Gardens"},"longitude":"-2.150795"},"context":"","outcome_status":{"category":"Unable to prosecute suspect","date":"2018-06"},"persistent_id":"b354e5ddb512f103dbd528c69073be67728aebf42eaa1103c33bd240b720860d","id":65604634,"location_subtype":"","month":"2018-06"},{"category":"violent-crime","location_type":"Force","location":{"latitude":"50.855894","street":{"id":658760,"name":"On or near Langton Crescent"},"longitude":"-2.155499"},"context":"","outcome_status":{"category":"Under investigation","date":"2018-06"},"persistent_id":"483bae21e18b3a5bcc0435aedc23e68044a62c5e0d60c72a9634cef05ed4c307","id":65602296,"location_subtype":"","month":"2018-06"}]