[{"category":"anti-social-behaviour","location_type":"Force","location":{"latitude":"53.322874","street":{"id":1096479,"name":"On or near Gervase Drive"},"longitude":"-1.484455"},"context":"","outcome_status":null,"persistent_id":"","id":65965842,"location_subtype":"","month":"2018-06"},{"category":"anti-social-behaviour","location_type":"Force","location":{"latitude":"53.321682","street":{"id":1096483,"name":"On or near Atlantic Road"},"longitude":"-1.491600"},"context":"","outcome_status":null,"persistent_id":"","id":65967557,"location_subtype":"","month":"2018-06"},{"category":"anti-social-behaviour","location_type":"Force","location":{"latitude":"53.319377","street":{"id":1096469,"name":"On or near Boland Road"},"longitude":"-1.492814"},"context":"","outcome_status":null,"persistent_id":"","id":65967479,"location_subtype":"","month":"2018-06"},{"category":"anti-social-behaviour","location_type":"Force","location":{"latitude":"53.323145","street":{"id":1096477,"name":"On or near Gervase Road"},"longitude":"-1.486869"},"context":"","outcome_status":null,"persistent_id":"","id":65967173,"location_subtype":"","month":"2018-06"},{"category":"anti-social-behaviour","location_type":"Force","location":{"latitude":"53.320669","street":{"id":1096415,"name":"On or near White Thorns View"},"longitude":"-1.465356"},"context":"","outcome_status":null,"persistent_id":"","id":65967101,"location_subtype":"","month":"2018-06"},{"category":"anti-social-behaviour","location_type":"Force","location":{"latitude":"53.331863","street":{"id":1096736,"name":"On or near Chancet Wood Drive"},"longitude":"-1.482425"},"context":"","outcome_status":null,"persistent_id":"","id":65966947,"location_subtype":"","month":"2018-06"},{"category":"anti-social-behaviour","location_type":"Force","location":{"latitude":"53.323193","street":{"id":1096384,"name":"On or near Lupton Crescent"},"longitude":"-1.477245"},"context":"","outcome_status":null,"persistent_id":"","id":65970624,"location_subtype":"","month":"2018-06"},{"category":"anti-social-behaviour","location_type":"Force","location":{"latitude":"53.322869","street":{"id":1096111,"name":"On or near Pedestrian Subway"},"longitude":"-1.472850"},"context":"","outcome_status":null,"persistent_id":"","id":65971315,"location_subtype":"","month":"2018-06"},{"category":"anti-social-behaviour","location_type":"Force","location":{"latitude":"53.320133","street":{"id":1096476,"name":"On or near Gresley Road"},"longitude":"-1.488662"},"context":"","outcome_status":null,"persistent_id":"","id":65966155,"location_subtype":"","month":"2018-06"},{"category":"anti-social-behaviour","location_type":"Force","location":{"latitude":"53.322874","street":{"id":1096479,"name":"On or near Gervase Drive"},"longitude":"-1.484455"},"context":"","outcome_status":null,"persistent_id":"","id":65966270,"location_subtype":"","month":"2018-06"},{"category":"anti-social-behaviour","location_type":"Force","location":{"latitude":"53.323863","street":{"id":1096382,"name":"On or near Lupton Road"},"longitude":"-1.478228"},"context":"","outcome_status":null,"persistent_id":"","id":65966314,"location_subtype":"","month":"2018-06"},{"category":"anti-social-behaviour","location_type":"Force","location":{"latitude":"53.323710","street":{"id":1096392,"name":"On or near Toppham Drive"},"longitude":"-1.480241"},"context":"","outcome_status":null,"persistent_id":"","id":65967968,"location_subtype":"","month":"2018-06"},{"category":"anti-social-behaviour","location_type":"Force","location":{"latitude":"53.321155","street":{"id":1096387,"name":"On or near Lowedges Drive"},"longitude":"-1.477720"},"context":"","outcome_status":null,"persistent_id":"","id":65970622,"location_subtype":"","month":"2018-06"},{"category":"anti-social-behaviour","location_type":"Force","location":{"latitude":"53.320327","street":{"id":1096473,"name":"On or near Lowedges Road"},"longitude":"-1.489980"},"context":"","outcome_status":null,"persistent_id":"","id":65968111,"location_subtype":"","month":"2018-06"},{"category":"anti-social-behaviour","location_type":"Force","location":{"latitude":"53.319191","street":{"id":1096435,"name":"On or near Batemoor Road"},"longitude":"-1.466591"},"context":"","outcome_status":null,"persistent_id":"","id":65970916,"location_subtype":"","month":"2018-06"},{"category":"anti-social-behaviour","location_type":"Force","location":{"latitude":"53.323863","street":{"id":1096382,"name":"On or near Lupton Road"},"longitude":"-1.478228"},"context":"","outcome_status":null,"persistent_id":"","id":65971551,"location_subtype":"","month":"2018-06"},{"category":"anti-social-behaviour","location_type":"Force","location":{"latitude":"53.326858","street":{"id":1096400,"name":"On or near Stenton Road"},"longitude":"-1.478732"},"context":"","outcome_status":null,"persistent_id":"","id":65971540,"location_subtype":"","month":"2018-06"},{"category":"anti-social-behaviour","location_type":"Force","location":{"latitude":"53.333661","street":{"id":1096741,"name":"On or near Abbey Brook Drive"},"longitude":"-1.484430"},"context":"","outcome_status":null,"persistent_id":"","id":65971391,"location_subtype":"","month":"2018-06"},{"category":"anti-social-behaviour","location_type":"Force","location":{"latitude":"53.321553","street":{"id":1096437,"name":"On or near Batemoor Drive"},"longitude":"-1.470044"},"context":"","outcome_status":null,"persistent_id":"","id":65971443,"location_subtype":"","month":"2018-06"},{"category":"anti-social-behaviour","location_type":"Force","location":{"latitude":"53.321222","street":{"id":1096388,"name":"On or near Lowedges Crescent"},"longitude":"-1.478515"},"context":"","outcome_status":null,"persistent_id":"","id":65971361,"location_subtype":"","month":"2018-06"},{"category":"anti-social-behaviour","location_type":"Force","location":{"latitude":"53.321682","street":{"id":1096483,"name":"On or near Atlantic Road"},"longitude":"-1.491600"},"context":"","outcome_status":null,"persistent_id":"","id":65971297,"location_subtype":"","month":"2018-06"},{"category":"anti-social-behaviour","location_type":"Force","location":{"latitude":"53.318913","street":{"id":1096433,"name":"On or near Bowshaw Close"},"longitude":"-1.468606"},"context":"","outcome_status":null,"persistent_id":"","id":65971256,"location_subtype":"","month":"2018-06"},{"category":"anti-social-behaviour","location_type":"Force","location":{"latitude":"53.326021","street":{"id":1096451,"name":"On or near Hazlebarrow Grove"},"longitude":"-1.460275"},"context":"","outcome_status":null,"persistent_id":"","id":65971244,"location_subtype":"","month":"2018-06"},{"category":"anti-social-behaviour","location_type":"Force","location":{"latitude":"53.324198","street":{"id":1096470,"name":"On or near Reney Drive"},"longitude":"-1.493462"},"context":"","outcome_status":null,"persistent_id":"","id":65970782,"location_subtype":"","month":"2018-06"},{"category":"anti-social-behaviour","location_type":"Force","location":{"latitude":"53.322874","street":{"id":1096479,"name":"On or near Gervase Drive"},"longitude":"-1.484455"},"context":"","outcome_status":null,"persistent_id":"","id":65970628,"location_subtype":"","month":"2018-06"},{"category":"anti-social-behaviour","location_type":"Force","location":{"latitude":"53.321858","street":{"id":1096426,"name":"On or near Lingfoot Avenue"},"longitude":"-1.461889"},"context":"","outcome_status":null,"persistent_id":"","id":65971015,"location_subtype":"","month":"2018-06"},{"category":"anti-social-behaviour","location_type":"Force","location":{"latitude":"53.324198","street":{"id":1096470,"name":"On or near Reney Drive"},"longitude":"-1.493462"},"context":"","outcome_status":null,"persistent_id":"","id":65971004,"location_subtype":"","month":"2018-06"},{"category":"anti-social-behaviour","location_type":"Force","location":{"latitude":"53.320133","street":{"id":1096476,"name":"On or near Gresley Road"},"longitude":"-1.488662"},"context":"","outcome_status":null,"persistent_id":"","id":65970952,"location_subtype":"","month":"2018-06"},{"category":"anti-social-behaviour","location_type":"Force","location":{"latitude":"53.333321","street":{"id":1096799,"name":"On or near Meadowhead"},"longitude":"-1.478683"},"context":"","outcome_status":null,"persistent_id":"","id":65970513,"location_subtype":"","month":"2018-06"},{"category":"anti-social-behaviour","location_type":"Force","location":{"latitude":"53.319571","street":{"id":1096416,"name":"On or near White Thorns Drive"},"longitude":"-1.466991"},"context":"","outcome_status":null,"persistent_id":"","id":65970482,"location_subtype":"","month":"2018-06"},{"category":"anti-social-behaviour","location_type":"Force","location":{"latitude":"53.322009","street":{"id":1096459,"name":"On or near Greenhill Parkway"},"longitude":"-1.494509"},"context":"","outcome_status":null,"persistent_id":"","id":65970416,"location_subtype":"","month":"2018-06"},{"category":"anti-social-behaviour","location_type":"Force","location":{"latitude":"53.320669","street":{"id":1096415,"name":"On or near White Thorns View"},"longitude":"-1.465356"},"context":"","outcome_status":null,"persistent_id":"","id":65970347,"location_subtype":"","month":"2018-06"},{"category":"anti-social-behaviour","location_type":"Force","location":{"latitude":"53.326383","street":{"id":1096406,"name":"On or near Greenhill Main Road"},"longitude":"-1.478978"},"context":"","outcome_status":null,"persistent_id":"","id":65969786,"location_subtype":"","month":"2018-06"},{"category":"anti-social-behaviour","location_type":"Force","location":{"latitude":"53.319191","street":{"id":1096435,"name":"On or near Batemoor Road"},"longitude":"-1.466591"},"context":"","outcome_status":null,"persistent_id":"","id":65969781,"location_subtype":"","month":"2018-06"},{"category":"anti-social-behaviour","location_type":"Force","location":{"latitude":"53.336688","street":{"id":1096703,"name":"On or near Abbeydale Road South"},"longitude":"-1.509638"},"context":"","outcome_status":null,"persistent_id":"","id":65970181,"location_subtype":"","month":"2018-06"},{"category":"anti-social-behaviour","location_type":"Force","location":{"latitude":"53.325701","street":{"id":1096410,"name":"On or near Sports\/recreation Area"},"longitude":"-1.477275"},"context":"","outcome_status":null,"persistent_id":"","id":65969691,"location_subtype":"","month":"2018-06"},{"category":"anti-social-behaviour","location_type":"Force","location":{"latitude":"53.320169","street":{"id":1096417,"name":"On or near White Thorns Close"},"longitude":"-1.466098"},"context":"","outcome_status":null,"persistent_id":"","id":65969550,"location_subtype":"","month":"2018-06"},{"category":"anti-social-behaviour","location_type":"Force","location":{"latitude":"53.324693","street":{"id":1096412,"name":"On or near Sports\/recreation Area"},"longitude":"-1.476912"},"context":"","outcome_status":null,"persistent_id":"","id":65969544,"location_subtype":"","month":"2018-06"},{"category":"anti-social-behaviour","location_type":"Force","location":{"latitude":"53.321371","street":{"id":1096386,"name":"On or near Lowedges Place"},"longitude":"-1.475691"},"context":"","outcome_status":null,"persistent_id":"","id":65969402,"location_subtype":"","month":"2018-06"},{"category":"anti-social-behaviour","location_type":"Force","location":{"latitude":"53.320619","street":{"id":1096485,"name":"On or near Supermarket"},"longitude":"-1.490983"},"context":"","outcome_status":null,"persistent_id":"","id":65969388,"location_subtype":"","month":"2018-06"},{"category":"anti-social-behaviour","location_type":"Force","location":{"latitude":"53.322787","street":{"id":1096390,"name":"On or near Toppham Way"},"longitude":"-1.480943"},"context":"","outcome_status":null,"persistent_id":"","id":65969114,"location_subtype":"","month":"2018-06"},{"category":"anti-social-behaviour","location_type":"Force","location":{"latitude":"53.322982","street":{"id":1096475,"name":"On or near Haslam Crescent"},"longitude":"-1.490819"},"context":"","outcome_status":null,"persistent_id":"","id":65969007,"location_subtype":"","month":"2018-06"},{"category":"anti-social-behaviour","location_type":"Force","location":{"latitude":"53.326383","street":{"id":1096406,"name":"On or near Greenhill Main Road"},"longitude":"-1.478978"},"context":"","outcome_status":null,"persistent_id":"","id":65968990,"location_subtype":"","month":"2018-06"},{"category":"anti-social-behaviour","location_type":"Force","location":{"latitude":"53.324854","street":{"id":1096498,"name":"On or near Greenhill Parkway"},"longitude":"-1.487059"},"context":"","outcome_status":null,"persistent_id":"","id":65968883,"location_subtype":"","month":"2018-06"},{"category":"anti-social-behaviour","location_type":"Force","location":{"latitude":"53.321222","street":{"id":1096388,"name":"On or near Lowedges Crescent"},"longitude":"-1.478515"},"context":"","outcome_status":null,"persistent_id":"","id":65968552,"location_subtype":"","month":"2018-06"},{"category":"anti-social-behaviour","location_type":"Force","location":{"latitude":"53.321371","street":{"id":1096386,"name":"On or near Lowedges Place"},"longitude":"-1.475691"},"context":"","outcome_status":null,"persistent_id":"","id":65968351,"location_subtype":"","month":"2018-06"},{"category":"anti-social-behaviour","location_type":"Force","location":{"latitude":"53.331099","street":{"id":1096773,"name":"On or near Bocking Lane"},"longitude":"-1.488545"},"context":"","outcome_status":null,"persistent_id":"","id":65968316,"location_subtype":"","month":"2018-06"},{"category":"anti-social-behaviour","location_type":"Force","location":{"latitude":"53.323244","street":{"id":1096458,"name":"On or near Hemper Lane"},"longitude":"-1.497437"},"context":"","outcome_status":null,"persistent_id":"","id":65966697,"location_subtype":"","month":"2018-06"},{"category":"anti-social-behaviour","location_type":"Force","location":{"latitude":"53.318766","street":{"id":1096434,"name":"On or near Bowshaw Avenue"},"longitude":"-1.469974"},"context":"","outcome_status":null,"persistent_id":"","id":65966650,"location_subtype":"","month":"2018-06"},{"category":"anti-social-behaviour","location_type":"Force","location":{"latitude":"53.325893","street":{"id":1096491,"name":"On or near Reney Road"},"longitude":"-1.488202"},"context":"","outcome_status":null,"persistent_id":"","id":65966541,"location_subtype":"","month":"2018-06"},{"category":"anti-social-behaviour","location_type":"Force","location":{"latitude":"53.321553","street":{"id":1096437,"name":"On or near Batemoor Drive"},"longitude":"-1.470044"},"context":"","outcome_status":null,"persistent_id":"","id":65965984,"location_subtype":"","month":"2018-06"},{"category":"burglary","location_type":"Force","location":{"latitude":"53.328583","street":{"id":1096503,"name":"On or near Annesley Close"},"longitude":"-1.482645"},"context":"","outcome_status":{"category":"Under investigation","date":"2018-06"},"persistent_id":"32ff28651a478c7284d31192f364a502ff9cba544cc063e0c6d702b8a4c200e8","id":65964537,"location_subtype":"","month":"2018-06"},{"category":"burglary","location_type":"Force","location":{"latitude":"53.318913","street":{"id":1096433,"name":"On or near Bowshaw Close"},"longitude":"-1.468606"},"context":"","outcome_status":{"category":"Investigation complete; no suspect identified","date":"2018-06"},"persistent_id":"8f7516d0ec0e9c4211b3183482870204ccfc084093efe8f66d0d7c09d2a39aab","id":65952684,"location_subtype":"","month":"2018-06"},{"category":"burglary","location_type":"Force","location":{"latitude":"53.321553","street":{"id":1096437,"name":"On or near Batemoor Drive"},"longitude":"-1.470044"},"context":"","outcome_status":{"category":"Investigation complete; no suspect identified","date":"2018-06"},"persistent_id":"fc0c88b331d7263bf30249637f4df63e7147543752b4c3d390d9cbcb75574338","id":65955165,"location_subtype":"","month":"2018-06"},{"category":"burglary","location_type":"Force","location":{"latitude":"53.336817","street":{"id":1096744,"name":"On or near Supermarket"},"longitude":"-1.493223"},"context":"","outcome_status":{"category":"Under investigation","date":"2018-06"},"persistent_id":"feac6130141860369a1c991a0f20fbbc078f5b3ae31fc2eb99daa7781f3e45f0","id":65958789,"location_subtype":"","month":"2018-06"},{"category":"burglary","location_type":"Force","location":{"latitude":"53.322537","street":{"id":1096383,"name":"On or near Lupton Drive"},"longitude":"-1.477283"},"context":"","outcome_status":{"category":"Investigation complete; no suspect identified","date":"2018-06"},"persistent_id":"3768a2f514a67e65ab71177154cb0c512b3e19248533b7ec78714368e39a34c9","id":65958876,"location_subtype":"","month":"2018-06"},{"category":"burglary","location_type":"Force","location":{"latitude":"53.321699","street":{"id":1096422,"name":"On or near Lingfoot Place"},"longitude":"-1.462581"},"context":"","outcome_status":{"category":"Investigation complete; no suspect identified","date":"2018-06"},"persistent_id":"6b90b96bf3e4ee95bd28e995e45547ccb8d01bd60ee45009039bf8e48288294f","id":65953121,"location_subtype":"","month":"2018-06"},{"category":"burglary","location_type":"Force","location":{"latitude":"53.331099","street":{"id":1096773,"name":"On or near Bocking Lane"},"longitude":"-1.488545"},"context":"","outcome_status":{"category":"Investigation complete; no suspect identified","date":"2018-06"},"persistent_id":"ce8c81ce7b4b64c90470f3f9c05a55f3b3a01c93556ac37b1bfaa49296224f6f","id":65951747,"location_subtype":"","month":"2018-06"},{"category":"burglary","location_type":"Force","location":{"latitude":"53.322869","street":{"id":1096111,"name":"On or near Pedestrian Subway"},"longitude":"-1.472850"},"context":"","outcome_status":{"category":"Under investigation","date":"2018-06"},"persistent_id":"969f179b781e4a8545bcc8ef2865accc21018995b34410b2e4884f5c72f37993","id":65963085,"location_subtype":"","month":"2018-06"},{"category":"burglary","location_type":"Force","location":{"latitude":"53.334198","street":{"id":1096701,"name":"On or near Parking Area"},"longitude":"-1.511634"},"context":"","outcome_status":{"category":"Investigation complete; no suspect identified","date":"2018-06"},"persistent_id":"b5253cde433f405aa429e10a1ec3896cd4081e4eeee4803494d79579f149eb9f","id":65955917,"location_subtype":"","month":"2018-06"},{"category":"burglary","location_type":"Force","location":{"latitude":"53.335058","street":{"id":1096740,"name":"On or near Bocking Close"},"longitude":"-1.491607"},"context":"","outcome_status":{"category":"Under investigation","date":"2018-06"},"persistent_id":"6a07cd6941a4dc4f99c2e34adbbcde78b6706b366e40d47ef63f65396446cd62","id":65952623,"location_subtype":"","month":"2018-06"},{"category":"burglary","location_type":"Force","location":{"latitude":"53.331099","street":{"id":1096773,"name":"On or near Bocking Lane"},"longitude":"-1.488545"},"context":"","outcome_status":{"category":"Investigation complete; no suspect identified","date":"2018-06"},"persistent_id":"72946a5cb8c165386980ea65865676ae9710bcdce76faac09d00a6ce9f78c510","id":65955530,"location_subtype":"","month":"2018-06"},{"category":"burglary","location_type":"Force","location":{"latitude":"53.320169","street":{"id":1096417,"name":"On or near White Thorns Close"},"longitude":"-1.466098"},"context":"","outcome_status":{"category":"Under investigation","date":"2018-06"},"persistent_id":"8e5d6e58a1fe0e310295328c07c883accebd8517fe31c6b5ae71e77a0900ae94","id":65955594,"location_subtype":"","month":"2018-06"},{"category":"burglary","location_type":"Force","location":{"latitude":"53.338539","street":{"id":1096759,"name":"On or near Daleview Road"},"longitude":"-1.496521"},"context":"","outcome_status":{"category":"Under investigation","date":"2018-06"},"persistent_id":"f35a3c201d680b68e7609ffb9c7271ae87ef6e82bb401ce0c347e237441be617","id":65962255,"location_subtype":"","month":"2018-06"},{"category":"criminal-damage-arson","location_type":"Force","location":{"latitude":"53.324660","street":{"id":1096454,"name":"On or near Sports\/recreation Area"},"longitude":"-1.467423"},"context":"","outcome_status":{"category":"Under investigation","date":"2018-06"},"persistent_id":"96930618d5d13ddfc6680f660ac3451d3c399acb754d66012531e0330b99542a","id":65953114,"location_subtype":"","month":"2018-06"},{"category":"criminal-damage-arson","location_type":"Force","location":{"latitude":"53.320133","street":{"id":1096476,"name":"On or near Gresley Road"},"longitude":"-1.488662"},"context":"","outcome_status":{"category":"Under investigation","date":"2018-06"},"persistent_id":"1450b89f3ece1558f9d35732062f8ce915bd867d3bae956ad8c3781ed9fcb771","id":65965168,"location_subtype":"","month":"2018-06"},{"category":"criminal-damage-arson","location_type":"Force","location":{"latitude":"53.319377","street":{"id":1096469,"name":"On or near Boland Road"},"longitude":"-1.492814"},"context":"","outcome_status":{"category":"Under investigation","date":"2018-06"},"persistent_id":"13d93e679201220414bd602e4c26ae4d33604259c42dc01094dd2e83e988a33c","id":65965153,"location_subtype":"","month":"2018-06"},{"category":"criminal-damage-arson","location_type":"Force","location":{"latitude":"53.322363","street":{"id":1096112,"name":"On or near Jordanthorpe Green"},"longitude":"-1.458369"},"context":"","outcome_status":{"category":"Under investigation","date":"2018-06"},"persistent_id":"cc7ccd5ae0ebe55d5b94d19fc31728868a8a9e16aa12b3a6ee2d5e133c4f8962","id":65951344,"location_subtype":"","month":"2018-06"},{"category":"criminal-damage-arson","location_type":"Force","location":{"latitude":"53.325245","street":{"id":1096496,"name":"On or near Hemper Lane"},"longitude":"-1.492399"},"context":"","outcome_status":{"category":"Under investigation","date":"2018-06"},"persistent_id":"9d190f2f7795d17f98f9f47a3587912598ccafca7a0f14d42a8f8de6ff2e7a29","id":65957108,"location_subtype":"","month":"2018-06"},{"category":"criminal-damage-arson","location_type":"Force","location":{"latitude":"53.325988","street":{"id":1096510,"name":"On or near James Andrew Crescent"},"longitude":"-1.483232"},"context":"","outcome_status":{"category":"Investigation complete; no suspect identified","date":"2018-06"},"persistent_id":"f30a92d81dad9eca716d973fad3450b9d775aa1de15cc0f76a44c29eeae73050","id":65950135,"location_subtype":"","month":"2018-06"},{"category":"criminal-damage-arson","location_type":"Force","location":{"latitude":"53.320619","street":{"id":1096485,"name":"On or near Supermarket"},"longitude":"-1.490983"},"context":"","outcome_status":{"category":"Investigation complete; no suspect identified","date":"2018-06"},"persistent_id":"e091001fa91af8d94ed35ff43752cc0fa63c4e6872961c20188a4254490ac646","id":65957550,"location_subtype":"","month":"2018-06"},{"category":"criminal-damage-arson","location_type":"Force","location":{"latitude":"53.325893","street":{"id":1096491,"name":"On or near Reney Road"},"longitude":"-1.488202"},"context":"","outcome_status":{"category":"Under investigation","date":"2018-06"},"persistent_id":"19795d7debae7db0c1d7c91a6fbd320f4bad36076d799f7c93d0feb039a548e0","id":65964506,"location_subtype":"","month":"2018-06"},{"category":"criminal-damage-arson","location_type":"Force","location":{"latitude":"53.334163","street":{"id":1096761,"name":"On or near Beauchief Abbey Lane"},"longitude":"-1.501213"},"context":"","outcome_status":{"category":"Investigation complete; no suspect identified","date":"2018-06"},"persistent_id":"051c9e9179ac4904c81faa49ee824ff3956a92a9eac4e6157e903bd6e996c855","id":65954182,"location_subtype":"","month":"2018-06"},{"category":"criminal-damage-arson","location_type":"Force","location":{"latitude":"53.327539","street":{"id":1096402,"name":"On or near Meadowhead"},"longitude":"-1.474054"},"context":"","outcome_status":{"category":"Investigation complete; no suspect identified","date":"2018-06"},"persistent_id":"356f9706dc3ec715f85e30c32e016c8e1d11f7e50e152d2247e5129bd075c209","id":65963755,"location_subtype":"","month":"2018-06"},{"category":"criminal-damage-arson","location_type":"Force","location":{"latitude":"53.324854","street":{"id":1096498,"name":"On or near Greenhill Parkway"},"longitude":"-1.487059"},"context":"","outcome_status":{"category":"Investigation complete; no suspect identified","date":"2018-06"},"persistent_id":"41537559a4fe0e79a5351523040b8ada98848472c56b0dc267ffe36f776b0561","id":65955112,"location_subtype":"","month":"2018-06"},{"category":"criminal-damage-arson","location_type":"Force","location":{"latitude":"53.327838","street":{"id":1096403,"name":"On or near Meadowhead"},"longitude":"-1.474501"},"context":"","outcome_status":{"category":"Investigation complete; no suspect identified","date":"2018-06"},"persistent_id":"1514e84ba421513533e3017f14987584b54c4c98ed7c88aeaeb0b2b02a49b3c7","id":65950943,"location_subtype":"","month":"2018-06"},{"category":"criminal-damage-arson","location_type":"Force","location":{"latitude":"53.322537","street":{"id":1096383,"name":"On or near Lupton Drive"},"longitude":"-1.477283"},"context":"","outcome_status":{"category":"Unable to prosecute suspect","date":"2018-06"},"persistent_id":"38f1803a62188c8cce0c52257f44757b93a94859d3c4499f64b1ccaf4b4fac6e","id":65957144,"location_subtype":"","month":"2018-06"},{"category":"criminal-damage-arson","location_type":"Force","location":{"latitude":"53.335680","street":{"id":1096796,"name":"On or near Petrol Station"},"longitude":"-1.481628"},"context":"","outcome_status":{"category":"Investigation complete; no suspect identified","date":"2018-06"},"persistent_id":"19f6ca07b4020932c82eaf9e14f42cc82c6925809815445e800e31d6011804c0","id":65951281,"location_subtype":"","month":"2018-06"},{"category":"criminal-damage-arson","location_type":"Force","location":{"latitude":"53.321585","street":{"id":1096419,"name":"On or near Whinacre Close"},"longitude":"-1.467237"},"context":"","outcome_status":{"category":"Investigation complete; no suspect identified","date":"2018-06"},"persistent_id":"c771d53118cd70b4ac3416a15b3b208d168eafeb7f7fe7c1876832507cae30a2","id":65963795,"location_subtype":"","month":"2018-06"},{"category":"criminal-damage-arson","location_type":"Force","location":{"latitude":"53.335680","street":{"id":1096796,"name":"On or near Petrol Station"},"longitude":"-1.481628"},"context":"","outcome_status":{"category":"Investigation complete; no suspect identified","date":"2018-06"},"persistent_id":"5efd314db424c0dad9e7a0d05724cc16d5d2d59e5f0e45b17d173929cb906d79","id":65951282,"location_subtype":"","month":"2018-06"},{"category":"criminal-damage-arson","location_type":"Force","location":{"latitude":"53.320133","street":{"id":1096476,"name":"On or near Gresley Road"},"longitude":"-1.488662"},"context":"","outcome_status":{"category":"Under investigation","date":"2018-06"},"persistent_id":"677db7e6687c5adfe9ad0e817c7cec8f046cbe9b476b0057f4c0f9644fa00fa3","id":65959456,"location_subtype":"","month":"2018-06"},{"category":"criminal-damage-arson","location_type":"Force","location":{"latitude":"53.320133","street":{"id":1096476,"name":"On or near Gresley Road"},"longitude":"-1.488662"},"context":"","outcome_status":{"category":"Under investigation","date":"2018-06"},"persistent_id":"acff686f55bf440ac6cb55b48e84d8a22d4a90f9636f2353245508f6717fdf63","id":65958806,"location_subtype":"","month":"2018-06"},{"category":"criminal-damage-arson","location_type":"Force","location":{"latitude":"53.320777","street":{"id":1096438,"name":"On or near Batemoor Close"},"longitude":"-1.471405"},"context":"","outcome_status":{"category":"Under investigation","date":"2018-06"},"persistent_id":"4bc6273a3e99db4d769f388eab9f6c9e0158d56737fd3724ec5e46c2679acd6b","id":65950180,"location_subtype":"","month":"2018-06"},{"category":"criminal-damage-arson","location_type":"Force","location":{"latitude":"53.334198","street":{"id":1096701,"name":"On or near Parking Area"},"longitude":"-1.511634"},"context":"","outcome_status":{"category":"Investigation complete; no suspect identified","date":"2018-06"},"persistent_id":"345b278de49f5547113e99fd34e71a91ce3008dbbfb909dad160f2ef418e5de0","id":65955065,"location_subtype":"","month":"2018-06"},{"category":"criminal-damage-arson","location_type":"Force","location":{"latitude":"53.320619","street":{"id":1096485,"name":"On or near Supermarket"},"longitude":"-1.490983"},"context":"","outcome_status":{"category":"Under investigation","date":"2018-06"},"persistent_id":"d32dbaf129e3cbb8ab6132d010d8ff3ac154b5a47ceeb829f671516e332d5081","id":65960894,"location_subtype":"","month":"2018-06"},{"category":"criminal-damage-arson","location_type":"Force","location":{"latitude":"53.320169","street":{"id":1096417,"name":"On or near White Thorns Close"},"longitude":"-1.466098"},"context":"","outcome_status":{"category":"Investigation complete; no suspect identified","date":"2018-06"},"persistent_id":"6fab06a8f0c1ea38bdc4051b1a8fe7f9f6936787ea58ef8f78ac54d1e7249c2c","id":65954256,"location_subtype":"","month":"2018-06"},{"category":"criminal-damage-arson","location_type":"Force","location":{"latitude":"53.323429","street":{"id":1096430,"name":"On or near Dyche Place"},"longitude":"-1.463400"},"context":"","outcome_status":{"category":"Investigation complete; no suspect identified","date":"2018-06"},"persistent_id":"ef03105c26009e9dbc0d7662e6adcdb43f1de8ce6069fa90ad90dbdfaa20b244","id":65958110,"location_subtype":"","month":"2018-06"},{"category":"criminal-damage-arson","location_type":"Force","location":{"latitude":"53.320133","street":{"id":1096476,"name":"On or near Gresley Road"},"longitude":"-1.488662"},"context":"","outcome_status":{"category":"Investigation complete; no suspect identified","date":"2018-06"},"persistent_id":"d8bb2b4e1d46c9c8fb31834573d0aa971888f4f9e95d7686db35e88dd91b575d","id":65952207,"location_subtype":"","month":"2018-06"},{"category":"criminal-damage-arson","location_type":"Force","location":{"latitude":"53.324854","street":{"id":1096498,"name":"On or near Greenhill Parkway"},"longitude":"-1.487059"},"context":"","outcome_status":{"category":"Investigation complete; no suspect identified","date":"2018-06"},"persistent_id":"acbecaeb6335a04da135aef1a1b9d639d1f0c285d99dc840579ce111718068a5","id":65950125,"location_subtype":"","month":"2018-06"},{"category":"criminal-damage-arson","location_type":"Force","location":{"latitude":"53.322009","street":{"id":1096459,"name":"On or near Greenhill Parkway"},"longitude":"-1.494509"},"context":"","outcome_status":{"category":"Under investigation","date":"2018-06"},"persistent_id":"52e5b8644f248c7dfd04734a83f0a4c41547e53d1e7a16635ec61e6b6fd63de0","id":65955938,"location_subtype":"","month":"2018-06"},{"category":"criminal-damage-arson","location_type":"Force","location":{"latitude":"53.323141","street":{"id":1096379,"name":"On or near Selly Oak Grove"},"longitude":"-1.459456"},"context":"","outcome_status":{"category":"Investigation complete; no suspect identified","date":"2018-06"},"persistent_id":"e36cddfaee8be2c9752e5d7d5109c2d72d99afa24fc50222a12b4d6fb27a2007","id":65956463,"location_subtype":"","month":"2018-06"},{"category":"drugs","location_type":"Force","location":{"latitude":"53.322357","street":{"id":1096389,"name":"On or near Chesterfield Road South"},"longitude":"-1.473067"},"context":"","outcome_status":{"category":"Under investigation","date":"2018-06"},"persistent_id":"39ce476e33f94e0e751adf7f004cbe5272573e34b060bbd9fca3eaefa3753d89","id":65962346,"location_subtype":"","month":"2018-06"},{"category":"drugs","location_type":"Force","location":{"latitude":"53.321371","street":{"id":1096386,"name":"On or near Lowedges Place"},"longitude":"-1.475691"},"context":"","outcome_status":{"category":"Awaiting court outcome","date":"2018-06"},"persistent_id":"d0b90dd13f7993bb754bc3e38f232e66384cf5b772f4a4a2b4838a1f3685b33e","id":65954684,"location_subtype":"","month":"2018-06"},{"category":"other-theft","location_type":"Force","location":{"latitude":"53.320169","street":{"id":1096417,"name":"On or near White Thorns Close"},"longitude":"-1.466098"},"context":"","outcome_status":{"category":"Under investigation","date":"2018-06"},"persistent_id":"e5ceeea8b2ce39782d4796e8eedf7d2c50416056725cda8745cf7e3449c603e9","id":65956009,"location_subtype":"","month":"2018-06"},{"category":"other-theft","location_type":"Force","location":{"latitude":"53.322787","street":{"id":1096390,"name":"On or near Toppham Way"},"longitude":"-1.480943"},"context":"","outcome_status":{"category":"Unable to prosecute suspect","date":"2018-06"},"persistent_id":"895a7877efbc44bd52e599dc6f74ed5ccdd513fbd2efb513ac26c94a0353ec21","id":65955969,"location_subtype":"","month":"2018-06"},{"category":"other-theft","location_type":"Force","location":{"latitude":"53.323710","street":{"id":1096392,"name":"On or near Toppham Drive"},"longitude":"-1.480241"},"context":"","outcome_status":{"category":"Investigation complete; no suspect identified","date":"2018-06"},"persistent_id":"6e681b2395e44be088edab76868384f17d5fd0c37b1be72c7f8a66ef6c0843e3","id":65950142,"location_subtype":"","month":"2018-06"},{"category":"other-theft","location_type":"Force","location":{"latitude":"53.326021","street":{"id":1096451,"name":"On or near Hazlebarrow Grove"},"longitude":"-1.460275"},"context":"","outcome_status":{"category":"Under investigation","date":"2018-06"},"persistent_id":"ec72796f4426d42bfca4f5e240e917c150ef84315ff7965ee944a1261934e329","id":65965273,"location_subtype":"","month":"2018-06"},{"category":"other-theft","location_type":"Force","location":{"latitude":"53.323863","street":{"id":1096382,"name":"On or near Lupton Road"},"longitude":"-1.478228"},"context":"","outcome_status":{"category":"Further investigation is not in the public interest","date":"2018-06"},"persistent_id":"4267f50231e451298be2e0da48b68f9a96923a93f326e5a9329b744656c3696c","id":65952649,"location_subtype":"","month":"2018-06"},{"category":"other-theft","location_type":"Force","location":{"latitude":"53.322869","street":{"id":1096111,"name":"On or near Pedestrian Subway"},"longitude":"-1.472850"},"context":"","outcome_status":{"category":"Investigation complete; no suspect identified","date":"2018-06"},"persistent_id":"200952fb27f74079ba58fe5259025f556a14ae80f6a5eb926156b6f9d72306e0","id":65951314,"location_subtype":"","month":"2018-06"},{"category":"other-theft","location_type":"Force","location":{"latitude":"53.329351","street":{"id":1096393,"name":"On or near The Greenway"},"longitude":"-1.481419"},"context":"","outcome_status":{"category":"Under investigation","date":"2018-06"},"persistent_id":"d97b7291d23a090b82e5abcd640b315c5b746f4f16f514420b599fa093007bf0","id":65962319,"location_subtype":"","month":"2018-06"},{"category":"other-theft","location_type":"Force","location":{"latitude":"53.323145","street":{"id":1096477,"name":"On or near Gervase Road"},"longitude":"-1.486869"},"context":"","outcome_status":{"category":"Under investigation","date":"2018-06"},"persistent_id":"10f0d9af38cd2a5c995b5b6c8f7ec51b131f9f36802404c5a94b10449b1241a5","id":65962285,"location_subtype":"","month":"2018-06"},{"category":"other-theft","location_type":"Force","location":{"latitude":"53.318766","street":{"id":1096434,"name":"On or near Bowshaw Avenue"},"longitude":"-1.469974"},"context":"","outcome_status":{"category":"Under investigation","date":"2018-06"},"persistent_id":"1e0c0eb86d4d4063e4a86876838aa2fa6624374f295e923fc4452eb22567682a","id":65961665,"location_subtype":"","month":"2018-06"},{"category":"other-theft","location_type":"Force","location":{"latitude":"53.326369","street":{"id":1096408,"name":"On or near A61"},"longitude":"-1.473783"},"context":"","outcome_status":{"category":"Under investigation","date":"2018-06"},"persistent_id":"1c15ab860323139935b6a99e68754ca40f1a99835d249b005facce88bbfe7f8e","id":65951792,"location_subtype":"","month":"2018-06"},{"category":"other-theft","location_type":"Force","location":{"latitude":"53.320133","street":{"id":1096476,"name":"On or near Gresley Road"},"longitude":"-1.488662"},"context":"","outcome_status":{"category":"Investigation complete; no suspect identified","date":"2018-06"},"persistent_id":"43040c9d43e192b8fb492eb4c8c7ffa98cc85c329817b3d9f79d6037e21c210e","id":65953046,"location_subtype":"","month":"2018-06"},{"category":"other-theft","location_type":"Force","location":{"latitude":"53.321222","street":{"id":1096388,"name":"On or near Lowedges Crescent"},"longitude":"-1.478515"},"context":"","outcome_status":{"category":"Investigation complete; no suspect identified","date":"2018-06"},"persistent_id":"65cedbf09b50e310a0c86f8afe1e369e9f4efee8218dff08289fa26e8ed9ca53","id":65957582,"location_subtype":"","month":"2018-06"},{"category":"other-theft","location_type":"Force","location":{"latitude":"53.321155","street":{"id":1096387,"name":"On or near Lowedges Drive"},"longitude":"-1.477720"},"context":"","outcome_status":{"category":"Investigation complete; no suspect identified","date":"2018-06"},"persistent_id":"e618a47d71eaa3841caf0999ab37b41f6050c4830c542a521bfaf4705c06f55b","id":65958049,"location_subtype":"","month":"2018-06"},{"category":"other-theft","location_type":"Force","location":{"latitude":"53.321302","street":{"id":1096463,"name":"On or near Edmund Close"},"longitude":"-1.497175"},"context":"","outcome_status":{"category":"Unable to prosecute suspect","date":"2018-06"},"persistent_id":"0c16d86ffae40eed4d62968fed5857f0b5956e4930936a4e2cbd93e0978c5cbf","id":65957098,"location_subtype":"","month":"2018-06"},{"category":"other-theft","location_type":"Force","location":{"latitude":"53.335680","street":{"id":1096796,"name":"On or near Petrol Station"},"longitude":"-1.481628"},"context":"","outcome_status":{"category":"Investigation complete; no suspect identified","date":"2018-06"},"persistent_id":"8476636c6342de879f6c7e0096a83c5a2ee2ff2f16adbaabd602a44b1185e087","id":65955125,"location_subtype":"","month":"2018-06"},{"category":"other-theft","location_type":"Force","location":{"latitude":"53.323440","street":{"id":1096472,"name":"On or near Lupton Road"},"longitude":"-1.482347"},"context":"","outcome_status":{"category":"Under investigation","date":"2018-06"},"persistent_id":"8a837cc6379bfc7b8bac51aa3922068e0d0f79c2d679c248af4abf0534f6591c","id":65955124,"location_subtype":"","month":"2018-06"},{"category":"other-theft","location_type":"Force","location":{"latitude":"53.321222","street":{"id":1096388,"name":"On or near Lowedges Crescent"},"longitude":"-1.478515"},"context":"","outcome_status":{"category":"Unable to prosecute suspect","date":"2018-06"},"persistent_id":"b29e7e6a0ef14b39c5edd7b8e87eda700de4760895f682cf5605262657077751","id":65955134,"location_subtype":"","month":"2018-06"},{"category":"other-theft","location_type":"Force","location":{"latitude":"53.327552","street":{"id":1096398,"name":"On or near Greenfield Close"},"longitude":"-1.481051"},"context":"","outcome_status":{"category":"Under investigation","date":"2018-06"},"persistent_id":"7aa1f8699206eb5fb7746d28be6e940f3334a35701aebecca2f199232cf59c98","id":65955970,"location_subtype":"","month":"2018-06"},{"category":"possession-of-weapons","location_type":"Force","location":{"latitude":"53.321371","street":{"id":1096386,"name":"On or near Lowedges Place"},"longitude":"-1.475691"},"context":"","outcome_status":{"category":"Under investigation","date":"2018-06"},"persistent_id":"1355d69f302481efba76016613796ba6b73c6777f525d45a73c7fe4c91c2bf0f","id":65950939,"location_subtype":"","month":"2018-06"},{"category":"possession-of-weapons","location_type":"Force","location":{"latitude":"53.325893","street":{"id":1096491,"name":"On or near Reney Road"},"longitude":"-1.488202"},"context":"","outcome_status":{"category":"Under investigation","date":"2018-06"},"persistent_id":"9d8646fde2fafb79018cbe36d3b0031cd76efbfb8839ae9b68cfe94357240c61","id":65959465,"location_subtype":"","month":"2018-06"},{"category":"possession-of-weapons","location_type":"Force","location":{"latitude":"53.321371","street":{"id":1096386,"name":"On or near Lowedges Place"},"longitude":"-1.475691"},"context":"","outcome_status":{"category":"Awaiting court outcome","date":"2018-06"},"persistent_id":"f2adb9372854e8dd38e510a2bca00ffccfadbb558f9111947399da56d78de4f3","id":65954683,"location_subtype":"","month":"2018-06"},{"category":"public-order","location_type":"Force","location":{"latitude":"53.320619","street":{"id":1096485,"name":"On or near Supermarket"},"longitude":"-1.490983"},"context":"","outcome_status":{"category":"Under investigation","date":"2018-06"},"persistent_id":"1b5e927384911670e43571f5a4082a8bbe91d0083aea0c4639cb16bc91756e23","id":65960893,"location_subtype":"","month":"2018-06"},{"category":"public-order","location_type":"Force","location":{"latitude":"53.331229","street":{"id":1096765,"name":"On or near Crawshaw Avenue"},"longitude":"-1.495872"},"context":"","outcome_status":{"category":"Under investigation","date":"2018-06"},"persistent_id":"2c690c07558099a9b09706be237ad5601649b0d63713091a358d2395ce6e833e","id":65962260,"location_subtype":"","month":"2018-06"},{"category":"public-order","location_type":"Force","location":{"latitude":"53.323863","street":{"id":1096382,"name":"On or near Lupton Road"},"longitude":"-1.478228"},"context":"","outcome_status":{"category":"Under investigation","date":"2018-06"},"persistent_id":"b907abcb941272c74319739dcfeb2df0a198a4f28de1597537d9d97de54ee4d5","id":65955137,"location_subtype":"","month":"2018-06"},{"category":"public-order","location_type":"Force","location":{"latitude":"53.331997","street":{"id":1096734,"name":"On or near Greenhill Avenue"},"longitude":"-1.486448"},"context":"","outcome_status":{"category":"Investigation complete; no suspect identified","date":"2018-06"},"persistent_id":"e15399a242b95095ce21fe9a0e2786e087f79280b2bee432a8055389b30381df","id":65957558,"location_subtype":"","month":"2018-06"},{"category":"public-order","location_type":"Force","location":{"latitude":"53.324854","street":{"id":1096498,"name":"On or near Greenhill Parkway"},"longitude":"-1.487059"},"context":"","outcome_status":{"category":"Under investigation","date":"2018-06"},"persistent_id":"de70cbbfafeb95e5d1c10e3819d9b143b8c3a77e20ad879f73e11714886f3950","id":65957559,"location_subtype":"","month":"2018-06"},{"category":"public-order","location_type":"Force","location":{"latitude":"53.321764","street":{"id":1096414,"name":"On or near Pedestrian Subway"},"longitude":"-1.464997"},"context":"","outcome_status":{"category":"Investigation complete; no suspect identified","date":"2018-06"},"persistent_id":"e9430da76d21e4541f408ef0788c4f8651cfd6d3c09ce20c9fd972924319c9ea","id":65955597,"location_subtype":"","month":"2018-06"},{"category":"public-order","location_type":"Force","location":{"latitude":"53.319377","street":{"id":1096469,"name":"On or near Boland Road"},"longitude":"-1.492814"},"context":"","outcome_status":{"category":"Under investigation","date":"2018-06"},"persistent_id":"47bdfc059818e249ba056e8c5938a5b072249a890c2c5533f808b2fe95587b77","id":65962263,"location_subtype":"","month":"2018-06"},{"category":"public-order","location_type":"Force","location":{"latitude":"53.331997","street":{"id":1096734,"name":"On or near Greenhill Avenue"},"longitude":"-1.486448"},"context":"","outcome_status":{"category":"Under investigation","date":"2018-06"},"persistent_id":"6c43e01249bbaa41b5acf50db8bbfd18a893f7bfd1d504223337de2ea371d111","id":65962281,"location_subtype":"","month":"2018-06"},{"category":"public-order","location_type":"Force","location":{"latitude":"53.321858","street":{"id":1096426,"name":"On or near Lingfoot Avenue"},"longitude":"-1.461889"},"context":"","outcome_status":{"category":"Unable to prosecute suspect","date":"2018-06"},"persistent_id":"f69c3d9b0c6c05f704de5f9cca8f403237f854662d244dab6a28d59017fa92b9","id":65964636,"location_subtype":"","month":"2018-06"},{"category":"public-order","location_type":"Force","location":{"latitude":"53.322062","street":{"id":1096484,"name":"On or near Atlantic Drive"},"longitude":"-1.487798"},"context":"","outcome_status":{"category":"Under investigation","date":"2018-06"},"persistent_id":"79a91a84acbc27c365aeeca2777890d29f9fedb6a4fa0ac6ccd3cb145cf8d6ba","id":65963687,"location_subtype":"","month":"2018-06"},{"category":"public-order","location_type":"Force","location":{"latitude":"53.319191","street":{"id":1096435,"name":"On or near Batemoor Road"},"longitude":"-1.466591"},"context":"","outcome_status":{"category":"Under investigation","date":"2018-06"},"persistent_id":"05f5ac0b061ea0b80e2217d7291dc80461b2c9f9d6c5612278d3a7ce3cd05d3c","id":65964621,"location_subtype":"","month":"2018-06"},{"category":"public-order","location_type":"Force","location":{"latitude":"53.325893","street":{"id":1096491,"name":"On or near Reney Road"},"longitude":"-1.488202"},"context":"","outcome_status":{"category":"Unable to prosecute suspect","date":"2018-06"},"persistent_id":"77b2d6d230e48afe802130eefd3536b35fec2f191597a08ef25ca431e0b180f9","id":65955113,"location_subtype":"","month":"2018-06"},{"category":"public-order","location_type":"Force","location":{"latitude":"53.320619","street":{"id":1096485,"name":"On or near Supermarket"},"longitude":"-1.490983"},"context":"","outcome_status":{"category":"Under investigation","date":"2018-06"},"persistent_id":"5aa2edb1963d50d8b0f461d4026cd9d44120b6609b6593e24a6874d5047eefa8","id":65956364,"location_subtype":"","month":"2018-06"},{"category":"public-order","location_type":"Force","location":{"latitude":"53.319191","street":{"id":1096435,"name":"On or near Batemoor Road"},"longitude":"-1.466591"},"context":"","outcome_status":{"category":"Under investigation","date":"2018-06"},"persistent_id":"77e578213d3af8a7f835ad2761ad801c72a70b6b2000cc47fd128cf75ea2f71f","id":65965256,"location_subtype":"","month":"2018-06"},{"category":"public-order","location_type":"Force","location":{"latitude":"53.327785","street":{"id":1096505,"name":"On or near Allenby Close"},"longitude":"-1.487279"},"context":"","outcome_status":{"category":"Under investigation","date":"2018-06"},"persistent_id":"e85292e8058df20d435ac5471526a7b948d06d87e200f6c16f989116d5e9830e","id":65959462,"location_subtype":"","month":"2018-06"},{"category":"public-order","location_type":"Force","location":{"latitude":"53.320669","street":{"id":1096415,"name":"On or near White Thorns View"},"longitude":"-1.465356"},"context":"","outcome_status":{"category":"Under investigation","date":"2018-06"},"persistent_id":"c69a95afd9bb46ce1510cd56413871b477397a9827ecbc18aab8890b5a66c452","id":65953115,"location_subtype":"","month":"2018-06"},{"category":"public-order","location_type":"Force","location":{"latitude":"53.321302","street":{"id":1096463,"name":"On or near Edmund Close"},"longitude":"-1.497175"},"context":"","outcome_status":{"category":"Unable to prosecute suspect","date":"2018-06"},"persistent_id":"23f6573b8b317b3dbe5dce0dbee85a5f1b370f0ec4afb989b1b9fd0b288f5f2a","id":65961548,"location_subtype":"","month":"2018-06"},{"category":"public-order","location_type":"Force","location":{"latitude":"53.318996","street":{"id":1096432,"name":"On or near Bowshaw View"},"longitude":"-1.471292"},"context":"","outcome_status":{"category":"Unable to prosecute suspect","date":"2018-06"},"persistent_id":"fcac7390c1bdd7554157e1ca0a8049351df0297e194f70133342f32ae924a5da","id":65961646,"location_subtype":"","month":"2018-06"},{"category":"public-order","location_type":"Force","location":{"latitude":"53.322357","street":{"id":1096389,"name":"On or near Chesterfield Road South"},"longitude":"-1.473067"},"context":"","outcome_status":{"category":"Unable to prosecute suspect","date":"2018-06"},"persistent_id":"a94130d583e3609c84369cd8be40fa8f3aa737de16b227f5f98bf5332195e69c","id":65952666,"location_subtype":"","month":"2018-06"},{"category":"public-order","location_type":"Force","location":{"latitude":"53.318996","street":{"id":1096432,"name":"On or near Bowshaw View"},"longitude":"-1.471292"},"context":"","outcome_status":{"category":"Unable to prosecute suspect","date":"2018-06"},"persistent_id":"b21fc80cbca9b6774438990f5f9868be79a7dc7f4cdb88e1874584d54b5e3a95","id":65961644,"location_subtype":"","month":"2018-06"},{"category":"public-order","location_type":"Force","location":{"latitude":"53.319571","street":{"id":1096416,"name":"On or near White Thorns Drive"},"longitude":"-1.466991"},"context":"","outcome_status":{"category":"Under investigation","date":"2018-06"},"persistent_id":"5944eb1b09a013051b1687b932c8e33023f695e0dece85d2f34d08e145c6286f","id":65961688,"location_subtype":"","month":"2018-06"},{"category":"public-order","location_type":"Force","location":{"latitude":"53.319191","street":{"id":1096435,"name":"On or near Batemoor Road"},"longitude":"-1.466591"},"context":"","outcome_status":{"category":"Under investigation","date":"2018-06"},"persistent_id":"2b5b87b68d30ee2dd306bc247845c24024bb1b9974e3314db0c9f874110e307c","id":65961692,"location_subtype":"","month":"2018-06"},{"category":"shoplifting","location_type":"Force","location":{"latitude":"53.322786","street":{"id":1096439,"name":"On or near Supermarket"},"longitude":"-1.464429"},"context":"","outcome_status":{"category":"Investigation complete; no suspect identified","date":"2018-06"},"persistent_id":"11c23460d4775c87d9d7de99aaa659bc04ee015f90117c28ca904e8e90f27df0","id":65950194,"location_subtype":"","month":"2018-06"},{"category":"shoplifting","location_type":"Force","location":{"latitude":"53.335680","street":{"id":1096796,"name":"On or near Petrol Station"},"longitude":"-1.481628"},"context":"","outcome_status":{"category":"Unable to prosecute suspect","date":"2018-06"},"persistent_id":"e0ab2c1a3a44088cb8aaa325e9e9e0ba1b95939f03f89c5512ebbaa3c551ba1d","id":65957129,"location_subtype":"","month":"2018-06"},{"category":"shoplifting","location_type":"Force","location":{"latitude":"53.322786","street":{"id":1096439,"name":"On or near Supermarket"},"longitude":"-1.464429"},"context":"","outcome_status":{"category":"Under investigation","date":"2018-06"},"persistent_id":"ef5f853fea0c413d46c5b195738bc9d52f309e47534be653dc6315e90df80c0c","id":65963809,"location_subtype":"","month":"2018-06"},{"category":"shoplifting","location_type":"Force","location":{"latitude":"53.327785","street":{"id":1096505,"name":"On or near Allenby Close"},"longitude":"-1.487279"},"context":"","outcome_status":{"category":"Investigation complete; no suspect identified","date":"2018-06"},"persistent_id":"370ce16688c0579f36fc877e64a0a6cc3c461199b4774a2eda1d5ea4abb605d8","id":65956369,"location_subtype":"","month":"2018-06"},{"category":"shoplifting","location_type":"Force","location":{"latitude":"53.323429","street":{"id":1096430,"name":"On or near Dyche Place"},"longitude":"-1.463400"},"context":"","outcome_status":{"category":"Offender given penalty notice","date":"2018-06"},"persistent_id":"16ff769bdb18460aeb87e46f714b696dcaa640a5ad21ad552eef26204301a770","id":65953118,"location_subtype":"","month":"2018-06"},{"category":"theft-from-the-person","location_type":"Force","location":{"latitude":"53.325487","street":{"id":1096443,"name":"On or near Ormond Way"},"longitude":"-1.463344"},"context":"","outcome_status":{"category":"Under investigation","date":"2018-06"},"persistent_id":"51839f9ea1aedd3ec8d39f0d9f97e5b1d031c5cbb4dde583bf71efaafe0bd86a","id":65954719,"location_subtype":"","month":"2018-06"},{"category":"theft-from-the-person","location_type":"Force","location":{"latitude":"53.323227","street":{"id":1096431,"name":"On or near Dyche Close"},"longitude":"-1.464634"},"context":"","outcome_status":{"category":"Under investigation","date":"2018-06"},"persistent_id":"1a4fc9d9d8e10f03d35c7b0c05572012b2758799da7656a3929a32adea6078f4","id":65951327,"location_subtype":"","month":"2018-06"},{"category":"theft-from-the-person","location_type":"Force","location":{"latitude":"53.320678","street":{"id":1096425,"name":"On or near Lingfoot Close"},"longitude":"-1.463285"},"context":"","outcome_status":{"category":"Under investigation","date":"2018-06"},"persistent_id":"61f3322b993cad0fad194e090b161c755563b64e77a462793a0e0e5107a548f9","id":65614246,"location_subtype":"","month":"2018-06"},{"category":"theft-from-the-person","location_type":"Force","location":{"latitude":"53.335680","street":{"id":1096796,"name":"On or near Petrol Station"},"longitude":"-1.481628"},"context":"","outcome_status":{"category":"Under investigation","date":"2018-06"},"persistent_id":"a0e38a0d14e725dcdf1150185f7f6ef6b6e857f46d5b600ba7b5389bf5978972","id":65960927,"location_subtype":"","month":"2018-06"},{"category":"vehicle-crime","location_type":"Force","location":{"latitude":"53.331099","street":{"id":1096773,"name":"On or near Bocking Lane"},"longitude":"-1.488545"},"context":"","outcome_status":{"category":"Investigation complete; no suspect identified","date":"2018-06"},"persistent_id":"47a9cb1b935085c74a711e27ad5a037efda3125b5fb76a67b82a5ed0d1500779","id":65956732,"location_subtype":"","month":"2018-06"},{"category":"vehicle-crime","location_type":"Force","location":{"latitude":"53.328583","street":{"id":1096503,"name":"On or near Annesley Close"},"longitude":"-1.482645"},"context":"","outcome_status":{"category":"Investigation complete; no suspect identified","date":"2018-06"},"persistent_id":"e4a2ddfb749385ed098d4f646b77651e67e39cd4cbc3a8782381cd15f013b630","id":65953479,"location_subtype":"","month":"2018-06"},{"category":"vehicle-crime","location_type":"Force","location":{"latitude":"53.328348","street":{"id":1096407,"name":"On or near Greenfield Road"},"longitude":"-1.478038"},"context":"","outcome_status":{"category":"Investigation complete; no suspect identified","date":"2018-06"},"persistent_id":"85927936007115c414dd78375723c08b0207c1a6f292fded522f067ed4decb09","id":65950150,"location_subtype":"","month":"2018-06"},{"category":"vehicle-crime","location_type":"Force","location":{"latitude":"53.328771","street":{"id":1096502,"name":"On or near Annesley Road"},"longitude":"-1.482402"},"context":"","outcome_status":{"category":"Investigation complete; no suspect identified","date":"2018-06"},"persistent_id":"c6c2418d216126f07004ff5a36af81930241e3319134f364f79e33eedfa1fe6f","id":65953478,"location_subtype":"","month":"2018-06"},{"category":"vehicle-crime","location_type":"Force","location":{"latitude":"53.328348","street":{"id":1096407,"name":"On or near Greenfield Road"},"longitude":"-1.478038"},"context":"","outcome_status":{"category":"Investigation complete; no suspect identified","date":"2018-06"},"persistent_id":"82f6cbfd30fc9c0362db49f503d1d861b3762e0175e8911b3a0b55c9f55de494","id":65954224,"location_subtype":"","month":"2018-06"},{"category":"vehicle-crime","location_type":"Force","location":{"latitude":"53.321608","street":{"id":1096481,"name":"On or near Becket Road"},"longitude":"-1.488959"},"context":"","outcome_status":{"category":"Investigation complete; no suspect identified","date":"2018-06"},"persistent_id":"d01fa0df44ab89f6f0e4abbd97f5b0da48d882008c6da87a5c2ec159c1351485","id":65952631,"location_subtype":"","month":"2018-06"},{"category":"violent-crime","location_type":"Force","location":{"latitude":"53.318766","street":{"id":1096434,"name":"On or near Bowshaw Avenue"},"longitude":"-1.469974"},"context":"","outcome_status":{"category":"Under investigation","date":"2018-06"},"persistent_id":"0634286b24c7d3ea8110e8e17ab7bec851bf4b5f7402c11e145195839a4f23e3","id":65954248,"location_subtype":"","month":"2018-06"},{"category":"violent-crime","location_type":"Force","location":{"latitude":"53.323193","street":{"id":1096384,"name":"On or near Lupton Crescent"},"longitude":"-1.477245"},"context":"","outcome_status":{"category":"Under investigation","date":"2018-06"},"persistent_id":"6797088ac218dcd68af732aed9e219d617819b4dc3f5a33b1af986ff890b996e","id":65954225,"location_subtype":"","month":"2018-06"},{"category":"violent-crime","location_type":"Force","location":{"latitude":"53.338902","street":{"id":1096758,"name":"On or near Dalewood Avenue"},"longitude":"-1.499431"},"context":"","outcome_status":{"category":"Unable to prosecute suspect","date":"2018-06"},"persistent_id":"236d1277ed43576a4809869e2d24f09ddf8862bb7ccbe0c0850426b1c76e21e7","id":65957542,"location_subtype":"","month":"2018-06"},{"category":"violent-crime","location_type":"Force","location":{"latitude":"53.318913","street":{"id":1096433,"name":"On or near Bowshaw Close"},"longitude":"-1.468606"},"context":"","outcome_status":{"category":"Local resolution","date":"2018-06"},"persistent_id":"4e428e48c7a4687236b10a7fe6a928eef58dee802b4e69f645c8a544b0382fe5","id":65954708,"location_subtype":"","month":"2018-06"},{"category":"violent-crime","location_type":"Force","location":{"latitude":"53.318766","street":{"id":1096434,"name":"On or near Bowshaw Avenue"},"longitude":"-1.469974"},"context":"","outcome_status":{"category":"Under investigation","date":"2018-06"},"persistent_id":"40f8a49b6ec77d2daa296ad38e5232de72c0cc0dce95d2d07573c7f44ff114fa","id":65958915,"location_subtype":"","month":"2018-06"},{"category":"violent-crime","location_type":"Force","location":{"latitude":"53.320863","street":{"id":1096427,"name":"On or near Jordanthorpe Parkway"},"longitude":"-1.460445"},"context":"","outcome_status":{"category":"Investigation complete; no suspect identified","date":"2018-06"},"persistent_id":"0cdfcefb6bbef1df5b3a340d44ed2ab0daeadb85fcdb9d9b2dc21d7916edea01","id":65958951,"location_subtype":"","month":"2018-06"},{"category":"violent-crime","location_type":"Force","location":{"latitude":"53.320669","street":{"id":1096415,"name":"On or near White Thorns View"},"longitude":"-1.465356"},"context":"","outcome_status":{"category":"Under investigation","date":"2018-06"},"persistent_id":"2959fbc8c4c22b936577c63e97a1f1006897e79822a5f374a9b2812e54fe2abe","id":65953513,"location_subtype":"","month":"2018-06"},{"category":"violent-crime","location_type":"Force","location":{"latitude":"53.320863","street":{"id":1096427,"name":"On or near Jordanthorpe Parkway"},"longitude":"-1.460445"},"context":"","outcome_status":{"category":"Investigation complete; no suspect identified","date":"2018-06"},"persistent_id":"f48d700917b970c67128c08405b451edc37f2434f92b25f2e20c451ad85fa8e6","id":65958949,"location_subtype":"","month":"2018-06"},{"category":"violent-crime","location_type":"Force","location":{"latitude":"53.319571","street":{"id":1096416,"name":"On or near White Thorns Drive"},"longitude":"-1.466991"},"context":"","outcome_status":{"category":"Unable to prosecute suspect","date":"2018-06"},"persistent_id":"064836cc8f438c1daeafddf6965cd57ef53e15b723d7531e230c2aab70422eb9","id":65960301,"location_subtype":"","month":"2018-06"},{"category":"violent-crime","location_type":"Force","location":{"latitude":"53.321764","street":{"id":1096414,"name":"On or near Pedestrian Subway"},"longitude":"-1.464997"},"context":"","outcome_status":{"category":"Under investigation","date":"2018-06"},"persistent_id":"ef485d19761a6be216e9c7cdeb8bb7a99bfc391dd0e918e9d84b499d69ea8cc5","id":65953113,"location_subtype":"","month":"2018-06"},{"category":"violent-crime","location_type":"Force","location":{"latitude":"53.322869","street":{"id":1096111,"name":"On or near Pedestrian Subway"},"longitude":"-1.472850"},"context":"","outcome_status":{"category":"Under investigation","date":"2018-06"},"persistent_id":"3c991153405b340f598cb8f886ead9bb866040a3f0e48936af4c61dd84be3625","id":65952663,"location_subtype":"","month":"2018-06"},{"category":"violent-crime","location_type":"Force","location":{"latitude":"53.322869","street":{"id":1096111,"name":"On or near Pedestrian Subway"},"longitude":"-1.472850"},"context":"","outcome_status":{"category":"Under investigation","date":"2018-06"},"persistent_id":"aaec704b6acea6969599d85eb7892da6c7f55914d48c22cd4a6cc76008766729","id":65952662,"location_subtype":"","month":"2018-06"},{"category":"violent-crime","location_type":"Force","location":{"latitude":"53.322357","street":{"id":1096389,"name":"On or near Chesterfield Road South"},"longitude":"-1.473067"},"context":"","outcome_status":{"category":"Under investigation","date":"2018-06"},"persistent_id":"7ba579da104de003bd8453adc749d2aaae31e085265878f5d8ef04286da30e84","id":65952658,"location_subtype":"","month":"2018-06"},{"category":"violent-crime","location_type":"Force","location":{"latitude":"53.321371","street":{"id":1096386,"name":"On or near Lowedges Place"},"longitude":"-1.475691"},"context":"","outcome_status":{"category":"Under investigation","date":"2018-06"},"persistent_id":"74f2dfc77dc9c8d27e286f8226b2fb4d6df2eb7c2397edbb9538ebc0dae9e00d","id":65952655,"location_subtype":"","month":"2018-06"},{"category":"violent-crime","location_type":"Force","location":{"latitude":"53.323710","street":{"id":1096392,"name":"On or near Toppham Drive"},"longitude":"-1.480241"},"context":"","outcome_status":{"category":"Under investigation","date":"2018-06"},"persistent_id":"04d9bce87350d53f84ae1f72748bf7924dd8c4c514c23f8e8ce2aaeded0eb9fd","id":65953068,"location_subtype":"","month":"2018-06"},{"category":"violent-crime","location_type":"Force","location":{"latitude":"53.327539","street":{"id":1096402,"name":"On or near Meadowhead"},"longitude":"-1.474054"},"context":"","outcome_status":{"category":"Investigation complete; no suspect identified","date":"2018-06"},"persistent_id":"01aac9d4188a1aef012b48704860166be76fe8202422ad8d094f976ebc4241ed","id":65961629,"location_subtype":"","month":"2018-06"},{"category":"violent-crime","location_type":"Force","location":{"latitude":"53.321457","street":{"id":1096418,"name":"On or near Whinacre Place"},"longitude":"-1.468799"},"context":"","outcome_status":{"category":"Under investigation","date":"2018-06"},"persistent_id":"faec06a19404b8feb81d8a2763b24af8d0483329953b7aa9cd672ef2fe56006b","id":65952687,"location_subtype":"","month":"2018-06"},{"category":"violent-crime","location_type":"Force","location":{"latitude":"53.320169","street":{"id":1096417,"name":"On or near White Thorns Close"},"longitude":"-1.466098"},"context":"","outcome_status":{"category":"Under investigation","date":"2018-06"},"persistent_id":"15dafe60e9c21be00335c764c69473466f4b6c031d0343da998cfe99927f0bd3","id":65952269,"location_subtype":"","month":"2018-06"},{"category":"violent-crime","location_type":"Force","location":{"latitude":"53.320169","street":{"id":1096417,"name":"On or near White Thorns Close"},"longitude":"-1.466098"},"context":"","outcome_status":{"category":"Under investigation","date":"2018-06"},"persistent_id":"4bfcce5455fe6c16d076790dc7db40d5753c40513118e4539f3cdbd03502ac66","id":65952268,"location_subtype":"","month":"2018-06"},{"category":"violent-crime","location_type":"Force","location":{"latitude":"53.323141","street":{"id":1096379,"name":"On or near Selly Oak Grove"},"longitude":"-1.459456"},"context":"","outcome_status":{"category":"Under investigation","date":"2018-06"},"persistent_id":"d881e48dcff5c3e60de7a7b614de06263694192232369f5fd6fccd31934a79ae","id":65951823,"location_subtype":"","month":"2018-06"},{"category":"violent-crime","location_type":"Force","location":{"latitude":"53.321457","street":{"id":1096418,"name":"On or near Whinacre Place"},"longitude":"-1.468799"},"context":"","outcome_status":{"category":"Under investigation","date":"2018-06"},"persistent_id":"f4b9ddd577078b04111fb9624b278320795abb13aeb10e5b68a572e2bf0c4544","id":65951806,"location_subtype":"","month":"2018-06"},{"category":"violent-crime","location_type":"Force","location":{"latitude":"53.318996","street":{"id":1096432,"name":"On or near Bowshaw View"},"longitude":"-1.471292"},"context":"","outcome_status":{"category":"Unable to prosecute suspect","date":"2018-06"},"persistent_id":"4bf3e8d46905b3e20ca5b8dab007b108b0801229625753b165635dfd782a6cf4","id":65961648,"location_subtype":"","month":"2018-06"},{"category":"violent-crime","location_type":"Force","location":{"latitude":"53.325893","street":{"id":1096491,"name":"On or near Reney Road"},"longitude":"-1.488202"},"context":"","outcome_status":{"category":"Under investigation","date":"2018-06"},"persistent_id":"888f25f5e8d39b0bd98e2820ade4b7070194b33c1d17fae90c85fca0f3dde63d","id":65951748,"location_subtype":"","month":"2018-06"},{"category":"violent-crime","location_type":"Force","location":{"latitude":"53.319191","street":{"id":1096435,"name":"On or near Batemoor Road"},"longitude":"-1.466591"},"context":"","outcome_status":{"category":"Under investigation","date":"2018-06"},"persistent_id":"df0102cd0ec358c270b1394f4f7ffd9dbdd493845b0d29de8f7ff643d03168fe","id":65961694,"location_subtype":"","month":"2018-06"},{"category":"violent-crime","location_type":"Force","location":{"latitude":"53.321764","street":{"id":1096414,"name":"On or near Pedestrian Subway"},"longitude":"-1.464997"},"context":"","outcome_status":{"category":"Under investigation","date":"2018-06"},"persistent_id":"8646109461bafa771877df81f88a7298eb73358c055610af4032a09b64a7fb0b","id":65951331,"location_subtype":"","month":"2018-06"},{"category":"violent-crime","location_type":"Force","location":{"latitude":"53.323775","street":{"id":1096480,"name":"On or near Gervase Avenue"},"longitude":"-1.484775"},"context":"","outcome_status":{"category":"Under investigation","date":"2018-06"},"persistent_id":"33e91180766aaa576bb9383f05635fc0d7249b492d7512e4c997c9ff5717f2e6","id":65951267,"location_subtype":"","month":"2018-06"},{"category":"violent-crime","location_type":"Force","location":{"latitude":"53.326942","street":{"id":1096490,"name":"On or near Torwood Drive"},"longitude":"-1.485562"},"context":"","outcome_status":{"category":"Under investigation","date":"2018-06"},"persistent_id":"cec94b3fbe424210b81491ad0a617b825a27a55d9696bf71182b062cd27086c9","id":65951266,"location_subtype":"","month":"2018-06"},{"category":"violent-crime","location_type":"Force","location":{"latitude":"53.321457","street":{"id":1096418,"name":"On or near Whinacre Place"},"longitude":"-1.468799"},"context":"","outcome_status":{"category":"Under investigation","date":"2018-06"},"persistent_id":"7a92d1faf9a4eb981c4cf062e6515127a7888468bf285f143b879d756b54859d","id":65950584,"location_subtype":"","month":"2018-06"},{"category":"violent-crime","location_type":"Force","location":{"latitude":"53.325893","street":{"id":1096491,"name":"On or near Reney Road"},"longitude":"-1.488202"},"context":"","outcome_status":{"category":"Unable to prosecute suspect","date":"2018-06"},"persistent_id":"e1532174996a55ece8e41104066732c7bc9b71d59b9c5315487e762871aafae7","id":65960909,"location_subtype":"","month":"2018-06"},{"category":"violent-crime","location_type":"Force","location":{"latitude":"53.322009","street":{"id":1096459,"name":"On or near Greenhill Parkway"},"longitude":"-1.494509"},"context":"","outcome_status":{"category":"Under investigation","date":"2018-06"},"persistent_id":"36b47bd1ee88dd5346d85ec5e34e1028d7d85ec156f0261001faa4f7241e77e2","id":65950902,"location_subtype":"","month":"2018-06"},{"category":"violent-crime","location_type":"Force","location":{"latitude":"53.321222","street":{"id":1096388,"name":"On or near Lowedges Crescent"},"longitude":"-1.478515"},"context":"","outcome_status":{"category":"Under investigation","date":"2018-06"},"persistent_id":"30bc727df06186109e44870364db1cd0010f385feb7a3a7ec203089481f1881d","id":65950143,"location_subtype":"","month":"2018-06"},{"category":"violent-crime","location_type":"Force","location":{"latitude":"53.321376","street":{"id":1096474,"name":"On or near Lowedges Close"},"longitude":"-1.485104"},"context":"","outcome_status":{"category":"Under investigation","date":"2018-06"},"persistent_id":"6968b9e713d4901002713508a953f46f10db37267bb86323f43baa2ce077bfb0","id":65950128,"location_subtype":"","month":"2018-06"},{"category":"violent-crime","location_type":"Force","location":{"latitude":"53.323710","street":{"id":1096392,"name":"On or near Toppham Drive"},"longitude":"-1.480241"},"context":"","outcome_status":{"category":"Under investigation","date":"2018-06"},"persistent_id":"9593706f78b7f1e030301105d32fda3244e0859128bd015d47475e917251da35","id":65960948,"location_subtype":"","month":"2018-06"},{"category":"violent-crime","location_type":"Force","location":{"latitude":"53.323298","street":{"id":1096478,"name":"On or near Gervase Place"},"longitude":"-1.484780"},"context":"","outcome_status":{"category":"Under investigation","date":"2018-06"},"persistent_id":"2bbea8a1752f6aac55dd014524687353c0303c6240bca75fc0f6289aed29b538","id":65963038,"location_subtype":"","month":"2018-06"},{"category":"violent-crime","location_type":"Force","location":{"latitude":"53.323440","street":{"id":1096472,"name":"On or near Lupton Road"},"longitude":"-1.482347"},"context":"","outcome_status":{"category":"Under investigation","date":"2018-06"},"persistent_id":"7813f8b10bd12e831e0390868edc5251a02d2bb04573c9398c70ca741b72c764","id":65963049,"location_subtype":"","month":"2018-06"},{"category":"violent-crime","location_type":"Force","location":{"latitude":"53.321302","street":{"id":1096463,"name":"On or near Edmund Close"},"longitude":"-1.497175"},"context":"","outcome_status":{"category":"Unable to prosecute suspect","date":"2018-06"},"persistent_id":"5682a802ed21c84423396ee3de0a5f6b442b750aaa2e9e3918255ed5bb9ce875","id":65964494,"location_subtype":"","month":"2018-06"},{"category":"violent-crime","location_type":"Force","location":{"latitude":"53.321585","street":{"id":1096419,"name":"On or near Whinacre Close"},"longitude":"-1.467237"},"context":"","outcome_status":{"category":"Unable to prosecute suspect","date":"2018-06"},"persistent_id":"922cac090933347d665f4f22dd307ae91f562ee1bb7d660b4d560605eb8b13ee","id":65964619,"location_subtype":"","month":"2018-06"},{"category":"violent-crime","location_type":"Force","location":{"latitude":"53.321764","street":{"id":1096414,"name":"On or near Pedestrian Subway"},"longitude":"-1.464997"},"context":"","outcome_status":{"category":"Under investigation","date":"2018-06"},"persistent_id":"f26ea351e36e7edae0c8e73febf54e9de0e1fadd6e2cdb7b9164fc8219aaaa37","id":65963115,"location_subtype":"","month":"2018-06"},{"category":"violent-crime","location_type":"Force","location":{"latitude":"53.320619","street":{"id":1096485,"name":"On or near Supermarket"},"longitude":"-1.490983"},"context":"","outcome_status":{"category":"Unable to prosecute suspect","date":"2018-06"},"persistent_id":"7593d42be8a53db578c2d9f1a2f39392df4769affc56ddf9fc6c5454779b12f3","id":65950527,"location_subtype":"","month":"2018-06"},{"category":"violent-crime","location_type":"Force","location":{"latitude":"53.321155","street":{"id":1096387,"name":"On or near Lowedges Drive"},"longitude":"-1.477720"},"context":"","outcome_status":{"category":"Investigation complete; no suspect identified","date":"2018-06"},"persistent_id":"2df152287a157deee51f584c5ad7323a46fa919dc4d81e8fb44e6b7b8d41bc8c","id":65950931,"location_subtype":"","month":"2018-06"},{"category":"violent-crime","location_type":"Force","location":{"latitude":"53.321858","street":{"id":1096426,"name":"On or near Lingfoot Avenue"},"longitude":"-1.461889"},"context":"","outcome_status":{"category":"Under investigation","date":"2018-06"},"persistent_id":"cc10bd2830493856c7862382c0eddbd156d97dda9fe1db241a713d6a0ea1c940","id":65963131,"location_subtype":"","month":"2018-06"},{"category":"violent-crime","location_type":"Force","location":{"latitude":"53.319191","street":{"id":1096435,"name":"On or near Batemoor Road"},"longitude":"-1.466591"},"context":"","outcome_status":{"category":"Under investigation","date":"2018-06"},"persistent_id":"296d9893696f25da1cb96874f524fa741470badd6cadbd5a41761c48214732cf","id":65964615,"location_subtype":"","month":"2018-06"},{"category":"violent-crime","location_type":"Force","location":{"latitude":"53.320669","street":{"id":1096415,"name":"On or near White Thorns View"},"longitude":"-1.465356"},"context":"","outcome_status":{"category":"Under investigation","date":"2018-06"},"persistent_id":"4958f5b8fdbb374d6f8f4c31c75be9868b7bbb376db11432adde1e89bf0e6202","id":65964624,"location_subtype":"","month":"2018-06"},{"category":"violent-crime","location_type":"Force","location":{"latitude":"53.320133","street":{"id":1096476,"name":"On or near Gresley Road"},"longitude":"-1.488662"},"context":"","outcome_status":{"category":"Under investigation","date":"2018-06"},"persistent_id":"303b2c1d3cdaaa51bf17f5a12b61a5a3a5be8db87e28231d0b42845fa76c426c","id":65965169,"location_subtype":"","month":"2018-06"},{"category":"violent-crime","location_type":"Force","location":{"latitude":"53.324576","street":{"id":1096413,"name":"On or near Sports\/recreation Area"},"longitude":"-1.474706"},"context":"","outcome_status":{"category":"Unable to prosecute suspect","date":"2018-06"},"persistent_id":"ab48b97c0f61aa19484a941b2c38d5217c12523293ab3c233082bf06573bd892","id":65950940,"location_subtype":"","month":"2018-06"},{"category":"violent-crime","location_type":"Force","location":{"latitude":"53.324854","street":{"id":1096498,"name":"On or near Greenhill Parkway"},"longitude":"-1.487059"},"context":"","outcome_status":{"category":"Unable to prosecute suspect","date":"2018-06"},"persistent_id":"5506d0bc08b2ae19ca2229d12da8d7907a6e2aa861ced472ab741bc7af14172e","id":65953812,"location_subtype":"","month":"2018-06"},{"category":"violent-crime","location_type":"Force","location":{"latitude":"53.325330","street":{"id":1096450,"name":"On or near Hazlebarrow Road"},"longitude":"-1.462461"},"context":"","outcome_status":{"category":"Unable to prosecute suspect","date":"2018-06"},"persistent_id":"c46d3ecd978e5689af29a25d8f378e8190f26ad79b354c5c481e60eda69cc1e8","id":65955184,"location_subtype":"","month":"2018-06"},{"category":"violent-crime","location_type":"Force","location":{"latitude":"53.325487","street":{"id":1096443,"name":"On or near Ormond Way"},"longitude":"-1.463344"},"context":"","outcome_status":{"category":"Under investigation","date":"2018-06"},"persistent_id":"0cf12d253b5f31ff4e7c6cfd45c59f62abe3b1e5547541c4313e417604a92932","id":65956802,"location_subtype":"","month":"2018-06"},{"category":"violent-crime","location_type":"Force","location":{"latitude":"53.325893","street":{"id":1096491,"name":"On or near Reney Road"},"longitude":"-1.488202"},"context":"","outcome_status":{"category":"Unable to prosecute suspect","date":"2018-06"},"persistent_id":"a48dd6135864c576e7296be698135e0b130c06e51d5935232835fbbf54b3c73d","id":65956368,"location_subtype":"","month":"2018-06"},{"category":"violent-crime","location_type":"Force","location":{"latitude":"53.335680","street":{"id":1096796,"name":"On or near Petrol Station"},"longitude":"-1.481628"},"context":"","outcome_status":{"category":"Under investigation","date":"2018-06"},"persistent_id":"ea73ca7ab9fbf5418cbcef23532a80a94fb7b2279a5591e28ee3f49ba36d230f","id":65956383,"location_subtype":"","month":"2018-06"},{"category":"violent-crime","location_type":"Force","location":{"latitude":"53.335594","street":{"id":1096743,"name":"On or near Abbey Brook Close"},"longitude":"-1.486675"},"context":"","outcome_status":{"category":"Under investigation","date":"2018-06"},"persistent_id":"bd96fdea8d593751457441eac54e471a3f7d05a30971f039dd99a2bfd4d6fd00","id":65957122,"location_subtype":"","month":"2018-06"},{"category":"violent-crime","location_type":"Force","location":{"latitude":"53.318766","street":{"id":1096434,"name":"On or near Bowshaw Avenue"},"longitude":"-1.469974"},"context":"","outcome_status":{"category":"Under investigation","date":"2018-06"},"persistent_id":"566c7221ef3d746b7fb1396dcef5cdca1986498aa9bbbee203dcc61484a630bd","id":65957160,"location_subtype":"","month":"2018-06"},{"category":"violent-crime","location_type":"Force","location":{"latitude":"53.321764","street":{"id":1096414,"name":"On or near Pedestrian Subway"},"longitude":"-1.464997"},"context":"","outcome_status":{"category":"Under investigation","date":"2018-06"},"persistent_id":"ac7679f9db6e93c939b5be391303e6845164a0cf7c31a6b383bafe5eb8155756","id":65957167,"location_subtype":"","month":"2018-06"},{"category":"violent-crime","location_type":"Force","location":{"latitude":"53.320669","street":{"id":1096415,"name":"On or near White Thorns View"},"longitude":"-1.465356"},"context":"","outcome_status":{"category":"Awaiting court outcome","date":"2018-06"},"persistent_id":"2a71e0d0de07212f22f336bab92d0c231dd1db5cf943de79ad753837df62ea94","id":65957172,"location_subtype":"","month":"2018-06"},{"category":"violent-crime","location_type":"Force","location":{"latitude":"53.320619","street":{"id":1096485,"name":"On or near Supermarket"},"longitude":"-1.490983"},"context":"","outcome_status":{"category":"Unable to prosecute suspect","date":"2018-06"},"persistent_id":"2fdac6b2f6c451f058e109a60b21a731ba7bca347602afab592c4c621d3a9497","id":65957983,"location_subtype":"","month":"2018-06"},{"category":"violent-crime","location_type":"Force","location":{"latitude":"53.319191","street":{"id":1096435,"name":"On or near Batemoor Road"},"longitude":"-1.466591"},"context":"","outcome_status":{"category":"Under investigation","date":"2018-06"},"persistent_id":"b6764445a7140b70f34c5da419679bdf3f5dd80dffcfbbb85e88ede08c378666","id":65954258,"location_subtype":"","month":"2018-06"},{"category":"violent-crime","location_type":"Force","location":{"latitude":"53.318996","street":{"id":1096432,"name":"On or near Bowshaw View"},"longitude":"-1.471292"},"context":"","outcome_status":{"category":"Under investigation","date":"2018-06"},"persistent_id":"012512318b468d188dba67e329b924091526b860f9afabcc1285a666377e7d7a","id":65961641,"location_subtype":"","month":"2018-06"},{"category":"violent-crime","location_type":"Force","location":{"latitude":"53.322631","street":{"id":1096482,"name":"On or near Atlantic Way"},"longitude":"-1.488587"},"context":"","outcome_status":{"category":"Under investigation","date":"2018-06"},"persistent_id":"f354e8969b059d5618b44f11be972ebc33d8212d2de1e9d8b36da7cb36fda38c","id":65952205,"location_subtype":"","month":"2018-06"},{"category":"violent-crime","location_type":"Force","location":{"latitude":"53.321155","street":{"id":1096387,"name":"On or near Lowedges Drive"},"longitude":"-1.477720"},"context":"","outcome_status":{"category":"Under investigation","date":"2018-06"},"persistent_id":"0784a373548d1f7f9e59c55be5c8a8af5d7c84e35425597224405299246d17d5","id":65956761,"location_subtype":"","month":"2018-06"},{"category":"violent-crime","location_type":"Force","location":{"latitude":"53.321608","street":{"id":1096481,"name":"On or near Becket Road"},"longitude":"-1.488959"},"context":"","outcome_status":{"category":"Unable to prosecute suspect","date":"2018-06"},"persistent_id":"551367b292e796da2f66c6cd4ec2d234da7a15751e661415d9f00fcfc1491404","id":65960903,"location_subtype":"","month":"2018-06"},{"category":"violent-crime","location_type":"Force","location":{"latitude":"53.323626","street":{"id":1096110,"name":"On or near Reney Crescent"},"longitude":"-1.492103"},"context":"","outcome_status":{"category":"Unable to prosecute suspect","date":"2018-06"},"persistent_id":"cea01c3329d2851be8a41d6f9b7f45a247273327d58a1ffdf73ce21c5eb5a303","id":65955520,"location_subtype":"","month":"2018-06"},{"category":"other-crime","location_type":"Force","location":{"latitude":"53.321155","street":{"id":1096387,"name":"On or near Lowedges Drive"},"longitude":"-1.477720"},"context":"","outcome_status":{"category":"Under investigation","date":"2018-06"},"persistent_id":"88ff9b2d5fa487e54b1e912e2d3ad2982d93d7ba5059dc3b2967d46255e2463c","id":65950151,"location_subtype":"","month":"2018-06"},{"category":"other-crime","location_type":"Force","location":{"latitude":"53.323440","street":{"id":1096472,"name":"On or near Lupton Road"},"longitude":"-1.482347"},"context":"","outcome_status":{"category":"Under investigation","date":"2018-06"},"persistent_id":"d1332601fe16e0d4544354b504d7b6d26e1ec2367c26914c59615f498947b323","id":65953481,"location_subtype":"","month":"2018-06"},{"category":"other-crime","location_type":"Force","location":{"latitude":"53.320133","street":{"id":1096476,"name":"On or near Gresley Road"},"longitude":"-1.488662"},"context":"","outcome_status":{"category":"Under investigation","date":"2018-06"},"persistent_id":"f7c1cc20377dcf98eaac552e3919fd7944234bdcb2b3625272ff73f69d728359","id":65957987,"location_subtype":"","month":"2018-06"}]