[{"category":"anti-social-behaviour","location_type":"Force","location":{"latitude":"53.007356","street":{"id":1127980,"name":"On or near Keele Road"},"longitude":"-2.275529"},"context":"","outcome_status":null,"persistent_id":"","id":65894680,"location_subtype":"","month":"2018-06"},{"category":"anti-social-behaviour","location_type":"Force","location":{"latitude":"53.004370","street":{"id":1115128,"name":"On or near Further\/higher Educational Building"},"longitude":"-2.268327"},"context":"","outcome_status":null,"persistent_id":"","id":65895651,"location_subtype":"","month":"2018-06"},{"category":"anti-social-behaviour","location_type":"Force","location":{"latitude":"53.007356","street":{"id":1127980,"name":"On or near Keele Road"},"longitude":"-2.275529"},"context":"","outcome_status":null,"persistent_id":"","id":65895335,"location_subtype":"","month":"2018-06"},{"category":"anti-social-behaviour","location_type":"Force","location":{"latitude":"52.992539","street":{"id":1126467,"name":"On or near Petrol Station"},"longitude":"-2.288113"},"context":"","outcome_status":null,"persistent_id":"","id":65894678,"location_subtype":"","month":"2018-06"},{"category":"anti-social-behaviour","location_type":"Force","location":{"latitude":"52.992539","street":{"id":1126467,"name":"On or near Petrol Station"},"longitude":"-2.288113"},"context":"","outcome_status":null,"persistent_id":"","id":65894679,"location_subtype":"","month":"2018-06"},{"category":"bicycle-theft","location_type":"Force","location":{"latitude":"53.002370","street":{"id":1127973,"name":"On or near Further\/higher Educational Building"},"longitude":"-2.270565"},"context":"","outcome_status":{"category":"Investigation complete; no suspect identified","date":"2018-06"},"persistent_id":"a9605e45c4d15efe3cae99038a89fd11735a3e911cbe0ee75cb5e3f36dc429bd","id":65888725,"location_subtype":"","month":"2018-06"},{"category":"criminal-damage-arson","location_type":"Force","location":{"latitude":"52.992539","street":{"id":1126467,"name":"On or near Petrol Station"},"longitude":"-2.288113"},"context":"","outcome_status":{"category":"Under investigation","date":"2018-06"},"persistent_id":"09db7f0d4e17099a9517cb69bb49339f9cf9e30d824318df4fe610645cc19ede","id":65890831,"location_subtype":"","month":"2018-06"},{"category":"criminal-damage-arson","location_type":"Force","location":{"latitude":"53.006126","street":{"id":1115127,"name":"On or near Knights Croft"},"longitude":"-2.286475"},"context":"","outcome_status":{"category":"Under investigation","date":"2018-06"},"persistent_id":"63c77954f5244a81f2fe4328eacc8bfb3175629ba670335450926cd45af7a2a5","id":65890740,"location_subtype":"","month":"2018-06"},{"category":"criminal-damage-arson","location_type":"Force","location":{"latitude":"52.992539","street":{"id":1126467,"name":"On or near Petrol Station"},"longitude":"-2.288113"},"context":"","outcome_status":{"category":"Investigation complete; no suspect identified","date":"2018-06"},"persistent_id":"6abcfe3409328cbbb01cd198828f6b791a01213fbac590a46420e520ac675410","id":65890890,"location_subtype":"","month":"2018-06"},{"category":"other-theft","location_type":"Force","location":{"latitude":"53.007356","street":{"id":1127980,"name":"On or near Keele Road"},"longitude":"-2.275529"},"context":"","outcome_status":{"category":"Under investigation","date":"2018-06"},"persistent_id":"cfdbd7f65355ea89ef66bedfa046203327db1e605a544fa76d3641d5f01ee154","id":65890121,"location_subtype":"","month":"2018-06"},{"category":"other-theft","location_type":"Force","location":{"latitude":"52.992539","street":{"id":1126467,"name":"On or near Petrol Station"},"longitude":"-2.288113"},"context":"","outcome_status":{"category":"Investigation complete; no suspect identified","date":"2018-06"},"persistent_id":"ee312527bbc5f6ce8b02288865589dc0894346787269b5415bbd0467fda623b5","id":65890163,"location_subtype":"","month":"2018-06"},{"category":"other-theft","location_type":"Force","location":{"latitude":"52.992539","street":{"id":1126467,"name":"On or near Petrol Station"},"longitude":"-2.288113"},"context":"","outcome_status":{"category":"Under investigation","date":"2018-06"},"persistent_id":"7e5b3d72b8a5fedba7a321c490d1cbf223d5f85cea2d68d08d72cf648469ddbb","id":65890432,"location_subtype":"","month":"2018-06"},{"category":"public-order","location_type":"Force","location":{"latitude":"53.002370","street":{"id":1127973,"name":"On or near Further\/higher Educational Building"},"longitude":"-2.270565"},"context":"","outcome_status":{"category":"Under investigation","date":"2018-06"},"persistent_id":"1dea38a9d34f7b9b7a96bfbdbf700c0540dfa82fb0d1ebbb1f5da23c781d34fe","id":65892739,"location_subtype":"","month":"2018-06"},{"category":"vehicle-crime","location_type":"Force","location":{"latitude":"52.993845","street":{"id":1115153,"name":"On or near Petrol Station"},"longitude":"-2.287257"},"context":"","outcome_status":{"category":"Investigation complete; no suspect identified","date":"2018-06"},"persistent_id":"50554cf052fdb4497cc91a6b7412d8aef88caafb23cb3780a9d9bd7eda5c0ff9","id":65888823,"location_subtype":"","month":"2018-06"},{"category":"vehicle-crime","location_type":"Force","location":{"latitude":"52.992539","street":{"id":1126467,"name":"On or near Petrol Station"},"longitude":"-2.288113"},"context":"","outcome_status":{"category":"Investigation complete; no suspect identified","date":"2018-06"},"persistent_id":"63dc21368221d13e3a45d4078a62648368f431ef44a28fcc9bd7ce5d96a2fc80","id":65888889,"location_subtype":"","month":"2018-06"},{"category":"vehicle-crime","location_type":"Force","location":{"latitude":"53.008619","street":{"id":1127979,"name":"On or near Old Chapel Close"},"longitude":"-2.296119"},"context":"","outcome_status":{"category":"Investigation complete; no suspect identified","date":"2018-06"},"persistent_id":"386acecd2902d94d54708ed342da7fab827a363c10be7af0494c18c0ad9c1368","id":65889678,"location_subtype":"","month":"2018-06"},{"category":"violent-crime","location_type":"Force","location":{"latitude":"53.003758","street":{"id":1127981,"name":"On or near The Covert"},"longitude":"-2.276564"},"context":"","outcome_status":{"category":"Local resolution","date":"2018-06"},"persistent_id":"2cd59fe23f09516194db5cac23eb6a539b3c22009795e88010f4d9ca1974be5b","id":65885952,"location_subtype":"","month":"2018-06"},{"category":"violent-crime","location_type":"Force","location":{"latitude":"53.004370","street":{"id":1115128,"name":"On or near Further\/higher Educational Building"},"longitude":"-2.268327"},"context":"","outcome_status":{"category":"Investigation complete; no suspect identified","date":"2018-06"},"persistent_id":"9a577d52db29b28eabdc693dff0a75cce5057059624a9be1d77b9e5b1099cbd3","id":65886129,"location_subtype":"","month":"2018-06"},{"category":"violent-crime","location_type":"Force","location":{"latitude":"53.006126","street":{"id":1115127,"name":"On or near Knights Croft"},"longitude":"-2.286475"},"context":"","outcome_status":{"category":"Under investigation","date":"2018-06"},"persistent_id":"5008eb3688cfce260ac7da8d8a217550347cb9f12fcb54401cca9aee82142367","id":65891882,"location_subtype":"","month":"2018-06"}]