[{"category":"anti-social-behaviour","location_type":"Force","location":{"latitude":"51.388397","street":{"id":930098,"name":"On or near Greenlaw Gardens"},"longitude":"-0.249809"},"context":"","outcome_status":null,"persistent_id":"","id":58935817,"location_subtype":"","month":"2017-07"},{"category":"anti-social-behaviour","location_type":"Force","location":{"latitude":"51.388397","street":{"id":930098,"name":"On or near Greenlaw Gardens"},"longitude":"-0.249809"},"context":"","outcome_status":null,"persistent_id":"","id":58935818,"location_subtype":"","month":"2017-07"},{"category":"anti-social-behaviour","location_type":"Force","location":{"latitude":"51.395284","street":{"id":930053,"name":"On or near Malden Road"},"longitude":"-0.253931"},"context":"","outcome_status":null,"persistent_id":"","id":58935822,"location_subtype":"","month":"2017-07"},{"category":"anti-social-behaviour","location_type":"Force","location":{"latitude":"51.398450","street":{"id":930066,"name":"On or near A2043"},"longitude":"-0.255765"},"context":"","outcome_status":null,"persistent_id":"","id":58935825,"location_subtype":"","month":"2017-07"},{"category":"anti-social-behaviour","location_type":"Force","location":{"latitude":"51.399280","street":{"id":930114,"name":"On or near Charnwood Close"},"longitude":"-0.257143"},"context":"","outcome_status":null,"persistent_id":"","id":58935832,"location_subtype":"","month":"2017-07"},{"category":"anti-social-behaviour","location_type":"Force","location":{"latitude":"51.395386","street":{"id":929942,"name":"On or near Allan Close"},"longitude":"-0.266260"},"context":"","outcome_status":null,"persistent_id":"","id":58935845,"location_subtype":"","month":"2017-07"},{"category":"anti-social-behaviour","location_type":"Force","location":{"latitude":"51.395046","street":{"id":929955,"name":"On or near Windsor Avenue"},"longitude":"-0.270614"},"context":"","outcome_status":null,"persistent_id":"","id":58935851,"location_subtype":"","month":"2017-07"},{"category":"anti-social-behaviour","location_type":"Force","location":{"latitude":"51.395046","street":{"id":929955,"name":"On or near Windsor Avenue"},"longitude":"-0.270614"},"context":"","outcome_status":null,"persistent_id":"","id":58935852,"location_subtype":"","month":"2017-07"},{"category":"anti-social-behaviour","location_type":"Force","location":{"latitude":"51.395046","street":{"id":929955,"name":"On or near Windsor Avenue"},"longitude":"-0.270614"},"context":"","outcome_status":null,"persistent_id":"","id":58935853,"location_subtype":"","month":"2017-07"},{"category":"anti-social-behaviour","location_type":"Force","location":{"latitude":"51.395386","street":{"id":929942,"name":"On or near Allan Close"},"longitude":"-0.266260"},"context":"","outcome_status":null,"persistent_id":"","id":58935846,"location_subtype":"","month":"2017-07"},{"category":"anti-social-behaviour","location_type":"Force","location":{"latitude":"51.392528","street":{"id":930103,"name":"On or near Blakes Avenue"},"longitude":"-0.249422"},"context":"","outcome_status":null,"persistent_id":"","id":58935816,"location_subtype":"","month":"2017-07"},{"category":"burglary","location_type":"Force","location":{"latitude":"51.390703","street":{"id":930011,"name":"On or near Amberwood Rise"},"longitude":"-0.258518"},"context":"","outcome_status":{"category":"Status update unavailable","date":"2017-11"},"persistent_id":"350330fbbf6d9b2cd035e14812d64e861a12d06ac39f407b608ff6d412f7e0a2","id":58967032,"location_subtype":"","month":"2017-07"},{"category":"criminal-damage-arson","location_type":"Force","location":{"latitude":"51.397336","street":{"id":929960,"name":"On or near Hawkhurst Way"},"longitude":"-0.268544"},"context":"","outcome_status":{"category":"Status update unavailable","date":"2017-11"},"persistent_id":"473c227657cad9f4f141ba705fd0975dfa938972d7524371961b4491e084d656","id":59014050,"location_subtype":"","month":"2017-07"},{"category":"criminal-damage-arson","location_type":"Force","location":{"latitude":"51.395007","street":{"id":930059,"name":"On or near College Gardens"},"longitude":"-0.248637"},"context":"","outcome_status":{"category":"Investigation complete; no suspect identified","date":"2017-12"},"persistent_id":"fdcce7cb404d18ce4b339e0892dea3de4c4b090fe78dee80b61a248c2bdbad37","id":59003669,"location_subtype":"","month":"2017-07"},{"category":"other-theft","location_type":"Force","location":{"latitude":"51.398514","street":{"id":930045,"name":"On or near Walton Avenue"},"longitude":"-0.252787"},"context":"","outcome_status":{"category":"Status update unavailable","date":"2017-11"},"persistent_id":"8e6a1f61d6bea771a35adf085d957afd7faa4f3f06c10f1318d3a970c25195c8","id":59006517,"location_subtype":"","month":"2017-07"},{"category":"other-theft","location_type":"Force","location":{"latitude":"51.397861","street":{"id":930056,"name":"On or near George Road"},"longitude":"-0.248844"},"context":"","outcome_status":{"category":"Investigation complete; no suspect identified","date":"2017-10"},"persistent_id":"c34b0300c4b3ae8ba2aef13a71f5afe01f0f4bdba9c0b261f98f77b6a0fbe6e9","id":58986611,"location_subtype":"","month":"2017-07"},{"category":"public-order","location_type":"Force","location":{"latitude":"51.394649","street":{"id":923509,"name":"On or near Bazalgette Close"},"longitude":"-0.268703"},"context":"","outcome_status":{"category":"Investigation complete; no suspect identified","date":"2017-10"},"persistent_id":"9c193570ce70d1ec8d4ef979e62eac72931af48bf3b2a32a7f867e8a1a71b043","id":58997292,"location_subtype":"","month":"2017-07"},{"category":"public-order","location_type":"Force","location":{"latitude":"51.394425","street":{"id":930064,"name":"On or near Blakes Lane"},"longitude":"-0.248789"},"context":"","outcome_status":{"category":"Investigation complete; no suspect identified","date":"2017-10"},"persistent_id":"47c982a9dbcc0d7ac69c68b49ffd7638ac9c7dde1d61e13220282cfe0b0dc9d8","id":58954516,"location_subtype":"","month":"2017-07"},{"category":"public-order","location_type":"Force","location":{"latitude":"51.389841","street":{"id":930102,"name":"On or near Broadlands Way"},"longitude":"-0.251925"},"context":"","outcome_status":{"category":"Investigation complete; no suspect identified","date":"2017-09"},"persistent_id":"ddfd416fe0a738264355eb9cf8d30fb308b7617d3e42d3a61eb856537c3e44ea","id":58964099,"location_subtype":"","month":"2017-07"},{"category":"vehicle-crime","location_type":"Force","location":{"latitude":"51.388854","street":{"id":930109,"name":"On or near Ancaster Crescent"},"longitude":"-0.245451"},"context":"","outcome_status":{"category":"Investigation complete; no suspect identified","date":"2017-08"},"persistent_id":"6045b3a53069704e49d1bb4e7fc527699b9b6a982b31cf7eda7a3cd0e77dafb4","id":58981950,"location_subtype":"","month":"2017-07"},{"category":"vehicle-crime","location_type":"Force","location":{"latitude":"51.388887","street":{"id":930107,"name":"On or near Bargate Close"},"longitude":"-0.244674"},"context":"","outcome_status":{"category":"Status update unavailable","date":"2017-11"},"persistent_id":"3994fbbdfc7c9d1cf30b78ed6bc5bc9bfe519c139248c103d58a042209e43364","id":58969098,"location_subtype":"","month":"2017-07"},{"category":"vehicle-crime","location_type":"Force","location":{"latitude":"51.396819","street":{"id":929961,"name":"On or near Groveland Way"},"longitude":"-0.268276"},"context":"","outcome_status":{"category":"Status update unavailable","date":"2017-11"},"persistent_id":"a0c1b052abab2165646e3833688fd4336b2049291b2d8d7b9a47103ab93587f3","id":58972805,"location_subtype":"","month":"2017-07"},{"category":"vehicle-crime","location_type":"Force","location":{"latitude":"51.397659","street":{"id":930049,"name":"On or near Queen's Road"},"longitude":"-0.249758"},"context":"","outcome_status":{"category":"Status update unavailable","date":"2017-11"},"persistent_id":"75e4b61f78140bdcf64ee543c4e3b0b6eafe4bc3940bbc946dec988a62e4439f","id":58956504,"location_subtype":"","month":"2017-07"},{"category":"vehicle-crime","location_type":"Force","location":{"latitude":"51.398971","street":{"id":929934,"name":"On or near Kingston Road"},"longitude":"-0.258146"},"context":"","outcome_status":{"category":"Status update unavailable","date":"2017-11"},"persistent_id":"8f11cecb7dd7e90aeb819e8349dfb8d7bb3b51e2d3d838ffd12f850b77d5edbc","id":58961015,"location_subtype":"","month":"2017-07"},{"category":"vehicle-crime","location_type":"Force","location":{"latitude":"51.391418","street":{"id":929998,"name":"On or near Oxford Crescent"},"longitude":"-0.266109"},"context":"","outcome_status":{"category":"Status update unavailable","date":"2017-11"},"persistent_id":"6a0c100e654fc5d35dbc44b78e11e7bb2850ec82c46fedf7ae1c3b28dd08ace2","id":58961030,"location_subtype":"","month":"2017-07"},{"category":"vehicle-crime","location_type":"Force","location":{"latitude":"51.396819","street":{"id":929961,"name":"On or near Groveland Way"},"longitude":"-0.268276"},"context":"","outcome_status":{"category":"Status update unavailable","date":"2017-11"},"persistent_id":"074508dd59a482dc949dd38475c11d6aeff802b924bb8e8772feba2baee83eb0","id":58961074,"location_subtype":"","month":"2017-07"},{"category":"vehicle-crime","location_type":"Force","location":{"latitude":"51.397344","street":{"id":930057,"name":"On or near Cromwell Avenue"},"longitude":"-0.252774"},"context":"","outcome_status":{"category":"Status update unavailable","date":"2017-11"},"persistent_id":"62e523f9b1bb855b75fc9d96d97733b55c9b5f8e637da4946b6d026508607f87","id":58964059,"location_subtype":"","month":"2017-07"},{"category":"vehicle-crime","location_type":"Force","location":{"latitude":"51.397659","street":{"id":930049,"name":"On or near Queen's Road"},"longitude":"-0.249758"},"context":"","outcome_status":{"category":"Status update unavailable","date":"2017-11"},"persistent_id":"b3e1ae9b3d66e8faa7e3184dff240184d9e4ad56f406252dd59f2e80bae595ee","id":58967828,"location_subtype":"","month":"2017-07"},{"category":"vehicle-crime","location_type":"Force","location":{"latitude":"51.395780","street":{"id":930054,"name":"On or near Kirrane Close"},"longitude":"-0.251023"},"context":"","outcome_status":{"category":"Status update unavailable","date":"2017-11"},"persistent_id":"d8763ffd3fd09d27717432949370464734fd5b9a5d1eaaf1407041c75b7f8edf","id":58968994,"location_subtype":"","month":"2017-07"},{"category":"vehicle-crime","location_type":"Force","location":{"latitude":"51.389618","street":{"id":930101,"name":"On or near Chilmark Gardens"},"longitude":"-0.247262"},"context":"","outcome_status":{"category":"Status update unavailable","date":"2017-11"},"persistent_id":"f420759a4b013576cd7aa7f718a5d969d052a519bb9aabf80c568c33eb11aab4","id":58970851,"location_subtype":"","month":"2017-07"},{"category":"vehicle-crime","location_type":"Force","location":{"latitude":"51.392257","street":{"id":930004,"name":"On or near Malden Way"},"longitude":"-0.261980"},"context":"","outcome_status":{"category":"Investigation complete; no suspect identified","date":"2017-08"},"persistent_id":"03f1509f1774ba72ecea9bd166ee7590508d138ec006a488da092bd67f3b82c2","id":58975730,"location_subtype":"","month":"2017-07"},{"category":"vehicle-crime","location_type":"Force","location":{"latitude":"51.388726","street":{"id":930090,"name":"On or near Portland Avenue"},"longitude":"-0.249552"},"context":"","outcome_status":{"category":"Status update unavailable","date":"2017-11"},"persistent_id":"8ea3b9bfe0d7d19033f2d3a7a361402233a876c73bf49f6434a994ba4b056fb1","id":58995530,"location_subtype":"","month":"2017-07"},{"category":"vehicle-crime","location_type":"Force","location":{"latitude":"51.388854","street":{"id":930109,"name":"On or near Ancaster Crescent"},"longitude":"-0.245451"},"context":"","outcome_status":{"category":"Investigation complete; no suspect identified","date":"2017-09"},"persistent_id":"6cd58ceee9d1297dc4b2befbee8365d19707a59e9e7add282dc81e5cf0946e69","id":58993425,"location_subtype":"","month":"2017-07"},{"category":"violent-crime","location_type":"Force","location":{"latitude":"51.394270","street":{"id":929967,"name":"On or near Bazalgette Gardens"},"longitude":"-0.267999"},"context":"","outcome_status":{"category":"Investigation complete; no suspect identified","date":"2017-10"},"persistent_id":"5ec6fe8cc11f777ad2007afab721373d4d383454fb8d9b12345fc9a137196281","id":59006039,"location_subtype":"","month":"2017-07"},{"category":"violent-crime","location_type":"Force","location":{"latitude":"51.394088","street":{"id":929919,"name":"On or near South Lane"},"longitude":"-0.266022"},"context":"","outcome_status":{"category":"Investigation complete; no suspect identified","date":"2017-08"},"persistent_id":"abd79ca33490bea0a5343fb42867d9cdeabcfa0440889e9ed8e1f73093dd04fb","id":58974729,"location_subtype":"","month":"2017-07"},{"category":"violent-crime","location_type":"Force","location":{"latitude":"51.390703","street":{"id":930011,"name":"On or near Amberwood Rise"},"longitude":"-0.258518"},"context":"","outcome_status":{"category":"Court result unavailable","date":"2018-03"},"persistent_id":"c35e3ca644db862f527c0ff2197f3b57426696228a2cc81a5a6a3fa95f934be5","id":58989345,"location_subtype":"","month":"2017-07"},{"category":"violent-crime","location_type":"Force","location":{"latitude":"51.391331","street":{"id":929993,"name":"On or near Pedestrian Subway"},"longitude":"-0.263870"},"context":"","outcome_status":{"category":"Investigation complete; no suspect identified","date":"2017-09"},"persistent_id":"595c4e063ef56691eee71e1172f38fdcbe3147f5723a63272efb8f995b4b0d8f","id":59016048,"location_subtype":"","month":"2017-07"}]