[{"category":"anti-social-behaviour","location_type":"Force","location":{"latitude":"53.768409","street":{"id":864384,"name":"On or near Ash Court"},"longitude":"-2.808788"},"context":"","outcome_status":null,"persistent_id":"2cc1e69907d7bd136a7efb45ebaacb3c41ab2c2eeb22657392d935bfe0699624","id":66258214,"location_subtype":"","month":"2018-06"},{"category":"anti-social-behaviour","location_type":"Force","location":{"latitude":"53.772485","street":{"id":864401,"name":"On or near Hawthorne Avenue"},"longitude":"-2.840760"},"context":"","outcome_status":null,"persistent_id":"1d88910e26a6576719205392631ae671cfdaab7f15d32ace1c5a6de2e707814e","id":66256788,"location_subtype":"","month":"2018-06"},{"category":"anti-social-behaviour","location_type":"Force","location":{"latitude":"53.771726","street":{"id":864406,"name":"On or near Bryning Lane"},"longitude":"-2.841397"},"context":"","outcome_status":null,"persistent_id":"b092ec9f52115aa2d25c7c4e2797139ed126390a15e925761eff983ba053996f","id":66257516,"location_subtype":"","month":"2018-06"},{"category":"anti-social-behaviour","location_type":"Force","location":{"latitude":"53.768185","street":{"id":864383,"name":"On or near Clifton Green"},"longitude":"-2.813988"},"context":"","outcome_status":null,"persistent_id":"1ee2a054744dc794a2c0d41595776ce65aa527d118d75cf9a0f61da9d7920c28","id":66258063,"location_subtype":"","month":"2018-06"},{"category":"burglary","location_type":"Force","location":{"latitude":"53.787244","street":{"id":851942,"name":"On or near Treales Road"},"longitude":"-2.830446"},"context":"","outcome_status":{"category":"Under investigation","date":"2018-06"},"persistent_id":"28f0007a4d5a0797056769e9b2f85fb78ae4f0b19cdb0919d629b1210ac80aca","id":66243567,"location_subtype":"","month":"2018-06"},{"category":"burglary","location_type":"Force","location":{"latitude":"53.766072","street":{"id":864374,"name":"On or near Silver Street"},"longitude":"-2.812778"},"context":"","outcome_status":{"category":"Investigation complete; no suspect identified","date":"2018-06"},"persistent_id":"c1fc811a4e51c53eb572def3de09959f54c615751d35f635315f6fc5d0bfcad0","id":66244955,"location_subtype":"","month":"2018-06"},{"category":"criminal-damage-arson","location_type":"Force","location":{"latitude":"53.779447","street":{"id":864992,"name":"On or near Dowbridge"},"longitude":"-2.856530"},"context":"","outcome_status":{"category":"Unable to prosecute suspect","date":"2018-06"},"persistent_id":"de86a69f7d7bb2e24e79055e43078a91ea55061bb227183b89f5da245abe0f37","id":66253247,"location_subtype":"","month":"2018-06"},{"category":"criminal-damage-arson","location_type":"Force","location":{"latitude":"53.778867","street":{"id":864993,"name":"On or near Blackpool Road"},"longitude":"-2.853423"},"context":"","outcome_status":{"category":"Investigation complete; no suspect identified","date":"2018-06"},"persistent_id":"cb30b6d1643a44c2ebdffb093e1c66b796e29b576b46aca19493e0e4879a4065","id":66241782,"location_subtype":"","month":"2018-06"},{"category":"other-theft","location_type":"Force","location":{"latitude":"53.775236","street":{"id":864402,"name":"On or near Petrol Station"},"longitude":"-2.844487"},"context":"","outcome_status":{"category":"Investigation complete; no suspect identified","date":"2018-06"},"persistent_id":"217b2ab11d1720c7e1c72df2ebbf610bee8f4f38cc360023084ae0155f6be892","id":66252216,"location_subtype":"","month":"2018-06"},{"category":"other-theft","location_type":"Force","location":{"latitude":"53.772942","street":{"id":864370,"name":"On or near Deepdale Lane"},"longitude":"-2.805658"},"context":"","outcome_status":{"category":"Investigation complete; no suspect identified","date":"2018-06"},"persistent_id":"d0aaac17174f585c17117fc3208c073ddc14b29ea1adde97dd64499d23cebaae","id":66249455,"location_subtype":"","month":"2018-06"},{"category":"public-order","location_type":"Force","location":{"latitude":"53.791207","street":{"id":851908,"name":"On or near Dagger Road"},"longitude":"-2.816194"},"context":"","outcome_status":{"category":"Under investigation","date":"2018-06"},"persistent_id":"37c8b8a614f094ca86acadc0ebca51cb9dad6610bb27b7350d135717082aebf0","id":66248015,"location_subtype":"","month":"2018-06"},{"category":"public-order","location_type":"Force","location":{"latitude":"53.768409","street":{"id":864384,"name":"On or near Ash Court"},"longitude":"-2.808788"},"context":"","outcome_status":{"category":"Unable to prosecute suspect","date":"2018-06"},"persistent_id":"023718125ab0406f423767e0b717b78a071739913cbdf668577369fc235b9d84","id":66246429,"location_subtype":"","month":"2018-06"},{"category":"vehicle-crime","location_type":"Force","location":{"latitude":"53.767813","street":{"id":864379,"name":"On or near Linden Close"},"longitude":"-2.809110"},"context":"","outcome_status":{"category":"Unable to prosecute suspect","date":"2018-06"},"persistent_id":"c7f3db2c54282fe4207b2253f3301239bf3c714974294a0162227fdf3a96feca","id":66249385,"location_subtype":"","month":"2018-06"},{"category":"violent-crime","location_type":"Force","location":{"latitude":"53.767813","street":{"id":864379,"name":"On or near Linden Close"},"longitude":"-2.809110"},"context":"","outcome_status":{"category":"Under investigation","date":"2018-06"},"persistent_id":"7f39c3b5e8f4970035fef1659b1a0f2d690c724598026b19814def621c002cf9","id":66250732,"location_subtype":"","month":"2018-06"},{"category":"violent-crime","location_type":"Force","location":{"latitude":"53.766708","street":{"id":864376,"name":"On or near Preston Old Road"},"longitude":"-2.814338"},"context":"","outcome_status":{"category":"Unable to prosecute suspect","date":"2018-06"},"persistent_id":"c78f013b5db9a774d3d277e6c44a8e0430c6e8224a9353f14bf16d09769b3358","id":66251027,"location_subtype":"","month":"2018-06"},{"category":"violent-crime","location_type":"Force","location":{"latitude":"53.772485","street":{"id":864401,"name":"On or near Hawthorne Avenue"},"longitude":"-2.840760"},"context":"","outcome_status":{"category":"Unable to prosecute suspect","date":"2018-06"},"persistent_id":"af2caf6fbd71e8c8b22dc2005f5900873ff33d090238d3432c1bfe1562aaf2aa","id":66245103,"location_subtype":"","month":"2018-06"},{"category":"violent-crime","location_type":"Force","location":{"latitude":"53.772485","street":{"id":864401,"name":"On or near Hawthorne Avenue"},"longitude":"-2.840760"},"context":"","outcome_status":{"category":"Unable to prosecute suspect","date":"2018-06"},"persistent_id":"f8e26e4812b03c51951d988e8360c627309172e440d410329d19469618d375c8","id":66244988,"location_subtype":"","month":"2018-06"},{"category":"violent-crime","location_type":"Force","location":{"latitude":"53.771507","street":{"id":864404,"name":"On or near Lowfield Close"},"longitude":"-2.839314"},"context":"","outcome_status":{"category":"Under investigation","date":"2018-06"},"persistent_id":"b77cbe2925d5f85a9605a73aa8cd80b26d0549cdb6c6e66477ae84d26abda05a","id":66250706,"location_subtype":"","month":"2018-06"},{"category":"violent-crime","location_type":"Force","location":{"latitude":"53.767813","street":{"id":864379,"name":"On or near Linden Close"},"longitude":"-2.809110"},"context":"","outcome_status":{"category":"Unable to prosecute suspect","date":"2018-06"},"persistent_id":"dbf630b2817b798693e3ff501b221aabb97f4750d67a4cfc2b8d782de97e43ec","id":66250731,"location_subtype":"","month":"2018-06"},{"category":"violent-crime","location_type":"Force","location":{"latitude":"53.772485","street":{"id":864401,"name":"On or near Hawthorne Avenue"},"longitude":"-2.840760"},"context":"","outcome_status":{"category":"Unable to prosecute suspect","date":"2018-06"},"persistent_id":"ba91284d8f60634146a5fed1ada4e414b5722a4a0d11d0bd3656cbf497b90ec3","id":66245093,"location_subtype":"","month":"2018-06"}]