[{"category":"anti-social-behaviour","location_type":"Force","location":{"latitude":"51.252596","street":{"id":1149752,"name":"On or near Greenwell Close"},"longitude":"-0.068877"},"context":"","outcome_status":null,"persistent_id":"554fd7ba6fc67d388c02a1be61837a2c819843957f1ed0852a705647e0b2e14e","id":65897544,"location_subtype":"","month":"2018-06"},{"category":"anti-social-behaviour","location_type":"Force","location":{"latitude":"51.193995","street":{"id":1147163,"name":"On or near Cottenhams"},"longitude":"-0.050289"},"context":"","outcome_status":null,"persistent_id":"554fd7ba6fc67d388c02a1be61837a2c819843957f1ed0852a705647e0b2e14e","id":65901976,"location_subtype":"","month":"2018-06"},{"category":"anti-social-behaviour","location_type":"Force","location":{"latitude":"51.247798","street":{"id":1149753,"name":"On or near Godstone Green Road"},"longitude":"-0.067516"},"context":"","outcome_status":null,"persistent_id":"554fd7ba6fc67d388c02a1be61837a2c819843957f1ed0852a705647e0b2e14e","id":65897176,"location_subtype":"","month":"2018-06"},{"category":"anti-social-behaviour","location_type":"Force","location":{"latitude":"51.219160","street":{"id":1148001,"name":"On or near Petrol Station"},"longitude":"-0.048840"},"context":"","outcome_status":null,"persistent_id":"554fd7ba6fc67d388c02a1be61837a2c819843957f1ed0852a705647e0b2e14e","id":65900338,"location_subtype":"","month":"2018-06"},{"category":"anti-social-behaviour","location_type":"Force","location":{"latitude":"51.218714","street":{"id":1147996,"name":"On or near St Stephens Court"},"longitude":"-0.050119"},"context":"","outcome_status":null,"persistent_id":"554fd7ba6fc67d388c02a1be61837a2c819843957f1ed0852a705647e0b2e14e","id":65900316,"location_subtype":"","month":"2018-06"},{"category":"anti-social-behaviour","location_type":"Force","location":{"latitude":"51.247798","street":{"id":1149753,"name":"On or near Godstone Green Road"},"longitude":"-0.067516"},"context":"","outcome_status":null,"persistent_id":"554fd7ba6fc67d388c02a1be61837a2c819843957f1ed0852a705647e0b2e14e","id":65897216,"location_subtype":"","month":"2018-06"},{"category":"anti-social-behaviour","location_type":"Force","location":{"latitude":"51.256386","street":{"id":1150922,"name":"On or near Flower Lane"},"longitude":"-0.053412"},"context":"","outcome_status":null,"persistent_id":"554fd7ba6fc67d388c02a1be61837a2c819843957f1ed0852a705647e0b2e14e","id":65900634,"location_subtype":"","month":"2018-06"},{"category":"anti-social-behaviour","location_type":"Force","location":{"latitude":"51.190466","street":{"id":1147164,"name":"On or near Parking Area"},"longitude":"-0.048979"},"context":"","outcome_status":null,"persistent_id":"554fd7ba6fc67d388c02a1be61837a2c819843957f1ed0852a705647e0b2e14e","id":65900053,"location_subtype":"","month":"2018-06"},{"category":"anti-social-behaviour","location_type":"Force","location":{"latitude":"51.191846","street":{"id":1147161,"name":"On or near Petrol Station"},"longitude":"-0.049765"},"context":"","outcome_status":null,"persistent_id":"554fd7ba6fc67d388c02a1be61837a2c819843957f1ed0852a705647e0b2e14e","id":65899344,"location_subtype":"","month":"2018-06"},{"category":"anti-social-behaviour","location_type":"Force","location":{"latitude":"51.194027","street":{"id":1145173,"name":"On or near Race Track"},"longitude":"-0.045737"},"context":"","outcome_status":null,"persistent_id":"554fd7ba6fc67d388c02a1be61837a2c819843957f1ed0852a705647e0b2e14e","id":65899835,"location_subtype":"","month":"2018-06"},{"category":"anti-social-behaviour","location_type":"Force","location":{"latitude":"51.247873","street":{"id":1149759,"name":"On or near Bletchingley Road"},"longitude":"-0.070422"},"context":"","outcome_status":null,"persistent_id":"554fd7ba6fc67d388c02a1be61837a2c819843957f1ed0852a705647e0b2e14e","id":65898132,"location_subtype":"","month":"2018-06"},{"category":"anti-social-behaviour","location_type":"Force","location":{"latitude":"51.254443","street":{"id":1150913,"name":"On or near Tylers Close"},"longitude":"-0.068528"},"context":"","outcome_status":null,"persistent_id":"554fd7ba6fc67d388c02a1be61837a2c819843957f1ed0852a705647e0b2e14e","id":65898128,"location_subtype":"","month":"2018-06"},{"category":"anti-social-behaviour","location_type":"Force","location":{"latitude":"51.255278","street":{"id":1150915,"name":"On or near Godstone Hill"},"longitude":"-0.066286"},"context":"","outcome_status":null,"persistent_id":"554fd7ba6fc67d388c02a1be61837a2c819843957f1ed0852a705647e0b2e14e","id":65898125,"location_subtype":"","month":"2018-06"},{"category":"anti-social-behaviour","location_type":"Force","location":{"latitude":"51.247798","street":{"id":1149753,"name":"On or near Godstone Green Road"},"longitude":"-0.067516"},"context":"","outcome_status":null,"persistent_id":"554fd7ba6fc67d388c02a1be61837a2c819843957f1ed0852a705647e0b2e14e","id":65898118,"location_subtype":"","month":"2018-06"},{"category":"anti-social-behaviour","location_type":"Force","location":{"latitude":"51.247873","street":{"id":1149759,"name":"On or near Bletchingley Road"},"longitude":"-0.070422"},"context":"","outcome_status":null,"persistent_id":"554fd7ba6fc67d388c02a1be61837a2c819843957f1ed0852a705647e0b2e14e","id":65897566,"location_subtype":"","month":"2018-06"},{"category":"anti-social-behaviour","location_type":"Force","location":{"latitude":"51.218275","street":{"id":1147991,"name":"On or near Lagham Road"},"longitude":"-0.045397"},"context":"","outcome_status":null,"persistent_id":"554fd7ba6fc67d388c02a1be61837a2c819843957f1ed0852a705647e0b2e14e","id":65905171,"location_subtype":"","month":"2018-06"},{"category":"anti-social-behaviour","location_type":"Force","location":{"latitude":"51.251112","street":{"id":1149754,"name":"On or near Dumville Drive"},"longitude":"-0.068854"},"context":"","outcome_status":null,"persistent_id":"554fd7ba6fc67d388c02a1be61837a2c819843957f1ed0852a705647e0b2e14e","id":65905137,"location_subtype":"","month":"2018-06"},{"category":"anti-social-behaviour","location_type":"Force","location":{"latitude":"51.258646","street":{"id":1144769,"name":"On or near M25"},"longitude":"-0.060626"},"context":"","outcome_status":null,"persistent_id":"554fd7ba6fc67d388c02a1be61837a2c819843957f1ed0852a705647e0b2e14e","id":65905044,"location_subtype":"","month":"2018-06"},{"category":"anti-social-behaviour","location_type":"Force","location":{"latitude":"51.245535","street":{"id":1149776,"name":"On or near Bell Meadow"},"longitude":"-0.067153"},"context":"","outcome_status":null,"persistent_id":"554fd7ba6fc67d388c02a1be61837a2c819843957f1ed0852a705647e0b2e14e","id":65905034,"location_subtype":"","month":"2018-06"},{"category":"anti-social-behaviour","location_type":"Force","location":{"latitude":"51.252596","street":{"id":1149752,"name":"On or near Greenwell Close"},"longitude":"-0.068877"},"context":"","outcome_status":null,"persistent_id":"554fd7ba6fc67d388c02a1be61837a2c819843957f1ed0852a705647e0b2e14e","id":65903947,"location_subtype":"","month":"2018-06"},{"category":"anti-social-behaviour","location_type":"Force","location":{"latitude":"51.220312","street":{"id":1144678,"name":"On or near Hunters Chase"},"longitude":"-0.044051"},"context":"","outcome_status":null,"persistent_id":"554fd7ba6fc67d388c02a1be61837a2c819843957f1ed0852a705647e0b2e14e","id":65903910,"location_subtype":"","month":"2018-06"},{"category":"burglary","location_type":"Force","location":{"latitude":"51.236608","street":{"id":1145079,"name":"On or near Bone Mill Lane"},"longitude":"-0.048374"},"context":"","outcome_status":{"category":"Under investigation","date":"2018-06"},"persistent_id":"21d42129e68956754c080d2ef7388320aa0db34764526f2851ebb96c93bd5b42","id":65903720,"location_subtype":"","month":"2018-06"},{"category":"burglary","location_type":"Force","location":{"latitude":"51.217661","street":{"id":1148006,"name":"On or near Rushton Avenue"},"longitude":"-0.060874"},"context":"","outcome_status":{"category":"Investigation complete; no suspect identified","date":"2018-06"},"persistent_id":"cdbe4507aa8cca456401a175665fb3f70277a1aa55ad451881455e8b45172e00","id":65904095,"location_subtype":"","month":"2018-06"},{"category":"burglary","location_type":"Force","location":{"latitude":"51.244981","street":{"id":1149769,"name":"On or near Willow Way"},"longitude":"-0.070643"},"context":"","outcome_status":{"category":"Under investigation","date":"2018-06"},"persistent_id":"f0661bbdae202ab90f53c48841ebc417b36bd821d9d1128ab343471bc41e66ce","id":65903009,"location_subtype":"","month":"2018-06"},{"category":"burglary","location_type":"Force","location":{"latitude":"51.189958","street":{"id":1147168,"name":"On or near Brickhouse Lane"},"longitude":"-0.068263"},"context":"","outcome_status":{"category":"Investigation complete; no suspect identified","date":"2018-06"},"persistent_id":"0d594024fe435c9a0f5c07cb0e063836abccc058ccdfe4d1213c097b892a23d2","id":65903994,"location_subtype":"","month":"2018-06"},{"category":"burglary","location_type":"Force","location":{"latitude":"51.250684","street":{"id":1149763,"name":"On or near Oxted Road"},"longitude":"-0.058224"},"context":"","outcome_status":{"category":"Investigation complete; no suspect identified","date":"2018-06"},"persistent_id":"daadc95cd3e3c4d634ecc18f2496c133c1b2cab14755449fab347c339b02748e","id":65897281,"location_subtype":"","month":"2018-06"},{"category":"criminal-damage-arson","location_type":"Force","location":{"latitude":"51.251112","street":{"id":1149754,"name":"On or near Dumville Drive"},"longitude":"-0.068854"},"context":"","outcome_status":{"category":"Under investigation","date":"2018-06"},"persistent_id":"40bc8dee9891393352163244f8e15ff736e94e5bd8e408963541bfcf03226a7b","id":65898843,"location_subtype":"","month":"2018-06"},{"category":"criminal-damage-arson","location_type":"Force","location":{"latitude":"51.258646","street":{"id":1144769,"name":"On or near M25"},"longitude":"-0.060626"},"context":"","outcome_status":{"category":"Under investigation","date":"2018-06"},"persistent_id":"7afb878ee90c4227a09b7dc0e215f90cc5d8bd35afa31e2ab4d43ef3d08f4db1","id":65904031,"location_subtype":"","month":"2018-06"},{"category":"criminal-damage-arson","location_type":"Force","location":{"latitude":"51.215040","street":{"id":1147994,"name":"On or near Park\/open Space"},"longitude":"-0.050360"},"context":"","outcome_status":{"category":"Investigation complete; no suspect identified","date":"2018-06"},"persistent_id":"2011ee504643e26a711a0e37eae0a612d1b2f6273a520f3383ab51cdf4412fd5","id":65898733,"location_subtype":"","month":"2018-06"},{"category":"criminal-damage-arson","location_type":"Force","location":{"latitude":"51.246857","street":{"id":1149771,"name":"On or near The Green"},"longitude":"-0.066639"},"context":"","outcome_status":{"category":"Investigation complete; no suspect identified","date":"2018-06"},"persistent_id":"eed41473b321ac29fb17710b9b6f8255e1a9479fabf1b11df57bb39ad6e3bd35","id":65898374,"location_subtype":"","month":"2018-06"},{"category":"criminal-damage-arson","location_type":"Force","location":{"latitude":"51.220788","street":{"id":1147989,"name":"On or near Woodlands Drive"},"longitude":"-0.050446"},"context":"","outcome_status":{"category":"Investigation complete; no suspect identified","date":"2018-06"},"persistent_id":"730ed465756e1fa2737c15d3161461334c6dafca9ddfc1a18fbd92e6a6e2c192","id":65905228,"location_subtype":"","month":"2018-06"},{"category":"criminal-damage-arson","location_type":"Force","location":{"latitude":"51.251112","street":{"id":1149754,"name":"On or near Dumville Drive"},"longitude":"-0.068854"},"context":"","outcome_status":{"category":"Investigation complete; no suspect identified","date":"2018-06"},"persistent_id":"d392421aef188e7b4590cdeca6da8a4c7de6953e5a1eddc4015975327794863c","id":65903993,"location_subtype":"","month":"2018-06"},{"category":"criminal-damage-arson","location_type":"Force","location":{"latitude":"51.244662","street":{"id":1149775,"name":"On or near Hickmans Close"},"longitude":"-0.066602"},"context":"","outcome_status":{"category":"Under investigation","date":"2018-06"},"persistent_id":"7601ecb61008c8afd9c644a38951ea1916044853fc5898af3630cd4633cd0399","id":65903865,"location_subtype":"","month":"2018-06"},{"category":"criminal-damage-arson","location_type":"Force","location":{"latitude":"51.203102","street":{"id":1144736,"name":"On or near Carlton Road"},"longitude":"-0.063633"},"context":"","outcome_status":{"category":"Investigation complete; no suspect identified","date":"2018-06"},"persistent_id":"7eecc24e41c3822679b08107230f9bd8c4bde32a09b3038f0b0ad8d096091fa3","id":65903763,"location_subtype":"","month":"2018-06"},{"category":"criminal-damage-arson","location_type":"Force","location":{"latitude":"51.254124","street":{"id":1150914,"name":"On or near Lindley Road"},"longitude":"-0.065589"},"context":"","outcome_status":{"category":"Under investigation","date":"2018-06"},"persistent_id":"46e22cd8f0a79abc8ae65a73046d0c74f8c69d02892eb84ddc4d025db17d93f6","id":65903522,"location_subtype":"","month":"2018-06"},{"category":"drugs","location_type":"Force","location":{"latitude":"51.243802","street":{"id":1149766,"name":"On or near Love Lane"},"longitude":"-0.064045"},"context":"","outcome_status":{"category":"Under investigation","date":"2018-06"},"persistent_id":"ba2349bebeed42204c0f83f379975f03e9bfa491d33750d0c8893480666fb11f","id":65900724,"location_subtype":"","month":"2018-06"},{"category":"other-theft","location_type":"Force","location":{"latitude":"51.246567","street":{"id":1145071,"name":"On or near High Street"},"longitude":"-0.065935"},"context":"","outcome_status":{"category":"Investigation complete; no suspect identified","date":"2018-06"},"persistent_id":"66ad6b203577b9ae571259fc4718ca3032ad63bd19c9781b5461f853a76bbf0c","id":65899041,"location_subtype":"","month":"2018-06"},{"category":"other-theft","location_type":"Force","location":{"latitude":"51.236608","street":{"id":1145079,"name":"On or near Bone Mill Lane"},"longitude":"-0.048374"},"context":"","outcome_status":{"category":"Investigation complete; no suspect identified","date":"2018-06"},"persistent_id":"2a298ecd41b52909c1b8736ea9365bfd6e66bdf5cebb8ce5571b7a169869c3df","id":65898373,"location_subtype":"","month":"2018-06"},{"category":"other-theft","location_type":"Force","location":{"latitude":"51.219160","street":{"id":1148001,"name":"On or near Petrol Station"},"longitude":"-0.048840"},"context":"","outcome_status":{"category":"Under investigation","date":"2018-06"},"persistent_id":"8cc4392012ed82a33a69b4663a0710aa212f1ffb965555f459baeb995d367599","id":65904692,"location_subtype":"","month":"2018-06"},{"category":"other-theft","location_type":"Force","location":{"latitude":"51.219160","street":{"id":1148001,"name":"On or near Petrol Station"},"longitude":"-0.048840"},"context":"","outcome_status":{"category":"Investigation complete; no suspect identified","date":"2018-06"},"persistent_id":"ab9c74261b994336a2fa383f6043023c01b094454f9d3ff3b1525bc03d3b3729","id":65901669,"location_subtype":"","month":"2018-06"},{"category":"public-order","location_type":"Force","location":{"latitude":"51.245457","street":{"id":1149774,"name":"On or near Hillbrow Court"},"longitude":"-0.065709"},"context":"","outcome_status":{"category":"Under investigation","date":"2018-06"},"persistent_id":"431b443d327ff506d0f99d2613c3aed8e3a78fe4f7e303572c0a5dd74b1c4c30","id":65903721,"location_subtype":"","month":"2018-06"},{"category":"public-order","location_type":"Force","location":{"latitude":"51.258646","street":{"id":1144769,"name":"On or near M25"},"longitude":"-0.060626"},"context":"","outcome_status":{"category":"Under investigation","date":"2018-06"},"persistent_id":"bc30ef6ca8021ab8db99ecc68e62558c2f06900dcb729313094b3b5f0ee7e087","id":65905557,"location_subtype":"","month":"2018-06"},{"category":"public-order","location_type":"Force","location":{"latitude":"51.193995","street":{"id":1147163,"name":"On or near Cottenhams"},"longitude":"-0.050289"},"context":"","outcome_status":{"category":"Awaiting court outcome","date":"2018-06"},"persistent_id":"f1cb946bdf19a8bd5a08a66c6b2b5d4afe22a6bdbaeaa03d0e1ca2b0fbd2d9fe","id":65903213,"location_subtype":"","month":"2018-06"},{"category":"public-order","location_type":"Force","location":{"latitude":"51.248251","street":{"id":1149760,"name":"On or near Bletchingley Road"},"longitude":"-0.068286"},"context":"","outcome_status":{"category":"Investigation complete; no suspect identified","date":"2018-06"},"persistent_id":"b1a6d8544b0242c47479ddf851d68f048e6b04ca847519625f17764dcfb26008","id":65898609,"location_subtype":"","month":"2018-06"},{"category":"shoplifting","location_type":"Force","location":{"latitude":"51.254154","street":{"id":1150918,"name":"On or near Petrol Station"},"longitude":"-0.066863"},"context":"","outcome_status":{"category":"Investigation complete; no suspect identified","date":"2018-06"},"persistent_id":"0fdcba039f642b2fc57b8455c6b56d043affc5ad91513c354dcef91bb5ccb88a","id":65901628,"location_subtype":"","month":"2018-06"},{"category":"vehicle-crime","location_type":"Force","location":{"latitude":"51.250948","street":{"id":1149748,"name":"On or near Salisbury Road"},"longitude":"-0.065478"},"context":"","outcome_status":{"category":"Investigation complete; no suspect identified","date":"2018-06"},"persistent_id":"073e1b19debe615ac3d45074fa184e0ea4286c8abfc9684c0eedd703b807b4b3","id":65897857,"location_subtype":"","month":"2018-06"},{"category":"vehicle-crime","location_type":"Force","location":{"latitude":"51.243802","street":{"id":1149766,"name":"On or near Love Lane"},"longitude":"-0.064045"},"context":"","outcome_status":{"category":"Awaiting court outcome","date":"2018-06"},"persistent_id":"9653e93173c2a3db6d252325ddde92e32c0e2917aee5a48a770c2876273aa2cd","id":65900723,"location_subtype":"","month":"2018-06"},{"category":"vehicle-crime","location_type":"Force","location":{"latitude":"51.255991","street":{"id":1150917,"name":"On or near Bakers Mead"},"longitude":"-0.065926"},"context":"","outcome_status":{"category":"Investigation complete; no suspect identified","date":"2018-06"},"persistent_id":"f773919f80b747c2031c62b27682a111ffe02b57696aa00861df02a2047496dc","id":65900485,"location_subtype":"","month":"2018-06"},{"category":"violent-crime","location_type":"Force","location":{"latitude":"51.245457","street":{"id":1149774,"name":"On or near Hillbrow Court"},"longitude":"-0.065709"},"context":"","outcome_status":{"category":"Under investigation","date":"2018-06"},"persistent_id":"b7968c475f8846318e51a648ecde3d6546f5b03bf692f1183e0378626bafe871","id":65903762,"location_subtype":"","month":"2018-06"},{"category":"violent-crime","location_type":"Force","location":{"latitude":"51.203102","street":{"id":1144736,"name":"On or near Carlton Road"},"longitude":"-0.063633"},"context":"","outcome_status":{"category":"Under investigation","date":"2018-06"},"persistent_id":"f1747b820e6d432dbee44dfab10d1365fd4256c51ecdd7860d54aa2c5a1c997b","id":65903995,"location_subtype":"","month":"2018-06"},{"category":"violent-crime","location_type":"Force","location":{"latitude":"51.191846","street":{"id":1147161,"name":"On or near Petrol Station"},"longitude":"-0.049765"},"context":"","outcome_status":{"category":"Investigation complete; no suspect identified","date":"2018-06"},"persistent_id":"baf7fa077113f6fa103357c9f0979b87bd4cfe2caad269758a9c6d9c44b10bc1","id":65899870,"location_subtype":"","month":"2018-06"},{"category":"violent-crime","location_type":"Force","location":{"latitude":"51.203587","street":{"id":1147981,"name":"On or near Park\/open Space"},"longitude":"-0.058202"},"context":"","outcome_status":{"category":"Under investigation","date":"2018-06"},"persistent_id":"e76a85f0c7f38bb9f3ac7496a4856e31cf2814bb39611c2152bd489b1b6393e9","id":65902670,"location_subtype":"","month":"2018-06"},{"category":"violent-crime","location_type":"Force","location":{"latitude":"51.227254","street":{"id":1149657,"name":"On or near Miles Lane"},"longitude":"-0.045089"},"context":"","outcome_status":{"category":"Under investigation","date":"2018-06"},"persistent_id":"e1ac535e357c4bd178fda4a974b45783ed587e05b6154699ca41609dfa4cfb75","id":65902841,"location_subtype":"","month":"2018-06"},{"category":"violent-crime","location_type":"Force","location":{"latitude":"51.197258","street":{"id":1147167,"name":"On or near Featherstone"},"longitude":"-0.055605"},"context":"","outcome_status":{"category":"Further investigation is not in the public interest","date":"2018-06"},"persistent_id":"e23888186698fe5acf70dfc8b7efee5ada3cdf807d0ae031c0c37794717e0a34","id":65897282,"location_subtype":"","month":"2018-06"},{"category":"violent-crime","location_type":"Force","location":{"latitude":"51.246857","street":{"id":1149771,"name":"On or near The Green"},"longitude":"-0.066639"},"context":"","outcome_status":{"category":"Unable to prosecute suspect","date":"2018-06"},"persistent_id":"0806439787b74492fbf765acaf29d8ea1fc29d1a2c045ea09c47cd0bd7df0c63","id":65897740,"location_subtype":"","month":"2018-06"},{"category":"violent-crime","location_type":"Force","location":{"latitude":"51.250948","street":{"id":1149748,"name":"On or near Salisbury Road"},"longitude":"-0.065478"},"context":"","outcome_status":{"category":"Action to be taken by another organisation","date":"2018-06"},"persistent_id":"751f68cb9d25b9414cdffc60be50b76159a24f16e4b7a7c4e60cae729485f3d5","id":65897923,"location_subtype":"","month":"2018-06"},{"category":"violent-crime","location_type":"Force","location":{"latitude":"51.220134","street":{"id":1147999,"name":"On or near Harcourt Way"},"longitude":"-0.047896"},"context":"","outcome_status":{"category":"Under investigation","date":"2018-06"},"persistent_id":"9af63e04660ae54fbe8588d9e159a2e0e12366b4fefe18451d28af3d68d25c3d","id":65902899,"location_subtype":"","month":"2018-06"},{"category":"violent-crime","location_type":"Force","location":{"latitude":"51.261537","street":{"id":1150912,"name":"On or near Farm Lane"},"longitude":"-0.066811"},"context":"","outcome_status":{"category":"Action to be taken by another organisation","date":"2018-06"},"persistent_id":"9d3286e8c3d514feb2a0923b8c79825f41cd5e18dd97519a6189dd365956785f","id":65898545,"location_subtype":"","month":"2018-06"},{"category":"violent-crime","location_type":"Force","location":{"latitude":"51.246857","street":{"id":1149771,"name":"On or near The Green"},"longitude":"-0.066639"},"context":"","outcome_status":{"category":"Under investigation","date":"2018-06"},"persistent_id":"81214b8cb505efe9353f6521c54b3f01d95117eb6b76367a9bcf0a56077b1f50","id":65905586,"location_subtype":"","month":"2018-06"},{"category":"violent-crime","location_type":"Force","location":{"latitude":"51.243802","street":{"id":1149766,"name":"On or near Love Lane"},"longitude":"-0.064045"},"context":"","outcome_status":{"category":"Awaiting court outcome","date":"2018-06"},"persistent_id":"6b910c803ec37c12ccf3bebd0e1b24c1293a8a6c47b96093936c4cb1c7241a13","id":65900721,"location_subtype":"","month":"2018-06"},{"category":"violent-crime","location_type":"Force","location":{"latitude":"51.193995","street":{"id":1147163,"name":"On or near Cottenhams"},"longitude":"-0.050289"},"context":"","outcome_status":{"category":"Unable to prosecute suspect","date":"2018-06"},"persistent_id":"c5f0af2cd4d96408dcd80fc609b8737ab3177f5575e5ff70370df733bf3ee164","id":65901110,"location_subtype":"","month":"2018-06"},{"category":"violent-crime","location_type":"Force","location":{"latitude":"51.245457","street":{"id":1149774,"name":"On or near Hillbrow Court"},"longitude":"-0.065709"},"context":"","outcome_status":{"category":"Under investigation","date":"2018-06"},"persistent_id":"2e3fee8acece70c43c4113a4f17a8708d7a6fa04edeabe551135d9f1116172a3","id":65903761,"location_subtype":"","month":"2018-06"},{"category":"violent-crime","location_type":"Force","location":{"latitude":"51.254154","street":{"id":1150918,"name":"On or near Petrol Station"},"longitude":"-0.066863"},"context":"","outcome_status":{"category":"Investigation complete; no suspect identified","date":"2018-06"},"persistent_id":"ffaa83320ae61f8471f33277f8aa160eddd1a9e9aba0dfb7a52d63aa9ab8ca45","id":65904286,"location_subtype":"","month":"2018-06"},{"category":"other-crime","location_type":"Force","location":{"latitude":"51.256421","street":{"id":1150916,"name":"On or near Fosterdown"},"longitude":"-0.066883"},"context":"","outcome_status":{"category":"Investigation complete; no suspect identified","date":"2018-06"},"persistent_id":"601c2ae8ac4c1af8b08818ff8ede98c4be11bb5ecabc5a11a7dd924ef766bf12","id":65898375,"location_subtype":"","month":"2018-06"},{"category":"other-crime","location_type":"Force","location":{"latitude":"51.243802","street":{"id":1149766,"name":"On or near Love Lane"},"longitude":"-0.064045"},"context":"","outcome_status":{"category":"Awaiting court outcome","date":"2018-06"},"persistent_id":"4096fe091776f8f757f3ab05b4ba9d4a46a35d6bbffee41e3f33269b4a6f5e4e","id":65900722,"location_subtype":"","month":"2018-06"}]