[{"category":"anti-social-behaviour","location_type":"Force","location":{"latitude":"51.225300","street":{"id":1148320,"name":"On or near School Lane"},"longitude":"-0.361138"},"context":"","outcome_status":null,"persistent_id":"554fd7ba6fc67d388c02a1be61837a2c819843957f1ed0852a705647e0b2e14e","id":65902512,"location_subtype":"","month":"2018-06"},{"category":"anti-social-behaviour","location_type":"Force","location":{"latitude":"51.228216","street":{"id":1148304,"name":"On or near Springfield Road"},"longitude":"-0.367766"},"context":"","outcome_status":null,"persistent_id":"554fd7ba6fc67d388c02a1be61837a2c819843957f1ed0852a705647e0b2e14e","id":65898045,"location_subtype":"","month":"2018-06"},{"category":"anti-social-behaviour","location_type":"Force","location":{"latitude":"51.227658","street":{"id":1148300,"name":"On or near Watson Road"},"longitude":"-0.363231"},"context":"","outcome_status":null,"persistent_id":"554fd7ba6fc67d388c02a1be61837a2c819843957f1ed0852a705647e0b2e14e","id":65903198,"location_subtype":"","month":"2018-06"},{"category":"criminal-damage-arson","location_type":"Force","location":{"latitude":"51.223859","street":{"id":1148324,"name":"On or near Heath Rise"},"longitude":"-0.368077"},"context":"","outcome_status":{"category":"Investigation complete; no suspect identified","date":"2018-06"},"persistent_id":"d1fec754ef82803695a2ff9add8e41e0f56ebb65c26b87ee4206fafe73ee82e7","id":65903513,"location_subtype":"","month":"2018-06"},{"category":"other-theft","location_type":"Force","location":{"latitude":"51.227830","street":{"id":1148302,"name":"On or near The Burrell"},"longitude":"-0.365875"},"context":"","outcome_status":{"category":"Under investigation","date":"2018-06"},"persistent_id":"0aeffd86b460dd4df624b4425038e9761502786b1868b2df98041f6d2604ad4e","id":65899961,"location_subtype":"","month":"2018-06"},{"category":"vehicle-crime","location_type":"Force","location":{"latitude":"51.212190","street":{"id":1144743,"name":"On or near Logmore Lane"},"longitude":"-0.361260"},"context":"","outcome_status":{"category":"Investigation complete; no suspect identified","date":"2018-06"},"persistent_id":"1d746ff99fd4aaab91b61645db9b4c9303f324c894cdd7bab3b4a206b61b5160","id":65900532,"location_subtype":"","month":"2018-06"},{"category":"violent-crime","location_type":"Force","location":{"latitude":"51.226578","street":{"id":1148308,"name":"On or near Cradhurst Close"},"longitude":"-0.368311"},"context":"","outcome_status":{"category":"Under investigation","date":"2018-06"},"persistent_id":"02b972f8ae576b390a5f3f1531e4ff86a537058de0253ce6ae86a91320e49d7e","id":65901261,"location_subtype":"","month":"2018-06"},{"category":"violent-crime","location_type":"Force","location":{"latitude":"51.227658","street":{"id":1148300,"name":"On or near Watson Road"},"longitude":"-0.363231"},"context":"","outcome_status":{"category":"Under investigation","date":"2018-06"},"persistent_id":"6374d15fe09dae4803de2c6ae4bc35e7bf2d42d8101ae77de829285909d6e9c5","id":65903413,"location_subtype":"","month":"2018-06"},{"category":"violent-crime","location_type":"Force","location":{"latitude":"51.227658","street":{"id":1148300,"name":"On or near Watson Road"},"longitude":"-0.363231"},"context":"","outcome_status":{"category":"Under investigation","date":"2018-06"},"persistent_id":"bf611b5d2a89d7dabefae85ffa25d5bc1178a4a411c14c3dc3aaf1599c679ae9","id":65901905,"location_subtype":"","month":"2018-06"},{"category":"violent-crime","location_type":"Force","location":{"latitude":"51.228216","street":{"id":1148304,"name":"On or near Springfield Road"},"longitude":"-0.367766"},"context":"","outcome_status":{"category":"Under investigation","date":"2018-06"},"persistent_id":"dfe763cb7bef3ae95e6b90bd0e6dbea86e27c114ad34a844485c427a88745f7b","id":65905490,"location_subtype":"","month":"2018-06"},{"category":"violent-crime","location_type":"Force","location":{"latitude":"51.228216","street":{"id":1148304,"name":"On or near Springfield Road"},"longitude":"-0.367766"},"context":"","outcome_status":{"category":"Under investigation","date":"2018-06"},"persistent_id":"f101edf3de2ff6d669c1d297b56568c7a8e929619a51ff237f2c092b2507586c","id":65900814,"location_subtype":"","month":"2018-06"}]