[{"category":"anti-social-behaviour","location_type":"Force","location":{"latitude":"51.576258","street":{"id":1197063,"name":"On or near Coombe Vale"},"longitude":"-0.556402"},"context":"","outcome_status":null,"persistent_id":"8c24617d7c9882bc04bb14317997387c51ca17f9e7b12a6a63e996ee7ee40af7","id":66224643,"location_subtype":"","month":"2018-06"},{"category":"anti-social-behaviour","location_type":"Force","location":{"latitude":"51.576992","street":{"id":1197068,"name":"On or near Gaviots Green"},"longitude":"-0.551082"},"context":"","outcome_status":null,"persistent_id":"dd32d120423d8a0f127a0846807f7f2cf6e79eb85057a32d29b5064826a5deb1","id":66225467,"location_subtype":"","month":"2018-06"},{"category":"anti-social-behaviour","location_type":"Force","location":{"latitude":"51.576992","street":{"id":1197068,"name":"On or near Gaviots Green"},"longitude":"-0.551082"},"context":"","outcome_status":null,"persistent_id":"5b188fefe0ebcec900d8fb556e04e3bf208fb37a9c08a34ab836535e8ebdfa62","id":66225474,"location_subtype":"","month":"2018-06"},{"category":"bicycle-theft","location_type":"BTP","location":{"latitude":"51.588900","street":{"id":1486784,"name":"Gerrards Cross (station)"},"longitude":"-0.555176"},"context":"","outcome_status":{"category":"Under investigation","date":"2018-06"},"persistent_id":"","id":66356342,"location_subtype":"STATION","month":"2018-06"},{"category":"burglary","location_type":"Force","location":{"latitude":"51.577034","street":{"id":1197058,"name":"On or near Meadway Park"},"longitude":"-0.561774"},"context":"","outcome_status":{"category":"Under investigation","date":"2018-06"},"persistent_id":"7e6d981af8aa334d8343512edd07139502cf0a7fdb6aef12b34d5030975af8aa","id":66236037,"location_subtype":"","month":"2018-06"},{"category":"burglary","location_type":"Force","location":{"latitude":"51.572631","street":{"id":1197073,"name":"On or near High Beeches"},"longitude":"-0.561336"},"context":"","outcome_status":{"category":"Under investigation","date":"2018-06"},"persistent_id":"05fa81b82f4f3bb626f2b4be5be2acc388e122fb424e4cfdb0e1e8b8c903c542","id":66226740,"location_subtype":"","month":"2018-06"},{"category":"criminal-damage-arson","location_type":"Force","location":{"latitude":"51.579308","street":{"id":1198019,"name":"On or near Denmead Close"},"longitude":"-0.555872"},"context":"","outcome_status":{"category":"Investigation complete; no suspect identified","date":"2018-06"},"persistent_id":"5083fe7553487ea4e788fcef5996d2b0c57a01822120a731120b08ce4767fba0","id":66232848,"location_subtype":"","month":"2018-06"},{"category":"criminal-damage-arson","location_type":"Force","location":{"latitude":"51.576449","street":{"id":1197062,"name":"On or near Dukes Close"},"longitude":"-0.558820"},"context":"","outcome_status":{"category":"Investigation complete; no suspect identified","date":"2018-06"},"persistent_id":"409a4624adea236407578acbfda59d44cfdb99c2cd0d20fe65e868459fa7bf73","id":66227026,"location_subtype":"","month":"2018-06"},{"category":"other-theft","location_type":"Force","location":{"latitude":"51.592844","street":{"id":1184540,"name":"On or near Oxford Road"},"longitude":"-0.590841"},"context":"","outcome_status":{"category":"Investigation complete; no suspect identified","date":"2018-06"},"persistent_id":"6a9d65f91f89ae759f35826a4d0fe5ed7fd39a6c6dee9c7424cbe8b8c7b741bc","id":66227714,"location_subtype":"","month":"2018-06"},{"category":"other-theft","location_type":"Force","location":{"latitude":"51.588063","street":{"id":1198006,"name":"On or near Petrol Station"},"longitude":"-0.563620"},"context":"","outcome_status":{"category":"Under investigation","date":"2018-06"},"persistent_id":"d368c87600bd249edad5b4a9a9821e126f9df199da09c600d3cb7ca8bf1f1ba6","id":66235006,"location_subtype":"","month":"2018-06"},{"category":"other-theft","location_type":"Force","location":{"latitude":"51.588063","street":{"id":1198006,"name":"On or near Petrol Station"},"longitude":"-0.563620"},"context":"","outcome_status":{"category":"Unable to prosecute suspect","date":"2018-06"},"persistent_id":"0ce67ad056de8967ef3126a1279a915cc5ae4ac6cc31d3a0bbff3b861d5df7ec","id":66229187,"location_subtype":"","month":"2018-06"},{"category":"other-theft","location_type":"Force","location":{"latitude":"51.588063","street":{"id":1198006,"name":"On or near Petrol Station"},"longitude":"-0.563620"},"context":"","outcome_status":{"category":"Unable to prosecute suspect","date":"2018-06"},"persistent_id":"e5a4a112bf127e1f2a129b47ece01a2a20972ccceedb8fc04850ca022238b14f","id":66227723,"location_subtype":"","month":"2018-06"},{"category":"public-order","location_type":"BTP","location":{"latitude":"51.588900","street":{"id":1486784,"name":"Gerrards Cross (station)"},"longitude":"-0.555176"},"context":"","outcome_status":{"category":"Under investigation","date":"2018-06"},"persistent_id":"","id":66356341,"location_subtype":"STATION","month":"2018-06"},{"category":"public-order","location_type":"Force","location":{"latitude":"51.583010","street":{"id":1198023,"name":"On or near Mill Lane"},"longitude":"-0.546893"},"context":"","outcome_status":{"category":"Investigation complete; no suspect identified","date":"2018-06"},"persistent_id":"13fd82f03fea632a4e79fe4575ef0e3d13884c638591910a28e7340fa33040c0","id":66230273,"location_subtype":"","month":"2018-06"},{"category":"shoplifting","location_type":"Force","location":{"latitude":"51.587895","street":{"id":1197997,"name":"On or near Packhorse Road"},"longitude":"-0.553651"},"context":"","outcome_status":{"category":"Under investigation","date":"2018-06"},"persistent_id":"2e7d8d46ffd1966915dd028e7823a2bf00482473f21b8d637ddb7e7c7cf24b69","id":66232079,"location_subtype":"","month":"2018-06"},{"category":"shoplifting","location_type":"Force","location":{"latitude":"51.587988","street":{"id":1197974,"name":"On or near Station Road"},"longitude":"-0.550963"},"context":"","outcome_status":{"category":"Under investigation","date":"2018-06"},"persistent_id":"7669b4716962eefe95da338e476ddf0b507a55c47a840e04d478cc46e0ed8290","id":66237082,"location_subtype":"","month":"2018-06"},{"category":"shoplifting","location_type":"Force","location":{"latitude":"51.589437","street":{"id":1198002,"name":"On or near Ethorpe Crescent"},"longitude":"-0.552563"},"context":"","outcome_status":{"category":"Investigation complete; no suspect identified","date":"2018-06"},"persistent_id":"2c24c9432d5d1e202e56f7680c67180181a753b6732e2fbd7f59766eb0fede06","id":66235513,"location_subtype":"","month":"2018-06"},{"category":"theft-from-the-person","location_type":"BTP","location":{"latitude":"51.588900","street":{"id":1486784,"name":"Gerrards Cross (station)"},"longitude":"-0.555176"},"context":"","outcome_status":{"category":"Under investigation","date":"2018-06"},"persistent_id":"","id":66356343,"location_subtype":"STATION","month":"2018-06"},{"category":"vehicle-crime","location_type":"Force","location":{"latitude":"51.579097","street":{"id":1198014,"name":"On or near Pinewood Close"},"longitude":"-0.554060"},"context":"","outcome_status":{"category":"Under investigation","date":"2018-06"},"persistent_id":"00836966323b43aa9ce9522c8c15435454d6fc06c5218bacec34485110a1b606","id":66234041,"location_subtype":"","month":"2018-06"},{"category":"vehicle-crime","location_type":"Force","location":{"latitude":"51.584631","street":{"id":1197980,"name":"On or near Marsham Lodge"},"longitude":"-0.551474"},"context":"","outcome_status":{"category":"Under investigation","date":"2018-06"},"persistent_id":"db85222a495eaa307e6159c3bd6d9acacd579d8dbfd1f1ac3274e17580fbb6cf","id":66236587,"location_subtype":"","month":"2018-06"},{"category":"vehicle-crime","location_type":"Force","location":{"latitude":"51.576059","street":{"id":1197057,"name":"On or near Stoneyfield"},"longitude":"-0.568126"},"context":"","outcome_status":{"category":"Investigation complete; no suspect identified","date":"2018-06"},"persistent_id":"f5a7af6ed9dd523f3fb0bcd54e6ba519aa2a21e56fa0a1a0cb22a103b1f29476","id":66234040,"location_subtype":"","month":"2018-06"},{"category":"vehicle-crime","location_type":"Force","location":{"latitude":"51.589334","street":{"id":1198003,"name":"On or near Ethorpe Close"},"longitude":"-0.553634"},"context":"","outcome_status":{"category":"Investigation complete; no suspect identified","date":"2018-06"},"persistent_id":"5c5a598fe6a3c076c17ca6abf536fa5b1af958e5e233c4ae2c2c3ebbcdb4cad3","id":66231162,"location_subtype":"","month":"2018-06"},{"category":"violent-crime","location_type":"Force","location":{"latitude":"51.571863","street":{"id":1197050,"name":"On or near The Uplands"},"longitude":"-0.555170"},"context":"","outcome_status":{"category":"Under investigation","date":"2018-06"},"persistent_id":"966373dce9d16c3fe6f32d9f5ccd417ed4b90d3bf14e21172c0c576d6a301e6d","id":66235749,"location_subtype":"","month":"2018-06"},{"category":"violent-crime","location_type":"Force","location":{"latitude":"51.579240","street":{"id":1198017,"name":"On or near Manor Lane"},"longitude":"-0.559843"},"context":"","outcome_status":{"category":"Under investigation","date":"2018-06"},"persistent_id":"17be09d1bc6c2efde50221ea012a06d7b0ff8dedffc041332878693da3545ea4","id":66235748,"location_subtype":"","month":"2018-06"},{"category":"violent-crime","location_type":"Force","location":{"latitude":"51.587895","street":{"id":1197997,"name":"On or near Packhorse Road"},"longitude":"-0.553651"},"context":"","outcome_status":{"category":"Awaiting court outcome","date":"2018-06"},"persistent_id":"81f731bb3359559280adbc2b1865fb42b461432be94b8d5b885bee2b63ef72c0","id":66226949,"location_subtype":"","month":"2018-06"},{"category":"violent-crime","location_type":"Force","location":{"latitude":"51.588063","street":{"id":1198006,"name":"On or near Petrol Station"},"longitude":"-0.563620"},"context":"","outcome_status":{"category":"Under investigation","date":"2018-06"},"persistent_id":"2524ce16ba05867aa22587854c24770019106c53189f5bd28dd45b6e8b6902ee","id":66234237,"location_subtype":"","month":"2018-06"},{"category":"violent-crime","location_type":"Force","location":{"latitude":"51.570510","street":{"id":1184590,"name":"On or near Fulmer Drive"},"longitude":"-0.559167"},"context":"","outcome_status":{"category":"Under investigation","date":"2018-06"},"persistent_id":"2c781634d02682eb82de101c07c0d21777bb39d7969253c2daaf29fa90be0884","id":66226947,"location_subtype":"","month":"2018-06"},{"category":"violent-crime","location_type":"Force","location":{"latitude":"51.589437","street":{"id":1198002,"name":"On or near Ethorpe Crescent"},"longitude":"-0.552563"},"context":"","outcome_status":{"category":"Investigation complete; no suspect identified","date":"2018-06"},"persistent_id":"258904ae75bb995487803d6863c39f55446f944b3c0469bec5b17f10a918fe8c","id":66233329,"location_subtype":"","month":"2018-06"},{"category":"violent-crime","location_type":"Force","location":{"latitude":"51.590019","street":{"id":1198024,"name":"On or near Lower Road"},"longitude":"-0.545788"},"context":"","outcome_status":{"category":"Under investigation","date":"2018-06"},"persistent_id":"cb6a9d5f4e8d74a8db63279ab3bcb97cad57146b0338f4c83b857dab34ad6179","id":66239860,"location_subtype":"","month":"2018-06"},{"category":"violent-crime","location_type":"Force","location":{"latitude":"51.576059","street":{"id":1197057,"name":"On or near Stoneyfield"},"longitude":"-0.568126"},"context":"","outcome_status":{"category":"Under investigation","date":"2018-06"},"persistent_id":"44ca69421910c9eab70b41f8531cd45899a036c70f2f598a85af7cbbbf295dab","id":66227920,"location_subtype":"","month":"2018-06"},{"category":"violent-crime","location_type":"Force","location":{"latitude":"51.571792","street":{"id":1197066,"name":"On or near St Huberts Close"},"longitude":"-0.551579"},"context":"","outcome_status":{"category":"Under investigation","date":"2018-06"},"persistent_id":"90cdc4c581ca847dc73f07dc09a1e141e76a96f33cf5dac258ead9d361da2294","id":66231354,"location_subtype":"","month":"2018-06"},{"category":"violent-crime","location_type":"Force","location":{"latitude":"51.592844","street":{"id":1184540,"name":"On or near Oxford Road"},"longitude":"-0.590841"},"context":"","outcome_status":{"category":"Investigation complete; no suspect identified","date":"2018-06"},"persistent_id":"693fd69a7afbb6e2ce80bf6640cbe9d0d98c48a2e503b0619e2fee17f2cd60ff","id":66235742,"location_subtype":"","month":"2018-06"}]