[{"category":"anti-social-behaviour","location_type":"Force","location":{"latitude":"54.645865","street":{"id":1367461,"name":"On or near Parkmount"},"longitude":"-6.750104"},"context":"","outcome_status":null,"persistent_id":"603e20e4a3e4d03b40301c7d3b4da1ff44f6f2b7f87c97c4646f4e2eef8629ed","id":65821918,"location_subtype":"","month":"2018-06"},{"category":"anti-social-behaviour","location_type":"Force","location":{"latitude":"54.651938","street":{"id":1367378,"name":"On or near Morgans Hill Road"},"longitude":"-6.750940"},"context":"","outcome_status":null,"persistent_id":"21373b2e6fca66be2a9f333e1873e6c49a1e72eb952906d7ce39235d3b76240e","id":65822039,"location_subtype":"","month":"2018-06"},{"category":"anti-social-behaviour","location_type":"Force","location":{"latitude":"54.645865","street":{"id":1367461,"name":"On or near Parkmount"},"longitude":"-6.750104"},"context":"","outcome_status":null,"persistent_id":"9bef321e16d1fa1c15a2148582a376247bea61e9debfeda0a6fa56c6047150b2","id":65823814,"location_subtype":"","month":"2018-06"},{"category":"anti-social-behaviour","location_type":"Force","location":{"latitude":"54.645884","street":{"id":1367515,"name":"On or near Central Avenue"},"longitude":"-6.744976"},"context":"","outcome_status":null,"persistent_id":"4802cee631b8b37e7779c6243f9e5a78ee2cee32a236293215f81e1f8b8e1cf8","id":65823337,"location_subtype":"","month":"2018-06"},{"category":"anti-social-behaviour","location_type":"Force","location":{"latitude":"54.648745","street":{"id":1367440,"name":"On or near Millburn Avenue"},"longitude":"-6.753269"},"context":"","outcome_status":null,"persistent_id":"e82481de34eb138287ca88b987645e6a4ae1ef3a7748f114b4020f58b0093a81","id":65823363,"location_subtype":"","month":"2018-06"},{"category":"anti-social-behaviour","location_type":"Force","location":{"latitude":"54.648323","street":{"id":1367393,"name":"On or near Oritor Street"},"longitude":"-6.748077"},"context":"","outcome_status":null,"persistent_id":"6334856ba7ea303d93dac93b698b28b9634c10b99de849c58f955b8a5d5224f7","id":65824273,"location_subtype":"","month":"2018-06"},{"category":"anti-social-behaviour","location_type":"Force","location":{"latitude":"54.652407","street":{"id":1367359,"name":"On or near Princess Avenue"},"longitude":"-6.752072"},"context":"","outcome_status":null,"persistent_id":"7eba7bc81cb65103301ab2c9795d099edf0a81f8fb4abe35d13e3d2ac8374b11","id":65824981,"location_subtype":"","month":"2018-06"},{"category":"anti-social-behaviour","location_type":"Force","location":{"latitude":"54.646937","street":{"id":1367472,"name":"On or near Brewery Lane"},"longitude":"-6.745160"},"context":"","outcome_status":null,"persistent_id":"9e470be2bdc8b5d3a57f0ef9687f1fb7925a75ca41b81aa9a5325ac2b2a5d78c","id":65824262,"location_subtype":"","month":"2018-06"},{"category":"anti-social-behaviour","location_type":"Force","location":{"latitude":"54.645884","street":{"id":1367515,"name":"On or near Central Avenue"},"longitude":"-6.744976"},"context":"","outcome_status":null,"persistent_id":"bd24adc651b92f4ce5978c8cad19cfc8a5a3655f12e5448504eef9b9e7e83911","id":65824047,"location_subtype":"","month":"2018-06"},{"category":"anti-social-behaviour","location_type":"Force","location":{"latitude":"54.645865","street":{"id":1367461,"name":"On or near Parkmount"},"longitude":"-6.750104"},"context":"","outcome_status":null,"persistent_id":"36c9aff7aa5bb1db8cf7ec5d629a6085cfc1a5e52cc1ec67b912b3883fe6b1cc","id":65823142,"location_subtype":"","month":"2018-06"},{"category":"anti-social-behaviour","location_type":"Force","location":{"latitude":"54.648189","street":{"id":1367395,"name":"On or near Burn Road"},"longitude":"-6.752450"},"context":"","outcome_status":null,"persistent_id":"ba5b5104488634200e9845b065980e3bafddd3b4d21a4f9a5dcea9ad179261a5","id":65821964,"location_subtype":"","month":"2018-06"},{"category":"anti-social-behaviour","location_type":"Force","location":{"latitude":"54.652407","street":{"id":1367359,"name":"On or near Princess Avenue"},"longitude":"-6.752072"},"context":"","outcome_status":null,"persistent_id":"a0501f9507c8aee0405efe46236f12bd1667520464f8a01f32906f7f92f575e6","id":65827360,"location_subtype":"","month":"2018-06"},{"category":"anti-social-behaviour","location_type":"Force","location":{"latitude":"54.651938","street":{"id":1367378,"name":"On or near Morgans Hill Road"},"longitude":"-6.750940"},"context":"","outcome_status":null,"persistent_id":"44c8019149396af89c88e1be674587442d3fc015c2d7a10e1b02faa1fcdda01a","id":65827279,"location_subtype":"","month":"2018-06"},{"category":"anti-social-behaviour","location_type":"Force","location":{"latitude":"54.645884","street":{"id":1367515,"name":"On or near Central Avenue"},"longitude":"-6.744976"},"context":"","outcome_status":null,"persistent_id":"f3007428420fb9d14f452735c5f134238e5d8f559611ce85949f8aeb47f7f3b5","id":65826632,"location_subtype":"","month":"2018-06"},{"category":"anti-social-behaviour","location_type":"Force","location":{"latitude":"54.649129","street":{"id":1367391,"name":"On or near Burnbank"},"longitude":"-6.749508"},"context":"","outcome_status":null,"persistent_id":"4bf19cbef2d085817f8be30281e59d23d4ccf887c71f7fd6f1bc0817377ecb30","id":65826840,"location_subtype":"","month":"2018-06"},{"category":"anti-social-behaviour","location_type":"Force","location":{"latitude":"54.652407","street":{"id":1367359,"name":"On or near Princess Avenue"},"longitude":"-6.752072"},"context":"","outcome_status":null,"persistent_id":"3580ba8dc73a555e51df6276ae173a1d0edb915538b1c6ec741715945e65ae76","id":65826696,"location_subtype":"","month":"2018-06"},{"category":"anti-social-behaviour","location_type":"Force","location":{"latitude":"54.645865","street":{"id":1367461,"name":"On or near Parkmount"},"longitude":"-6.750104"},"context":"","outcome_status":null,"persistent_id":"a21681aa15a4ea96daaec859908cdf343645599f5054779d45c712c2a43fef4f","id":65826517,"location_subtype":"","month":"2018-06"},{"category":"anti-social-behaviour","location_type":"Force","location":{"latitude":"54.652407","street":{"id":1367359,"name":"On or near Princess Avenue"},"longitude":"-6.752072"},"context":"","outcome_status":null,"persistent_id":"31331dd0d6e7d6be3f0314ebf1b79d0364136db21d86b20081c12b9354fdf406","id":65826326,"location_subtype":"","month":"2018-06"},{"category":"anti-social-behaviour","location_type":"Force","location":{"latitude":"54.648088","street":{"id":1367406,"name":"On or near Morgans Hill Road"},"longitude":"-6.755721"},"context":"","outcome_status":null,"persistent_id":"f7ce15e461919604999fef3cb7d811cbfd45a65c8d1285f3de13c3461c327d61","id":65825812,"location_subtype":"","month":"2018-06"},{"category":"anti-social-behaviour","location_type":"Force","location":{"latitude":"54.644187","street":{"id":1367446,"name":"On or near "},"longitude":"-6.759930"},"context":"","outcome_status":null,"persistent_id":"247046198a2229115aead0634972e48619f95064097b510b240cd40f0d39851a","id":65825399,"location_subtype":"","month":"2018-06"},{"category":"anti-social-behaviour","location_type":"Force","location":{"latitude":"54.645512","street":{"id":1367456,"name":"On or near Parkmount"},"longitude":"-6.750704"},"context":"","outcome_status":null,"persistent_id":"d5ccfe7a93c0596ef4d3ceceaa383792b265edf7af688afb2aad17798cec25a3","id":65825025,"location_subtype":"","month":"2018-06"},{"category":"criminal-damage-arson","location_type":"Force","location":{"latitude":"54.652629","street":{"id":1367354,"name":"On or near Windsor Crescent"},"longitude":"-6.752639"},"context":"","outcome_status":{"category":"Under investigation","date":"2018-06"},"persistent_id":"693865f6a1a1b31c1952a244e72cd119ab024d5cfec892d9e57f56a892fe3d68","id":65815939,"location_subtype":"","month":"2018-06"},{"category":"criminal-damage-arson","location_type":"Force","location":{"latitude":"54.646838","street":{"id":1367464,"name":"On or near Burn Road"},"longitude":"-6.745148"},"context":"","outcome_status":{"category":"Under investigation","date":"2018-06"},"persistent_id":"0c2e4af01b96d6e952dcaf77cea026074fdc485af75fb5d2976b88df3997b454","id":65816937,"location_subtype":"","month":"2018-06"},{"category":"criminal-damage-arson","location_type":"Force","location":{"latitude":"54.648412","street":{"id":1367491,"name":"On or near Oritor Street"},"longitude":"-6.745378"},"context":"","outcome_status":{"category":"Under investigation","date":"2018-06"},"persistent_id":"d8fa2f16a127bfd9e21b93410538169ed927af56019432189a8a539f6d0b0ca0","id":65814646,"location_subtype":"","month":"2018-06"},{"category":"criminal-damage-arson","location_type":"Force","location":{"latitude":"54.648088","street":{"id":1367406,"name":"On or near Morgans Hill Road"},"longitude":"-6.755721"},"context":"","outcome_status":{"category":"Under investigation","date":"2018-06"},"persistent_id":"9d75018e3b7b6a977a15284af4bacaceb84a25d56174bc05227a3675c9f8a88f","id":65818265,"location_subtype":"","month":"2018-06"},{"category":"criminal-damage-arson","location_type":"Force","location":{"latitude":"54.645884","street":{"id":1367515,"name":"On or near Central Avenue"},"longitude":"-6.744976"},"context":"","outcome_status":{"category":"Under investigation","date":"2018-06"},"persistent_id":"1459d90ac32ac1b8471ece094654304caef5b9b74c00b508212cac87620d5f05","id":65818668,"location_subtype":"","month":"2018-06"},{"category":"other-theft","location_type":"Force","location":{"latitude":"54.651885","street":{"id":1367373,"name":"On or near Lissan Road"},"longitude":"-6.745891"},"context":"","outcome_status":{"category":"Under investigation","date":"2018-06"},"persistent_id":"b8318ff592c10e7da852c0142f2cab0ab28e0e4dd64e4061dca0f19ca1a6909f","id":65815774,"location_subtype":"","month":"2018-06"},{"category":"other-theft","location_type":"Force","location":{"latitude":"54.651885","street":{"id":1367373,"name":"On or near Lissan Road"},"longitude":"-6.745891"},"context":"","outcome_status":{"category":"Under investigation","date":"2018-06"},"persistent_id":"671e0b9e5bf72e5bf60e426cb295c4b7422ffd8eb83912e67ff1b42a32c3592d","id":65815772,"location_subtype":"","month":"2018-06"},{"category":"other-theft","location_type":"Force","location":{"latitude":"54.651885","street":{"id":1367373,"name":"On or near Lissan Road"},"longitude":"-6.745891"},"context":"","outcome_status":{"category":"Under investigation","date":"2018-06"},"persistent_id":"d8cad4695451383da6324d9cc431559bd63b7eff78a44b6543360171cd9f88e6","id":65815773,"location_subtype":"","month":"2018-06"},{"category":"other-theft","location_type":"Force","location":{"latitude":"54.651942","street":{"id":1367425,"name":"On or near Maloon Park"},"longitude":"-6.757447"},"context":"","outcome_status":{"category":"Under investigation","date":"2018-06"},"persistent_id":"225d71a13b6824d8e5bb46bb96a6afcc628fd6efce6a5601e431882c8eec3b35","id":65816015,"location_subtype":"","month":"2018-06"},{"category":"other-theft","location_type":"Force","location":{"latitude":"54.645884","street":{"id":1367515,"name":"On or near Central Avenue"},"longitude":"-6.744976"},"context":"","outcome_status":{"category":"Under investigation","date":"2018-06"},"persistent_id":"800445e8988d3228dfe11e51ba0e2042c8a3cce68f91d11b66e9d20e5078d853","id":65817527,"location_subtype":"","month":"2018-06"},{"category":"other-theft","location_type":"Force","location":{"latitude":"54.648745","street":{"id":1367440,"name":"On or near Millburn Avenue"},"longitude":"-6.753269"},"context":"","outcome_status":{"category":"Under investigation","date":"2018-06"},"persistent_id":"0cd8715b912f7a030cce6e4f42243b33f246618edc1a47ad36cfd8b37b4ca04c","id":65821094,"location_subtype":"","month":"2018-06"},{"category":"shoplifting","location_type":"Force","location":{"latitude":"54.648745","street":{"id":1367440,"name":"On or near Millburn Avenue"},"longitude":"-6.753269"},"context":"","outcome_status":{"category":"Under investigation","date":"2018-06"},"persistent_id":"c7f94fa4e27177696af772efaef402b8c99cdbec129d2544df6610e80ec6099c","id":65821723,"location_subtype":"","month":"2018-06"},{"category":"shoplifting","location_type":"Force","location":{"latitude":"54.646838","street":{"id":1367464,"name":"On or near Burn Road"},"longitude":"-6.745148"},"context":"","outcome_status":{"category":"Under investigation","date":"2018-06"},"persistent_id":"b54831d52a185a5c435cdbef5b5d5e6d9e803b851eced3b4f589ae586e40cfd8","id":65819612,"location_subtype":"","month":"2018-06"},{"category":"shoplifting","location_type":"Force","location":{"latitude":"54.646838","street":{"id":1367464,"name":"On or near Burn Road"},"longitude":"-6.745148"},"context":"","outcome_status":{"category":"Under investigation","date":"2018-06"},"persistent_id":"0471ef836e6c73c7d3bcecdd9c256ec0d8d8123c4b0ff4d609fef1f05a08d0ba","id":65817968,"location_subtype":"","month":"2018-06"},{"category":"vehicle-crime","location_type":"Force","location":{"latitude":"54.653302","street":{"id":1367362,"name":"On or near Queens Avenue"},"longitude":"-6.749132"},"context":"","outcome_status":{"category":"Under investigation","date":"2018-06"},"persistent_id":"9ca894963bb0acd52c2ec032bcbae2ea49aa8e370edadfa9f519dd80ddc87abc","id":65820136,"location_subtype":"","month":"2018-06"},{"category":"violent-crime","location_type":"Force","location":{"latitude":"54.649054","street":{"id":1367389,"name":"On or near Garden Mews"},"longitude":"-6.746644"},"context":"","outcome_status":{"category":"Under investigation","date":"2018-06"},"persistent_id":"7aa841526dc5f3bebf74bce27372df17b874f1320e8fbdd2fe5771173c5cb596","id":65821535,"location_subtype":"","month":"2018-06"},{"category":"violent-crime","location_type":"Force","location":{"latitude":"54.648088","street":{"id":1367406,"name":"On or near Morgans Hill Road"},"longitude":"-6.755721"},"context":"","outcome_status":{"category":"Under investigation","date":"2018-06"},"persistent_id":"314e41a00e1c332588cbc053523bce79b0bdc81d62e90a93316774af11b63fb3","id":65818262,"location_subtype":"","month":"2018-06"},{"category":"violent-crime","location_type":"Force","location":{"latitude":"54.646937","street":{"id":1367472,"name":"On or near Brewery Lane"},"longitude":"-6.745160"},"context":"","outcome_status":{"category":"Under investigation","date":"2018-06"},"persistent_id":"adc74f416b76c0e310533b506cea97da578e750c3730db6a10815d250209e5ea","id":65817148,"location_subtype":"","month":"2018-06"},{"category":"violent-crime","location_type":"Force","location":{"latitude":"54.645884","street":{"id":1367515,"name":"On or near Central Avenue"},"longitude":"-6.744976"},"context":"","outcome_status":{"category":"Under investigation","date":"2018-06"},"persistent_id":"eb2fd2b7d2c61cf33461ae082b6baddf0fd0a1258de7f4631168831a514060c3","id":65816998,"location_subtype":"","month":"2018-06"},{"category":"violent-crime","location_type":"Force","location":{"latitude":"54.645884","street":{"id":1367515,"name":"On or near Central Avenue"},"longitude":"-6.744976"},"context":"","outcome_status":{"category":"Under investigation","date":"2018-06"},"persistent_id":"08e014485b5dbf2dc67467cbaca6283feea3bd9dd1f6e467a518c4658b172788","id":65816997,"location_subtype":"","month":"2018-06"},{"category":"violent-crime","location_type":"Force","location":{"latitude":"54.651565","street":{"id":1367428,"name":"On or near "},"longitude":"-6.758435"},"context":"","outcome_status":{"category":"Under investigation","date":"2018-06"},"persistent_id":"8191adf8d1f4cccff79ed0d9c7cb25bdac62a4c3097d6bab2edb199c3748127e","id":65814635,"location_subtype":"","month":"2018-06"},{"category":"violent-crime","location_type":"Force","location":{"latitude":"54.648088","street":{"id":1367406,"name":"On or near Morgans Hill Road"},"longitude":"-6.755721"},"context":"","outcome_status":{"category":"Under investigation","date":"2018-06"},"persistent_id":"4362b9564007507f0988e9a3cf5e747d70288a8839691346e18b33c17f9fbbf1","id":65818263,"location_subtype":"","month":"2018-06"},{"category":"violent-crime","location_type":"Force","location":{"latitude":"54.645865","street":{"id":1367461,"name":"On or near Parkmount"},"longitude":"-6.750104"},"context":"","outcome_status":{"category":"Under investigation","date":"2018-06"},"persistent_id":"f905b1581c66f13e010e989e76e9671036dfc37650f2d30514a8a672537745d2","id":65818667,"location_subtype":"","month":"2018-06"},{"category":"violent-crime","location_type":"Force","location":{"latitude":"54.645884","street":{"id":1367515,"name":"On or near Central Avenue"},"longitude":"-6.744976"},"context":"","outcome_status":{"category":"Under investigation","date":"2018-06"},"persistent_id":"75856d42bb6a8a9d0f9eca2f3c0f5eeae9bb96a8280a9e83bd138e2bc2b8b58b","id":65818892,"location_subtype":"","month":"2018-06"},{"category":"violent-crime","location_type":"Force","location":{"latitude":"54.648088","street":{"id":1367406,"name":"On or near Morgans Hill Road"},"longitude":"-6.755721"},"context":"","outcome_status":{"category":"Under investigation","date":"2018-06"},"persistent_id":"86357445191e57f9a7735a38c2b480a1ba562e5dd27b34e5b4bea2fc81bf743e","id":65818264,"location_subtype":"","month":"2018-06"},{"category":"other-crime","location_type":"Force","location":{"latitude":"54.645884","street":{"id":1367515,"name":"On or near Central Avenue"},"longitude":"-6.744976"},"context":"","outcome_status":{"category":"Under investigation","date":"2018-06"},"persistent_id":"5cef7b534270c6651be893557c411fae31613dc3c5a0a84f2423a8798ed98ffe","id":65819989,"location_subtype":"","month":"2018-06"}]