[{"category":"anti-social-behaviour","location_type":"Force","location":{"latitude":"50.885464","street":{"id":527545,"name":"On or near Wyvern Court"},"longitude":"-2.792357"},"context":"","outcome_status":null,"persistent_id":"","id":65587722,"location_subtype":"","month":"2018-06"},{"category":"anti-social-behaviour","location_type":"Force","location":{"latitude":"50.884045","street":{"id":527542,"name":"On or near Supermarket"},"longitude":"-2.794664"},"context":"","outcome_status":null,"persistent_id":"","id":65587560,"location_subtype":"","month":"2018-06"},{"category":"anti-social-behaviour","location_type":"Force","location":{"latitude":"50.884843","street":{"id":527531,"name":"On or near Orchard Lane"},"longitude":"-2.793668"},"context":"","outcome_status":null,"persistent_id":"","id":65588614,"location_subtype":"","month":"2018-06"},{"category":"anti-social-behaviour","location_type":"Force","location":{"latitude":"50.875236","street":{"id":527130,"name":"On or near Bradford Road"},"longitude":"-2.778155"},"context":"","outcome_status":null,"persistent_id":"","id":65588892,"location_subtype":"","month":"2018-06"},{"category":"anti-social-behaviour","location_type":"Force","location":{"latitude":"50.885488","street":{"id":527552,"name":"On or near East Street"},"longitude":"-2.792727"},"context":"","outcome_status":null,"persistent_id":"","id":65589234,"location_subtype":"","month":"2018-06"},{"category":"anti-social-behaviour","location_type":"Force","location":{"latitude":"50.884506","street":{"id":527537,"name":"On or near George Lane"},"longitude":"-2.795638"},"context":"","outcome_status":null,"persistent_id":"","id":65586822,"location_subtype":"","month":"2018-06"},{"category":"anti-social-behaviour","location_type":"Force","location":{"latitude":"50.888462","street":{"id":527550,"name":"On or near North Street"},"longitude":"-2.795706"},"context":"","outcome_status":null,"persistent_id":"","id":65586289,"location_subtype":"","month":"2018-06"},{"category":"burglary","location_type":"Force","location":{"latitude":"50.881399","street":{"id":527483,"name":"On or near Bowhayes"},"longitude":"-2.793624"},"context":"","outcome_status":{"category":"Under investigation","date":"2018-06"},"persistent_id":"fc600df809b3880320c6db916c5611edcdb833950fd7a0fac17242f47a6977bf","id":65601405,"location_subtype":"","month":"2018-06"},{"category":"burglary","location_type":"Force","location":{"latitude":"50.896272","street":{"id":527526,"name":"On or near A356"},"longitude":"-2.791175"},"context":"","outcome_status":{"category":"Under investigation","date":"2018-06"},"persistent_id":"79bf658a5a336ff43cd05478f8c6ed45d2658fcacd342fe13ade0e073c662082","id":65597179,"location_subtype":"","month":"2018-06"},{"category":"burglary","location_type":"Force","location":{"latitude":"50.885126","street":{"id":527540,"name":"On or near Petrol Station"},"longitude":"-2.794355"},"context":"","outcome_status":{"category":"Under investigation","date":"2018-06"},"persistent_id":"20c8392c24762e72288b84d86063fe097a136272c295fdc36f10498e01d24af5","id":65595173,"location_subtype":"","month":"2018-06"},{"category":"burglary","location_type":"Force","location":{"latitude":"50.883992","street":{"id":527532,"name":"On or near Market Street"},"longitude":"-2.795900"},"context":"","outcome_status":{"category":"Under investigation","date":"2018-06"},"persistent_id":"2d5e93a5601b2b22614ed1b76721331a15da043ab1fb3ed7e66a5027062f0415","id":65595008,"location_subtype":"","month":"2018-06"},{"category":"burglary","location_type":"Force","location":{"latitude":"50.888462","street":{"id":527550,"name":"On or near North Street"},"longitude":"-2.795706"},"context":"","outcome_status":{"category":"Under investigation","date":"2018-06"},"persistent_id":"3d63fb6d5a39776df40a0e074676f915203bc2b283c672cc948e48cf548c5f17","id":65593072,"location_subtype":"","month":"2018-06"},{"category":"criminal-damage-arson","location_type":"Force","location":{"latitude":"50.883861","street":{"id":527528,"name":"On or near Parking Area"},"longitude":"-2.794021"},"context":"","outcome_status":{"category":"Unable to prosecute suspect","date":"2018-06"},"persistent_id":"1324a71532962450c376571185bfb25d5734925a84db43b2b00c915f6d832127","id":65589766,"location_subtype":"","month":"2018-06"},{"category":"criminal-damage-arson","location_type":"Force","location":{"latitude":"50.879219","street":{"id":527484,"name":"On or near Blake Road"},"longitude":"-2.795591"},"context":"","outcome_status":{"category":"Under investigation","date":"2018-06"},"persistent_id":"8cb07e5904832745e93d095305c933a1ed043bdab18d0c8e7a1b0068d15b9217","id":65599303,"location_subtype":"","month":"2018-06"},{"category":"criminal-damage-arson","location_type":"Force","location":{"latitude":"50.881063","street":{"id":527442,"name":"On or near Hospital"},"longitude":"-2.798181"},"context":"","outcome_status":{"category":"Under investigation","date":"2018-06"},"persistent_id":"9eb26bc57081adff630864fb25406fb65ff323ae183800164de3a1a99625a453","id":65595040,"location_subtype":"","month":"2018-06"},{"category":"criminal-damage-arson","location_type":"Force","location":{"latitude":"50.890975","street":{"id":527556,"name":"On or near Bere Court"},"longitude":"-2.795109"},"context":"","outcome_status":{"category":"Awaiting court outcome","date":"2018-06"},"persistent_id":"fb36bdd942ce5a4b65ba541a6fed8097d4ab6176574c51210040214a4d3ddb1c","id":65592425,"location_subtype":"","month":"2018-06"},{"category":"other-theft","location_type":"BTP","location":{"latitude":"50.873700","street":{"id":1489272,"name":"Crewkerne (station)"},"longitude":"-2.778550"},"context":"","outcome_status":{"category":"Under investigation","date":"2018-06"},"persistent_id":"","id":66358683,"location_subtype":"STATION","month":"2018-06"},{"category":"other-theft","location_type":"Force","location":{"latitude":"50.884506","street":{"id":527537,"name":"On or near George Lane"},"longitude":"-2.795638"},"context":"","outcome_status":{"category":"Under investigation","date":"2018-06"},"persistent_id":"3b71581a30b84dbf73332cb634dcaa3e51a110d0179ce5269e963035ced41039","id":65601194,"location_subtype":"","month":"2018-06"},{"category":"public-order","location_type":"Force","location":{"latitude":"50.888462","street":{"id":527550,"name":"On or near North Street"},"longitude":"-2.795706"},"context":"","outcome_status":{"category":"Under investigation","date":"2018-06"},"persistent_id":"bc5929e5e83281211ca1ec1d73a1e8646b0ad2a97cc703a5a55a1a7c6e6aaa8e","id":65600518,"location_subtype":"","month":"2018-06"},{"category":"public-order","location_type":"Force","location":{"latitude":"50.872620","street":{"id":527491,"name":"On or near Broughtons Drive"},"longitude":"-2.778012"},"context":"","outcome_status":{"category":"Unable to prosecute suspect","date":"2018-06"},"persistent_id":"77f668cff68d2bb18e93eb356cb35a5b44544a41b9501612bd94676e29b91660","id":65593991,"location_subtype":"","month":"2018-06"},{"category":"public-order","location_type":"Force","location":{"latitude":"50.890975","street":{"id":527556,"name":"On or near Bere Court"},"longitude":"-2.795109"},"context":"","outcome_status":{"category":"Under investigation","date":"2018-06"},"persistent_id":"681ae11b1472076e4c87c4bff2225e1958c1f8789778b5b614a97c697c8b2070","id":65600765,"location_subtype":"","month":"2018-06"},{"category":"public-order","location_type":"Force","location":{"latitude":"50.875749","street":{"id":527450,"name":"On or near Kithill"},"longitude":"-2.790031"},"context":"","outcome_status":{"category":"Under investigation","date":"2018-06"},"persistent_id":"bd0223fd1cbf374a28cdfd014f735eaca2328e5ab69cda6095d53e25de1dc043","id":65601330,"location_subtype":"","month":"2018-06"},{"category":"vehicle-crime","location_type":"Force","location":{"latitude":"50.879935","street":{"id":527440,"name":"On or near Barn Close"},"longitude":"-2.799938"},"context":"","outcome_status":{"category":"Under investigation","date":"2018-06"},"persistent_id":"705d7183004a7d97bdada8e2f086ad55ceab2b5ef90ad493c3fb32485c77d19e","id":65591578,"location_subtype":"","month":"2018-06"},{"category":"violent-crime","location_type":"Force","location":{"latitude":"50.883992","street":{"id":527532,"name":"On or near Market Street"},"longitude":"-2.795900"},"context":"","outcome_status":{"category":"Under investigation","date":"2018-06"},"persistent_id":"81d86b5ff61073bef69f1745f18fe6fc0bd8e782b62b69b911003fe7af26c159","id":65599270,"location_subtype":"","month":"2018-06"},{"category":"violent-crime","location_type":"Force","location":{"latitude":"50.877238","street":{"id":527467,"name":"On or near Langmead Square"},"longitude":"-2.794605"},"context":"","outcome_status":{"category":"Under investigation","date":"2018-06"},"persistent_id":"b8ef77877656bb351dfd791b951810e0835700ec94dc61274f4220ff0a94ceef","id":65590757,"location_subtype":"","month":"2018-06"},{"category":"violent-crime","location_type":"Force","location":{"latitude":"50.883861","street":{"id":527528,"name":"On or near Parking Area"},"longitude":"-2.794021"},"context":"","outcome_status":{"category":"Under investigation","date":"2018-06"},"persistent_id":"0a5b636398e4e1a9e85d40aa5a3b0b5743797eb0072f6f78525980d0765de843","id":65596797,"location_subtype":"","month":"2018-06"},{"category":"violent-crime","location_type":"Force","location":{"latitude":"50.888462","street":{"id":527550,"name":"On or near North Street"},"longitude":"-2.795706"},"context":"","outcome_status":{"category":"Under investigation","date":"2018-06"},"persistent_id":"e8d2643014b60f70daad6eb5c1deb27bffce0106841f8cc21fbb2e42f4aafdc1","id":65600591,"location_subtype":"","month":"2018-06"},{"category":"violent-crime","location_type":"Force","location":{"latitude":"50.883733","street":{"id":527530,"name":"On or near Oxen Road"},"longitude":"-2.796990"},"context":"","outcome_status":{"category":"Investigation complete; no suspect identified","date":"2018-06"},"persistent_id":"a29c80d1fd881118709f6a7ec0fb7027a193b7cbdeb7ca548bb5f57467b8e190","id":65592971,"location_subtype":"","month":"2018-06"},{"category":"violent-crime","location_type":"Force","location":{"latitude":"50.885126","street":{"id":527540,"name":"On or near Petrol Station"},"longitude":"-2.794355"},"context":"","outcome_status":{"category":"Investigation complete; no suspect identified","date":"2018-06"},"persistent_id":"1603c852064cbb7c0117581ea94ef43984d0e553fb134d50f3767c0545156b13","id":65594002,"location_subtype":"","month":"2018-06"},{"category":"violent-crime","location_type":"Force","location":{"latitude":"50.884296","street":{"id":527538,"name":"On or near Court Barton"},"longitude":"-2.797412"},"context":"","outcome_status":{"category":"Formal action is not in the public interest","date":"2018-06"},"persistent_id":"45517e8ef001c06c9f5a131d882cdb6e80679925d419d9cdf28452437ccb6178","id":65595362,"location_subtype":"","month":"2018-06"},{"category":"violent-crime","location_type":"Force","location":{"latitude":"50.889114","street":{"id":527574,"name":"On or near Fox Meadows"},"longitude":"-2.785807"},"context":"","outcome_status":{"category":"Formal action is not in the public interest","date":"2018-06"},"persistent_id":"10a0cab20aa2eef8767c750af18549903bfcb0a0eecace5b6e5495e1e9b46fb5","id":65595602,"location_subtype":"","month":"2018-06"},{"category":"other-crime","location_type":"Force","location":{"latitude":"50.869028","street":{"id":527210,"name":"On or near Orchard Way"},"longitude":"-2.770406"},"context":"","outcome_status":{"category":"Under investigation","date":"2018-06"},"persistent_id":"0146e0d018caa296f2a48f016ccddf5eafd8a830c966474880d24813b44b204e","id":65597311,"location_subtype":"","month":"2018-06"}]