[{"category":"anti-social-behaviour","location_type":"Force","location":{"latitude":"51.466856","street":{"id":545474,"name":"On or near Arley Cottages"},"longitude":"-2.592078"},"context":"","outcome_status":null,"persistent_id":"","id":65587701,"location_subtype":"","month":"2018-06"},{"category":"anti-social-behaviour","location_type":"Force","location":{"latitude":"51.466547","street":{"id":545463,"name":"On or near Cheltenham Road"},"longitude":"-2.590923"},"context":"","outcome_status":null,"persistent_id":"","id":65586422,"location_subtype":"","month":"2018-06"},{"category":"anti-social-behaviour","location_type":"Force","location":{"latitude":"51.468661","street":{"id":545615,"name":"On or near Leyton Villas"},"longitude":"-2.608384"},"context":"","outcome_status":null,"persistent_id":"","id":65586975,"location_subtype":"","month":"2018-06"},{"category":"anti-social-behaviour","location_type":"Force","location":{"latitude":"51.462760","street":{"id":543547,"name":"On or near St Matthew's Road"},"longitude":"-2.596444"},"context":"","outcome_status":null,"persistent_id":"","id":65586805,"location_subtype":"","month":"2018-06"},{"category":"anti-social-behaviour","location_type":"Force","location":{"latitude":"51.463971","street":{"id":543561,"name":"On or near Fremantle Road"},"longitude":"-2.593466"},"context":"","outcome_status":null,"persistent_id":"","id":65586838,"location_subtype":"","month":"2018-06"},{"category":"anti-social-behaviour","location_type":"Force","location":{"latitude":"51.463710","street":{"id":543542,"name":"On or near Thomas Street North"},"longitude":"-2.591922"},"context":"","outcome_status":null,"persistent_id":"","id":65587381,"location_subtype":"","month":"2018-06"},{"category":"anti-social-behaviour","location_type":"Force","location":{"latitude":"51.463710","street":{"id":543542,"name":"On or near Thomas Street North"},"longitude":"-2.591922"},"context":"","outcome_status":null,"persistent_id":"","id":65587401,"location_subtype":"","month":"2018-06"},{"category":"anti-social-behaviour","location_type":"Force","location":{"latitude":"51.462760","street":{"id":543547,"name":"On or near St Matthew's Road"},"longitude":"-2.596444"},"context":"","outcome_status":null,"persistent_id":"","id":65587160,"location_subtype":"","month":"2018-06"},{"category":"anti-social-behaviour","location_type":"Force","location":{"latitude":"51.463710","street":{"id":543542,"name":"On or near Thomas Street North"},"longitude":"-2.591922"},"context":"","outcome_status":null,"persistent_id":"","id":65587329,"location_subtype":"","month":"2018-06"},{"category":"anti-social-behaviour","location_type":"Force","location":{"latitude":"51.463710","street":{"id":543542,"name":"On or near Thomas Street North"},"longitude":"-2.591922"},"context":"","outcome_status":null,"persistent_id":"","id":65587349,"location_subtype":"","month":"2018-06"},{"category":"anti-social-behaviour","location_type":"Force","location":{"latitude":"51.462002","street":{"id":543508,"name":"On or near Clevedon Terrace"},"longitude":"-2.597125"},"context":"","outcome_status":null,"persistent_id":"","id":65588537,"location_subtype":"","month":"2018-06"},{"category":"anti-social-behaviour","location_type":"Force","location":{"latitude":"51.462002","street":{"id":543508,"name":"On or near Clevedon Terrace"},"longitude":"-2.597125"},"context":"","outcome_status":null,"persistent_id":"","id":65588646,"location_subtype":"","month":"2018-06"},{"category":"anti-social-behaviour","location_type":"Force","location":{"latitude":"51.466890","street":{"id":545622,"name":"On or near Collingwood Road"},"longitude":"-2.606547"},"context":"","outcome_status":null,"persistent_id":"","id":65588909,"location_subtype":"","month":"2018-06"},{"category":"anti-social-behaviour","location_type":"Force","location":{"latitude":"51.466388","street":{"id":545614,"name":"On or near Melville Road"},"longitude":"-2.606166"},"context":"","outcome_status":null,"persistent_id":"","id":65589250,"location_subtype":"","month":"2018-06"},{"category":"anti-social-behaviour","location_type":"Force","location":{"latitude":"51.462002","street":{"id":543508,"name":"On or near Clevedon Terrace"},"longitude":"-2.597125"},"context":"","outcome_status":null,"persistent_id":"","id":65588662,"location_subtype":"","month":"2018-06"},{"category":"anti-social-behaviour","location_type":"Force","location":{"latitude":"51.464415","street":{"id":543570,"name":"On or near Cotham Road South"},"longitude":"-2.596437"},"context":"","outcome_status":null,"persistent_id":"","id":65589002,"location_subtype":"","month":"2018-06"},{"category":"anti-social-behaviour","location_type":"Force","location":{"latitude":"51.465575","street":{"id":543562,"name":"On or near Fremantle Road"},"longitude":"-2.596467"},"context":"","outcome_status":null,"persistent_id":"","id":65589195,"location_subtype":"","month":"2018-06"},{"category":"anti-social-behaviour","location_type":"Force","location":{"latitude":"51.464065","street":{"id":543569,"name":"On or near Cotham Side"},"longitude":"-2.594619"},"context":"","outcome_status":null,"persistent_id":"","id":65589358,"location_subtype":"","month":"2018-06"},{"category":"anti-social-behaviour","location_type":"Force","location":{"latitude":"51.462002","street":{"id":543508,"name":"On or near Clevedon Terrace"},"longitude":"-2.597125"},"context":"","outcome_status":null,"persistent_id":"","id":65589360,"location_subtype":"","month":"2018-06"},{"category":"anti-social-behaviour","location_type":"Force","location":{"latitude":"51.467503","street":{"id":545616,"name":"On or near Lansdown Road"},"longitude":"-2.604453"},"context":"","outcome_status":null,"persistent_id":"","id":65589373,"location_subtype":"","month":"2018-06"},{"category":"anti-social-behaviour","location_type":"Force","location":{"latitude":"51.466856","street":{"id":545474,"name":"On or near Arley Cottages"},"longitude":"-2.592078"},"context":"","outcome_status":null,"persistent_id":"","id":65586211,"location_subtype":"","month":"2018-06"},{"category":"anti-social-behaviour","location_type":"Force","location":{"latitude":"51.462002","street":{"id":543508,"name":"On or near Clevedon Terrace"},"longitude":"-2.597125"},"context":"","outcome_status":null,"persistent_id":"","id":65589442,"location_subtype":"","month":"2018-06"},{"category":"anti-social-behaviour","location_type":"Force","location":{"latitude":"51.469379","street":{"id":545623,"name":"On or near Clyde Road"},"longitude":"-2.606839"},"context":"","outcome_status":null,"persistent_id":"","id":65589515,"location_subtype":"","month":"2018-06"},{"category":"anti-social-behaviour","location_type":"Force","location":{"latitude":"51.461429","street":{"id":543609,"name":"On or near Supermarket"},"longitude":"-2.601839"},"context":"","outcome_status":null,"persistent_id":"","id":65588050,"location_subtype":"","month":"2018-06"},{"category":"anti-social-behaviour","location_type":"Force","location":{"latitude":"51.463710","street":{"id":543542,"name":"On or near Thomas Street North"},"longitude":"-2.591922"},"context":"","outcome_status":null,"persistent_id":"","id":65588279,"location_subtype":"","month":"2018-06"},{"category":"anti-social-behaviour","location_type":"Force","location":{"latitude":"51.462002","street":{"id":543508,"name":"On or near Clevedon Terrace"},"longitude":"-2.597125"},"context":"","outcome_status":null,"persistent_id":"","id":65588170,"location_subtype":"","month":"2018-06"},{"category":"anti-social-behaviour","location_type":"Force","location":{"latitude":"51.462002","street":{"id":543508,"name":"On or near Clevedon Terrace"},"longitude":"-2.597125"},"context":"","outcome_status":null,"persistent_id":"","id":65587586,"location_subtype":"","month":"2018-06"},{"category":"anti-social-behaviour","location_type":"Force","location":{"latitude":"51.463710","street":{"id":543542,"name":"On or near Thomas Street North"},"longitude":"-2.591922"},"context":"","outcome_status":null,"persistent_id":"","id":65588219,"location_subtype":"","month":"2018-06"},{"category":"anti-social-behaviour","location_type":"Force","location":{"latitude":"51.463710","street":{"id":543542,"name":"On or near Thomas Street North"},"longitude":"-2.591922"},"context":"","outcome_status":null,"persistent_id":"","id":65588252,"location_subtype":"","month":"2018-06"},{"category":"anti-social-behaviour","location_type":"Force","location":{"latitude":"51.463536","street":{"id":543615,"name":"On or near Hartfield Avenue"},"longitude":"-2.599621"},"context":"","outcome_status":null,"persistent_id":"","id":65588579,"location_subtype":"","month":"2018-06"},{"category":"anti-social-behaviour","location_type":"Force","location":{"latitude":"51.465153","street":{"id":543342,"name":"On or near Kenilworth Road"},"longitude":"-2.605156"},"context":"","outcome_status":null,"persistent_id":"","id":65588341,"location_subtype":"","month":"2018-06"},{"category":"anti-social-behaviour","location_type":"Force","location":{"latitude":"51.462002","street":{"id":543508,"name":"On or near Clevedon Terrace"},"longitude":"-2.597125"},"context":"","outcome_status":null,"persistent_id":"","id":65588380,"location_subtype":"","month":"2018-06"},{"category":"bicycle-theft","location_type":"Force","location":{"latitude":"51.460378","street":{"id":543493,"name":"On or near Marlborough Hill"},"longitude":"-2.596413"},"context":"","outcome_status":{"category":"Under investigation","date":"2018-06"},"persistent_id":"02cddc09295146fec51f059d3eab35a23f65569e83a6bc3c95ae84613973db51","id":65590687,"location_subtype":"","month":"2018-06"},{"category":"bicycle-theft","location_type":"Force","location":{"latitude":"51.470002","street":{"id":545534,"name":"On or near Woolcot Street"},"longitude":"-2.606300"},"context":"","outcome_status":{"category":"Under investigation","date":"2018-06"},"persistent_id":"95141bb50f4d0dd71445e8fbeab5a9f7ec0110b6ac18c3c991187d6c21a17f65","id":65595222,"location_subtype":"","month":"2018-06"},{"category":"bicycle-theft","location_type":"Force","location":{"latitude":"51.463810","street":{"id":543619,"name":"On or near Cotham Lawn Road"},"longitude":"-2.602187"},"context":"","outcome_status":{"category":"Under investigation","date":"2018-06"},"persistent_id":"0b3b46ac45c0ea7261c1fa71b5b34bca1162bd096fb5b49f33c37815ac959841","id":65594244,"location_subtype":"","month":"2018-06"},{"category":"burglary","location_type":"Force","location":{"latitude":"51.467931","street":{"id":545606,"name":"On or near Woodfield Road"},"longitude":"-2.606978"},"context":"","outcome_status":{"category":"Under investigation","date":"2018-06"},"persistent_id":"badb4f1162ba3469ade40aaa1e69ef90c9e09814254c8117cb4491ad5cd797cd","id":65596496,"location_subtype":"","month":"2018-06"},{"category":"burglary","location_type":"Force","location":{"latitude":"51.467931","street":{"id":545606,"name":"On or near Woodfield Road"},"longitude":"-2.606978"},"context":"","outcome_status":{"category":"Under investigation","date":"2018-06"},"persistent_id":"b684720d9b79fe194664853c8a58cfb0c4b4f8b1dea0217571c5063fffdd88c1","id":65596495,"location_subtype":"","month":"2018-06"},{"category":"burglary","location_type":"Force","location":{"latitude":"51.467931","street":{"id":545606,"name":"On or near Woodfield Road"},"longitude":"-2.606978"},"context":"","outcome_status":{"category":"Under investigation","date":"2018-06"},"persistent_id":"22b40785ce51f45151816d91e9f172f374969d6c509f6f587f6a9009ff2e4818","id":65596284,"location_subtype":"","month":"2018-06"},{"category":"burglary","location_type":"Force","location":{"latitude":"51.464367","street":{"id":543552,"name":"On or near Pitch Lane"},"longitude":"-2.597012"},"context":"","outcome_status":{"category":"Investigation complete; no suspect identified","date":"2018-06"},"persistent_id":"aedd03495e709f67432735c7750706dd7fd1b3dfdfbd18c312218a8856bb811b","id":65596169,"location_subtype":"","month":"2018-06"},{"category":"burglary","location_type":"Force","location":{"latitude":"51.462002","street":{"id":543508,"name":"On or near Clevedon Terrace"},"longitude":"-2.597125"},"context":"","outcome_status":{"category":"Under investigation","date":"2018-06"},"persistent_id":"ca3088c706ef9357d1110c9d795a5dbdc4ad9e94a616dff67d7bcd1e278c4d93","id":65592383,"location_subtype":"","month":"2018-06"},{"category":"burglary","location_type":"Force","location":{"latitude":"51.465731","street":{"id":543572,"name":"On or near Cotham Grove"},"longitude":"-2.597534"},"context":"","outcome_status":{"category":"Under investigation","date":"2018-06"},"persistent_id":"44cfd483c938d705f5c0730a5c03c1c926a51a81cdc7a1d2a971a45ad21a4e54","id":65595135,"location_subtype":"","month":"2018-06"},{"category":"burglary","location_type":"Force","location":{"latitude":"51.464084","street":{"id":543557,"name":"On or near Nine Tree Hill"},"longitude":"-2.590833"},"context":"","outcome_status":{"category":"Under investigation","date":"2018-06"},"persistent_id":"21a80611170d04cb36dd6806d1c6ab0c86d4686dd24ba49aee1c4e1cc9f6b751","id":65592581,"location_subtype":"","month":"2018-06"},{"category":"burglary","location_type":"Force","location":{"latitude":"51.467503","street":{"id":545616,"name":"On or near Lansdown Road"},"longitude":"-2.604453"},"context":"","outcome_status":{"category":"Under investigation","date":"2018-06"},"persistent_id":"5ad9e69b640f5e73a0c1831bdc16dfc5fc6a623905658228d64a81c5446af49c","id":65601644,"location_subtype":"","month":"2018-06"},{"category":"burglary","location_type":"Force","location":{"latitude":"51.467512","street":{"id":545485,"name":"On or near Meridian Road"},"longitude":"-2.601027"},"context":"","outcome_status":{"category":"Under investigation","date":"2018-06"},"persistent_id":"2d2ca8604f18c7aae8e55d6ea6168ac616578ec8c7ed8ca9477ba697d13b4a58","id":65601091,"location_subtype":"","month":"2018-06"},{"category":"burglary","location_type":"Force","location":{"latitude":"51.464863","street":{"id":543544,"name":"On or near Sydenham Road"},"longitude":"-2.591361"},"context":"","outcome_status":{"category":"Under investigation","date":"2018-06"},"persistent_id":"6aca170c4a831139164895a171677e0cc478d5da1ec9bd20ec6d957687579595","id":65600100,"location_subtype":"","month":"2018-06"},{"category":"criminal-damage-arson","location_type":"Force","location":{"latitude":"51.467100","street":{"id":545621,"name":"On or near Cowper Road"},"longitude":"-2.605801"},"context":"","outcome_status":{"category":"Under investigation","date":"2018-06"},"persistent_id":"ca6e2d46e08bb9c62454d200211067ac8e22a2277ad2233f61712803d8bb0506","id":65589862,"location_subtype":"","month":"2018-06"},{"category":"criminal-damage-arson","location_type":"Force","location":{"latitude":"51.465515","street":{"id":543575,"name":"On or near Cheltenham Road"},"longitude":"-2.590420"},"context":"","outcome_status":{"category":"Under investigation","date":"2018-06"},"persistent_id":"3db33d87b32755bb109b401c499557f57d3e0f0fc932efe6ef06073e2a74e557","id":65598385,"location_subtype":"","month":"2018-06"},{"category":"criminal-damage-arson","location_type":"Force","location":{"latitude":"51.465153","street":{"id":543342,"name":"On or near Kenilworth Road"},"longitude":"-2.605156"},"context":"","outcome_status":{"category":"Under investigation","date":"2018-06"},"persistent_id":"4908e7ce04296c74e6cf5cfdd47b364a9373c979d8a22e9c42b0acc3c206f202","id":65599716,"location_subtype":"","month":"2018-06"},{"category":"other-theft","location_type":"Force","location":{"latitude":"51.460146","street":{"id":543523,"name":"On or near Alfred Hill"},"longitude":"-2.597720"},"context":"","outcome_status":{"category":"Under investigation","date":"2018-06"},"persistent_id":"2ec34dfe70bc3abd3aa994556e94379f1fa831de55a00457f85876b3923d97d6","id":65595517,"location_subtype":"","month":"2018-06"},{"category":"other-theft","location_type":"Force","location":{"latitude":"51.461106","street":{"id":543606,"name":"On or near Little Paul Street"},"longitude":"-2.600007"},"context":"","outcome_status":{"category":"Under investigation","date":"2018-06"},"persistent_id":"4eb4928fa8201fcf3e976255e51b9f46d89013b7c94938762b717817a1c4ccb8","id":65590398,"location_subtype":"","month":"2018-06"},{"category":"other-theft","location_type":"Force","location":{"latitude":"51.469127","street":{"id":545619,"name":"On or near Elliston Road"},"longitude":"-2.605137"},"context":"","outcome_status":{"category":"Under investigation","date":"2018-06"},"persistent_id":"1968e06f30541256eda3aacb0455c151fe6a4e2b86a6d64943259194e3814591","id":65594996,"location_subtype":"","month":"2018-06"},{"category":"public-order","location_type":"Force","location":{"latitude":"51.462707","street":{"id":543622,"name":"On or near Further\/higher Educational Building"},"longitude":"-2.603367"},"context":"","outcome_status":{"category":"Investigation complete; no suspect identified","date":"2018-06"},"persistent_id":"87813b215815d7ef5508b8611c1d9eebd841477f0a7eada7dc1578b50af200e9","id":65595126,"location_subtype":"","month":"2018-06"},{"category":"public-order","location_type":"Force","location":{"latitude":"51.469379","street":{"id":545623,"name":"On or near Clyde Road"},"longitude":"-2.606839"},"context":"","outcome_status":{"category":"Under investigation","date":"2018-06"},"persistent_id":"5fa88521edac47e7eda72b0964f747d2cd5f991816b56ccf5ae23a8e3895bee0","id":65589671,"location_subtype":"","month":"2018-06"},{"category":"public-order","location_type":"Force","location":{"latitude":"51.468524","street":{"id":545457,"name":"On or near Eastfield Road"},"longitude":"-2.594662"},"context":"","outcome_status":{"category":"Under investigation","date":"2018-06"},"persistent_id":"d2188bfa18501bc5c9ee1a5ce47be6c478c17c75255a23ae610cbe6cd08e1a19","id":65595241,"location_subtype":"","month":"2018-06"},{"category":"public-order","location_type":"Force","location":{"latitude":"51.466890","street":{"id":545622,"name":"On or near Collingwood Road"},"longitude":"-2.606547"},"context":"","outcome_status":{"category":"Under investigation","date":"2018-06"},"persistent_id":"31b9e3a994cadcd1718b5d4345d9ee366797132a58e72b4d62378cffc58beab7","id":65594040,"location_subtype":"","month":"2018-06"},{"category":"public-order","location_type":"Force","location":{"latitude":"51.467320","street":{"id":545628,"name":"On or near Brighton Road"},"longitude":"-2.605141"},"context":"","outcome_status":{"category":"Under investigation","date":"2018-06"},"persistent_id":"c00ba8e7cf27efe6456f390106b1caf5c431571bae387821427d71b38be4b06d","id":65598859,"location_subtype":"","month":"2018-06"},{"category":"public-order","location_type":"Force","location":{"latitude":"51.461429","street":{"id":543609,"name":"On or near Supermarket"},"longitude":"-2.601839"},"context":"","outcome_status":{"category":"Under investigation","date":"2018-06"},"persistent_id":"be85ed1551c3cd602d0932c2f2acd68c1f713f2037780c2a883127f9ce79f7e0","id":65596500,"location_subtype":"","month":"2018-06"},{"category":"robbery","location_type":"Force","location":{"latitude":"51.464513","street":{"id":543347,"name":"On or near Cotham Vale"},"longitude":"-2.603665"},"context":"","outcome_status":{"category":"Under investigation","date":"2018-06"},"persistent_id":"b563bf34fae73b0f1755987d31392980f50e057fde29edb179909b9bbecc264f","id":65591478,"location_subtype":"","month":"2018-06"},{"category":"vehicle-crime","location_type":"Force","location":{"latitude":"51.465928","street":{"id":545445,"name":"On or near Sydenham Hill"},"longitude":"-2.594139"},"context":"","outcome_status":{"category":"Under investigation","date":"2018-06"},"persistent_id":"b2ef6b04484432143f79f3a5ba557ea9dee8e77bdafeafe6bfdbf29d38ab22a2","id":65593709,"location_subtype":"","month":"2018-06"},{"category":"vehicle-crime","location_type":"Force","location":{"latitude":"51.465612","street":{"id":543540,"name":"On or near Victoria Walk"},"longitude":"-2.594509"},"context":"","outcome_status":{"category":"Under investigation","date":"2018-06"},"persistent_id":"d79ced477824435d95ed89cfc60cb8837e34cea1c545c2a4b627fc59a7c20c53","id":65592293,"location_subtype":"","month":"2018-06"},{"category":"vehicle-crime","location_type":"Force","location":{"latitude":"51.465592","street":{"id":543541,"name":"On or near Victoria Gardens"},"longitude":"-2.594840"},"context":"","outcome_status":{"category":"Under investigation","date":"2018-06"},"persistent_id":"1dd661e40c16d9047b275a0b6f6629fdc2b9dd760ccf2cdf39a94a0e8d77fad3","id":65592193,"location_subtype":"","month":"2018-06"},{"category":"vehicle-crime","location_type":"Force","location":{"latitude":"51.469127","street":{"id":545619,"name":"On or near Elliston Road"},"longitude":"-2.605137"},"context":"","outcome_status":{"category":"Under investigation","date":"2018-06"},"persistent_id":"7ffec888e9b096814d7262a42050845a476015b0ec3f68cf346b9f42f42bd377","id":65595447,"location_subtype":"","month":"2018-06"},{"category":"vehicle-crime","location_type":"Force","location":{"latitude":"51.461260","street":{"id":543489,"name":"On or near Montague Place"},"longitude":"-2.597951"},"context":"","outcome_status":{"category":"Under investigation","date":"2018-06"},"persistent_id":"c8e0b5106fa329fd909c8fd30dce9a057ff2b0c83b1cea48aa3b399183bbe4eb","id":65592155,"location_subtype":"","month":"2018-06"},{"category":"vehicle-crime","location_type":"Force","location":{"latitude":"51.465731","street":{"id":543572,"name":"On or near Cotham Grove"},"longitude":"-2.597534"},"context":"","outcome_status":{"category":"Under investigation","date":"2018-06"},"persistent_id":"dad1619323b7a01a234467bd7511eb6e1bf69067898c37c2df636ed24e312edd","id":65597709,"location_subtype":"","month":"2018-06"},{"category":"vehicle-crime","location_type":"Force","location":{"latitude":"51.465691","street":{"id":543613,"name":"On or near Ravenswood Road"},"longitude":"-2.601866"},"context":"","outcome_status":{"category":"Under investigation","date":"2018-06"},"persistent_id":"5965bc1bed3d14820e6a3ef6ee75ce4442b474a5313fdd757d5d31bc5afad33d","id":65597835,"location_subtype":"","month":"2018-06"},{"category":"vehicle-crime","location_type":"Force","location":{"latitude":"51.462707","street":{"id":543622,"name":"On or near Further\/higher Educational Building"},"longitude":"-2.603367"},"context":"","outcome_status":{"category":"Under investigation","date":"2018-06"},"persistent_id":"5a8bd2444253c82583a6eb470527695740607152bde1583f50e7ee60aa03b421","id":65599863,"location_subtype":"","month":"2018-06"},{"category":"vehicle-crime","location_type":"Force","location":{"latitude":"51.471321","street":{"id":545544,"name":"On or near Redland Road"},"longitude":"-2.606879"},"context":"","outcome_status":{"category":"Under investigation","date":"2018-06"},"persistent_id":"742715c3d180e1a86af45aa1d51f94482c4ce73c2b7c4d99648919d71574872e","id":65589586,"location_subtype":"","month":"2018-06"},{"category":"vehicle-crime","location_type":"Force","location":{"latitude":"51.462680","street":{"id":543617,"name":"On or near Cotham Road"},"longitude":"-2.599783"},"context":"","outcome_status":{"category":"Under investigation","date":"2018-06"},"persistent_id":"bc9278c19af52db4d4fdf5f138fd67cda0959b84cbf6a356a021ff2d368aff7e","id":65593702,"location_subtype":"","month":"2018-06"},{"category":"vehicle-crime","location_type":"Force","location":{"latitude":"51.465568","street":{"id":543344,"name":"On or near Hampton Road"},"longitude":"-2.606500"},"context":"","outcome_status":{"category":"Under investigation","date":"2018-06"},"persistent_id":"51213e72263124c5cc29bb8ca11b06793d6a57bb610f92a42a9a00f9ea4ab969","id":65594111,"location_subtype":"","month":"2018-06"},{"category":"violent-crime","location_type":"Force","location":{"latitude":"51.462707","street":{"id":543622,"name":"On or near Further\/higher Educational Building"},"longitude":"-2.603367"},"context":"","outcome_status":{"category":"Investigation complete; no suspect identified","date":"2018-06"},"persistent_id":"2079b19c888e7384b1a066fa48c04174236d857a555f3823eaa593f3aa9a56b1","id":65594200,"location_subtype":"","month":"2018-06"},{"category":"violent-crime","location_type":"Force","location":{"latitude":"51.462707","street":{"id":543550,"name":"On or near Spring Hill"},"longitude":"-2.594558"},"context":"","outcome_status":{"category":"Investigation complete; no suspect identified","date":"2018-06"},"persistent_id":"8a9f3165e92d16a42804f8818aacac48870f26aa7acd16161f92df2cbc8c7387","id":65599552,"location_subtype":"","month":"2018-06"},{"category":"violent-crime","location_type":"Force","location":{"latitude":"51.464634","street":{"id":543563,"name":"On or near Fremantle Lane"},"longitude":"-2.595778"},"context":"","outcome_status":{"category":"Under investigation","date":"2018-06"},"persistent_id":"37725be633891ce9f088231b2e03a4c85b8964b16accbfa7c6b614280869e2e4","id":65590977,"location_subtype":"","month":"2018-06"},{"category":"violent-crime","location_type":"Force","location":{"latitude":"51.467415","street":{"id":545455,"name":"On or near Elmgrove Road"},"longitude":"-2.597052"},"context":"","outcome_status":{"category":"Under investigation","date":"2018-06"},"persistent_id":"f1e409d45001b4b49ea6f126b476fca1d15b37a7c7349b25b7d0fa0474b546c7","id":65601766,"location_subtype":"","month":"2018-06"},{"category":"violent-crime","location_type":"Force","location":{"latitude":"51.461985","street":{"id":543480,"name":"On or near Portland Street"},"longitude":"-2.598608"},"context":"","outcome_status":{"category":"Under investigation","date":"2018-06"},"persistent_id":"3f9841bb317fa26c5e9afd30de130ef48716d59c3003b3bab2436eab54041cd1","id":65596606,"location_subtype":"","month":"2018-06"},{"category":"violent-crime","location_type":"Force","location":{"latitude":"51.464367","street":{"id":543552,"name":"On or near Pitch Lane"},"longitude":"-2.597012"},"context":"","outcome_status":{"category":"Under investigation","date":"2018-06"},"persistent_id":"e6f19b238c05d413391ff74b7260ea618fb2a211e55723337658520c8d5af9ea","id":65595223,"location_subtype":"","month":"2018-06"},{"category":"violent-crime","location_type":"Force","location":{"latitude":"51.469716","street":{"id":545565,"name":"On or near Elgin Park"},"longitude":"-2.609435"},"context":"","outcome_status":{"category":"Unable to prosecute suspect","date":"2018-06"},"persistent_id":"926aa37dc1b9e9edadfc1606f3627bd9c0313baccd40825317ade45cf6d9b0f8","id":65593483,"location_subtype":"","month":"2018-06"},{"category":"violent-crime","location_type":"Force","location":{"latitude":"51.462397","street":{"id":543558,"name":"On or near Kingsdown Parade"},"longitude":"-2.595490"},"context":"","outcome_status":{"category":"Unable to prosecute suspect","date":"2018-06"},"persistent_id":"5102315ea95cdc2bc7e309e306ab9ea9d1a8eb7c24e2f8d2d9d1d7c54907a653","id":65593828,"location_subtype":"","month":"2018-06"},{"category":"violent-crime","location_type":"Force","location":{"latitude":"51.467677","street":{"id":545471,"name":"On or near Arley Park"},"longitude":"-2.593212"},"context":"","outcome_status":{"category":"Under investigation","date":"2018-06"},"persistent_id":"c691009ed51e3aa66d81c44a89c8e135ac9a367fbff3d6bf47ae070eeb9f4960","id":65596637,"location_subtype":"","month":"2018-06"},{"category":"violent-crime","location_type":"Force","location":{"latitude":"51.463133","street":{"id":543571,"name":"On or near Cotham Road South"},"longitude":"-2.597428"},"context":"","outcome_status":{"category":"Under investigation","date":"2018-06"},"persistent_id":"8ad360699b69d38eee07380562f7f7dbd7d3ce72ca0d61020d4930618a4922d7","id":65593110,"location_subtype":"","month":"2018-06"},{"category":"violent-crime","location_type":"Force","location":{"latitude":"51.463810","street":{"id":543619,"name":"On or near Cotham Lawn Road"},"longitude":"-2.602187"},"context":"","outcome_status":{"category":"Unable to prosecute suspect","date":"2018-06"},"persistent_id":"8624db46978b4f9753cc38f4b564513f4348a12162cc1535f0bd4fedb770900a","id":65595158,"location_subtype":"","month":"2018-06"},{"category":"violent-crime","location_type":"Force","location":{"latitude":"51.462707","street":{"id":543622,"name":"On or near Further\/higher Educational Building"},"longitude":"-2.603367"},"context":"","outcome_status":{"category":"Investigation complete; no suspect identified","date":"2018-06"},"persistent_id":"86f7a80f0c0f657455e486a38615533482459e59a61e628cfc2470046804209d","id":65598788,"location_subtype":"","month":"2018-06"},{"category":"violent-crime","location_type":"Force","location":{"latitude":"51.465153","street":{"id":543342,"name":"On or near Kenilworth Road"},"longitude":"-2.605156"},"context":"","outcome_status":{"category":"Under investigation","date":"2018-06"},"persistent_id":"49bc7047161099514566e5cb73d771ef5516bffed83fc609d62c4652ee75c0eb","id":65598759,"location_subtype":"","month":"2018-06"},{"category":"violent-crime","location_type":"Force","location":{"latitude":"51.470040","street":{"id":545325,"name":"On or near Redland Road"},"longitude":"-2.602471"},"context":"","outcome_status":{"category":"Under investigation","date":"2018-06"},"persistent_id":"b1b461dc2227f13f765ac9e37b1baf7088c4d419eb91fb54578c13626fb1f78d","id":65591018,"location_subtype":"","month":"2018-06"}]