[{"category":"anti-social-behaviour","location_type":"Force","location":{"latitude":"51.628042","street":{"id":985428,"name":"On or near Cyprus Road"},"longitude":"-0.067886"},"context":"","outcome_status":null,"persistent_id":"","id":50838669,"location_subtype":"","month":"2016-08"},{"category":"anti-social-behaviour","location_type":"Force","location":{"latitude":"51.625200","street":{"id":985466,"name":"On or near Laburnum Avenue"},"longitude":"-0.071662"},"context":"","outcome_status":null,"persistent_id":"","id":50839613,"location_subtype":"","month":"2016-08"},{"category":"anti-social-behaviour","location_type":"Force","location":{"latitude":"51.628680","street":{"id":985461,"name":"On or near Tillotson Road"},"longitude":"-0.071673"},"context":"","outcome_status":null,"persistent_id":"","id":50839615,"location_subtype":"","month":"2016-08"},{"category":"anti-social-behaviour","location_type":"Force","location":{"latitude":"51.622303","street":{"id":983619,"name":"On or near Chalfont Road"},"longitude":"-0.073244"},"context":"","outcome_status":null,"persistent_id":"","id":50839623,"location_subtype":"","month":"2016-08"},{"category":"anti-social-behaviour","location_type":"Force","location":{"latitude":"51.622303","street":{"id":983619,"name":"On or near Chalfont Road"},"longitude":"-0.073244"},"context":"","outcome_status":null,"persistent_id":"","id":50839624,"location_subtype":"","month":"2016-08"},{"category":"anti-social-behaviour","location_type":"Force","location":{"latitude":"51.617978","street":{"id":983608,"name":"On or near Sheldon Road"},"longitude":"-0.073817"},"context":"","outcome_status":null,"persistent_id":"","id":50839626,"location_subtype":"","month":"2016-08"},{"category":"anti-social-behaviour","location_type":"Force","location":{"latitude":"51.623566","street":{"id":985499,"name":"On or near Chalfont Green"},"longitude":"-0.072916"},"context":"","outcome_status":null,"persistent_id":"","id":50839636,"location_subtype":"","month":"2016-08"},{"category":"anti-social-behaviour","location_type":"Force","location":{"latitude":"51.615102","street":{"id":983597,"name":"On or near Dorrit Mews"},"longitude":"-0.073332"},"context":"","outcome_status":null,"persistent_id":"","id":50839634,"location_subtype":"","month":"2016-08"},{"category":"anti-social-behaviour","location_type":"Force","location":{"latitude":"51.615102","street":{"id":983597,"name":"On or near Dorrit Mews"},"longitude":"-0.073332"},"context":"","outcome_status":null,"persistent_id":"","id":50839635,"location_subtype":"","month":"2016-08"},{"category":"anti-social-behaviour","location_type":"Force","location":{"latitude":"51.618066","street":{"id":983620,"name":"On or near Bulwer Road"},"longitude":"-0.074767"},"context":"","outcome_status":null,"persistent_id":"","id":50839637,"location_subtype":"","month":"2016-08"},{"category":"anti-social-behaviour","location_type":"Force","location":{"latitude":"51.614594","street":{"id":983598,"name":"On or near Dickens Lane"},"longitude":"-0.074206"},"context":"","outcome_status":null,"persistent_id":"","id":50839642,"location_subtype":"","month":"2016-08"},{"category":"anti-social-behaviour","location_type":"Force","location":{"latitude":"51.614594","street":{"id":983598,"name":"On or near Dickens Lane"},"longitude":"-0.074206"},"context":"","outcome_status":null,"persistent_id":"","id":50839643,"location_subtype":"","month":"2016-08"},{"category":"anti-social-behaviour","location_type":"Force","location":{"latitude":"51.614594","street":{"id":983598,"name":"On or near Dickens Lane"},"longitude":"-0.074206"},"context":"","outcome_status":null,"persistent_id":"","id":50839644,"location_subtype":"","month":"2016-08"},{"category":"anti-social-behaviour","location_type":"Force","location":{"latitude":"51.615258","street":{"id":983589,"name":"On or near Tanners End Lane"},"longitude":"-0.076287"},"context":"","outcome_status":null,"persistent_id":"","id":50839646,"location_subtype":"","month":"2016-08"},{"category":"anti-social-behaviour","location_type":"Force","location":{"latitude":"51.628672","street":{"id":985477,"name":"On or near Petrol Station"},"longitude":"-0.074997"},"context":"","outcome_status":null,"persistent_id":"","id":50839647,"location_subtype":"","month":"2016-08"},{"category":"anti-social-behaviour","location_type":"Force","location":{"latitude":"51.628672","street":{"id":985477,"name":"On or near Petrol Station"},"longitude":"-0.074997"},"context":"","outcome_status":null,"persistent_id":"","id":50839648,"location_subtype":"","month":"2016-08"},{"category":"anti-social-behaviour","location_type":"Force","location":{"latitude":"51.628672","street":{"id":985477,"name":"On or near Petrol Station"},"longitude":"-0.074997"},"context":"","outcome_status":null,"persistent_id":"","id":50839649,"location_subtype":"","month":"2016-08"},{"category":"anti-social-behaviour","location_type":"Force","location":{"latitude":"51.620667","street":{"id":983610,"name":"On or near Orpington Gardens"},"longitude":"-0.078225"},"context":"","outcome_status":null,"persistent_id":"","id":50839654,"location_subtype":"","month":"2016-08"},{"category":"anti-social-behaviour","location_type":"Force","location":{"latitude":"51.620014","street":{"id":983618,"name":"On or near Cheddington Road"},"longitude":"-0.077863"},"context":"","outcome_status":null,"persistent_id":"","id":50839661,"location_subtype":"","month":"2016-08"},{"category":"anti-social-behaviour","location_type":"Force","location":{"latitude":"51.616301","street":{"id":983796,"name":"On or near Strand Place"},"longitude":"-0.079551"},"context":"","outcome_status":null,"persistent_id":"","id":50839671,"location_subtype":"","month":"2016-08"},{"category":"anti-social-behaviour","location_type":"Force","location":{"latitude":"51.625788","street":{"id":985291,"name":"On or near Latymer Way"},"longitude":"-0.079034"},"context":"","outcome_status":null,"persistent_id":"","id":50839673,"location_subtype":"","month":"2016-08"},{"category":"anti-social-behaviour","location_type":"Force","location":{"latitude":"51.620405","street":{"id":983841,"name":"On or near Shortlands Close"},"longitude":"-0.081443"},"context":"","outcome_status":null,"persistent_id":"","id":50839680,"location_subtype":"","month":"2016-08"},{"category":"anti-social-behaviour","location_type":"Force","location":{"latitude":"51.621084","street":{"id":983845,"name":"On or near Keston Close"},"longitude":"-0.081154"},"context":"","outcome_status":null,"persistent_id":"","id":50839682,"location_subtype":"","month":"2016-08"},{"category":"anti-social-behaviour","location_type":"Force","location":{"latitude":"51.620792","street":{"id":983849,"name":"On or near Bromley Road"},"longitude":"-0.081976"},"context":"","outcome_status":null,"persistent_id":"","id":50839690,"location_subtype":"","month":"2016-08"},{"category":"anti-social-behaviour","location_type":"Force","location":{"latitude":"51.620792","street":{"id":983849,"name":"On or near Bromley Road"},"longitude":"-0.081976"},"context":"","outcome_status":null,"persistent_id":"","id":50839691,"location_subtype":"","month":"2016-08"},{"category":"anti-social-behaviour","location_type":"Force","location":{"latitude":"51.620405","street":{"id":983841,"name":"On or near Shortlands Close"},"longitude":"-0.081443"},"context":"","outcome_status":null,"persistent_id":"","id":50839694,"location_subtype":"","month":"2016-08"},{"category":"anti-social-behaviour","location_type":"Force","location":{"latitude":"51.616498","street":{"id":983806,"name":"On or near Pedestrian Subway"},"longitude":"-0.086100"},"context":"","outcome_status":null,"persistent_id":"","id":50839705,"location_subtype":"","month":"2016-08"},{"category":"anti-social-behaviour","location_type":"Force","location":{"latitude":"51.626261","street":{"id":985442,"name":"On or near Beechwood Mews"},"longitude":"-0.064017"},"context":"","outcome_status":null,"persistent_id":"","id":50838617,"location_subtype":"","month":"2016-08"},{"category":"anti-social-behaviour","location_type":"Force","location":{"latitude":"51.627200","street":{"id":985424,"name":"On or near Durham Road"},"longitude":"-0.064281"},"context":"","outcome_status":null,"persistent_id":"","id":50838623,"location_subtype":"","month":"2016-08"},{"category":"anti-social-behaviour","location_type":"Force","location":{"latitude":"51.626714","street":{"id":985406,"name":"On or near Lichfield Road"},"longitude":"-0.064793"},"context":"","outcome_status":null,"persistent_id":"","id":50838632,"location_subtype":"","month":"2016-08"},{"category":"anti-social-behaviour","location_type":"Force","location":{"latitude":"51.630717","street":{"id":985404,"name":"On or near Malvern Terrace"},"longitude":"-0.065966"},"context":"","outcome_status":null,"persistent_id":"","id":50838642,"location_subtype":"","month":"2016-08"},{"category":"anti-social-behaviour","location_type":"Force","location":{"latitude":"51.625831","street":{"id":985394,"name":"On or near Sawyer Close"},"longitude":"-0.061970"},"context":"","outcome_status":null,"persistent_id":"","id":50838575,"location_subtype":"","month":"2016-08"},{"category":"anti-social-behaviour","location_type":"Force","location":{"latitude":"51.625831","street":{"id":985394,"name":"On or near Sawyer Close"},"longitude":"-0.061970"},"context":"","outcome_status":null,"persistent_id":"","id":50838576,"location_subtype":"","month":"2016-08"},{"category":"anti-social-behaviour","location_type":"Force","location":{"latitude":"51.625831","street":{"id":985394,"name":"On or near Sawyer Close"},"longitude":"-0.061970"},"context":"","outcome_status":null,"persistent_id":"","id":50838577,"location_subtype":"","month":"2016-08"},{"category":"anti-social-behaviour","location_type":"Force","location":{"latitude":"51.626261","street":{"id":985442,"name":"On or near Beechwood Mews"},"longitude":"-0.064017"},"context":"","outcome_status":null,"persistent_id":"","id":50838618,"location_subtype":"","month":"2016-08"},{"category":"anti-social-behaviour","location_type":"Force","location":{"latitude":"51.630254","street":{"id":985390,"name":"On or near Stowe Gardens"},"longitude":"-0.065697"},"context":"","outcome_status":null,"persistent_id":"","id":50838656,"location_subtype":"","month":"2016-08"},{"category":"anti-social-behaviour","location_type":"Force","location":{"latitude":"51.630254","street":{"id":985390,"name":"On or near Stowe Gardens"},"longitude":"-0.065697"},"context":"","outcome_status":null,"persistent_id":"","id":50838657,"location_subtype":"","month":"2016-08"},{"category":"anti-social-behaviour","location_type":"Force","location":{"latitude":"51.626262","street":{"id":985434,"name":"On or near Church Street"},"longitude":"-0.065722"},"context":"","outcome_status":null,"persistent_id":"","id":50838661,"location_subtype":"","month":"2016-08"},{"category":"burglary","location_type":"Force","location":{"latitude":"51.621988","street":{"id":983616,"name":"On or near Haselbury Road"},"longitude":"-0.074890"},"context":"","outcome_status":{"category":"Investigation complete; no suspect identified","date":"2016-09"},"persistent_id":"f4e139263d88768caabad39ad5cfdd865da31e6402a50b95bf0a98d424bef0df","id":50882591,"location_subtype":"","month":"2016-08"},{"category":"burglary","location_type":"Force","location":{"latitude":"51.628056","street":{"id":985476,"name":"On or near Arthur Road"},"longitude":"-0.070891"},"context":"","outcome_status":{"category":"Investigation complete; no suspect identified","date":"2016-10"},"persistent_id":"7759c5dbfd3f04c80e49d196c459d2af6380bbae56dd2508b59f1076a9037eb5","id":50889773,"location_subtype":"","month":"2016-08"},{"category":"burglary","location_type":"Force","location":{"latitude":"51.617935","street":{"id":983602,"name":"On or near Warwick Road"},"longitude":"-0.072837"},"context":"","outcome_status":{"category":"Status update unavailable","date":"2016-12"},"persistent_id":"dfb8b2d881e39dc5b27c052e54fc696ca2aaeda079b911e69293798da0010879","id":50882905,"location_subtype":"","month":"2016-08"},{"category":"burglary","location_type":"Force","location":{"latitude":"51.628869","street":{"id":985391,"name":"On or near St Joan's Road"},"longitude":"-0.066738"},"context":"","outcome_status":{"category":"Investigation complete; no suspect identified","date":"2017-01"},"persistent_id":"c49e810472d49f612563372bfedf3fb1622f5a09300f4f9999715173abbaec40","id":50873804,"location_subtype":"","month":"2016-08"},{"category":"burglary","location_type":"Force","location":{"latitude":"51.619712","street":{"id":983603,"name":"On or near Tuncombe Road"},"longitude":"-0.077543"},"context":"","outcome_status":{"category":"Status update unavailable","date":"2016-12"},"persistent_id":"c397cc9297f6344da03747d8a570e555dba7175096be3de13c1c4c5b43b283e9","id":50865991,"location_subtype":"","month":"2016-08"},{"category":"burglary","location_type":"Force","location":{"latitude":"51.627200","street":{"id":985424,"name":"On or near Durham Road"},"longitude":"-0.064281"},"context":"","outcome_status":{"category":"Investigation complete; no suspect identified","date":"2016-09"},"persistent_id":"08e7c0f3dd224614e1b9f1f35b14c93f350a05212f6113b604b28a75f4c3c470","id":50929923,"location_subtype":"","month":"2016-08"},{"category":"burglary","location_type":"Force","location":{"latitude":"51.632691","street":{"id":985441,"name":"On or near Bury Street"},"longitude":"-0.065160"},"context":"","outcome_status":{"category":"Offender sent to prison","date":"2017-06"},"persistent_id":"7026aa15a281e8ca7fa5988cc98d6a24c8e209a30c01427d3bcaaeda11584b26","id":50884865,"location_subtype":"","month":"2016-08"},{"category":"criminal-damage-arson","location_type":"Force","location":{"latitude":"51.622303","street":{"id":983619,"name":"On or near Chalfont Road"},"longitude":"-0.073244"},"context":"","outcome_status":{"category":"Investigation complete; no suspect identified","date":"2016-08"},"persistent_id":"e02d8ad90c7550f0068510b25f9002d0802eb1bb5ce4577a6371c2d45f88d4e2","id":50866116,"location_subtype":"","month":"2016-08"},{"category":"criminal-damage-arson","location_type":"Force","location":{"latitude":"51.629620","street":{"id":985383,"name":"On or near Winchester Road"},"longitude":"-0.064308"},"context":"","outcome_status":{"category":"Status update unavailable","date":"2016-12"},"persistent_id":"d109740adf81a45cb9aba1d738569382a0cd8bcf495dbafa6c0303cc4146741e","id":50886865,"location_subtype":"","month":"2016-08"},{"category":"criminal-damage-arson","location_type":"Force","location":{"latitude":"51.617953","street":{"id":983844,"name":"On or near Oakfield Gardens"},"longitude":"-0.079394"},"context":"","outcome_status":{"category":"Investigation complete; no suspect identified","date":"2017-03"},"persistent_id":"54f73fcc2e7c75598501e7f0d589f8449acc2998ccaced4f62d8fe8fe5b0267e","id":50882764,"location_subtype":"","month":"2016-08"},{"category":"criminal-damage-arson","location_type":"Force","location":{"latitude":"51.626240","street":{"id":985405,"name":"On or near Lion Road"},"longitude":"-0.062212"},"context":"","outcome_status":{"category":"Offender fined","date":"2016-08"},"persistent_id":"4a548932ef7fd7233f004ca41c63387945772e2a4c88417c4ba3c51b3ac6abef","id":50866496,"location_subtype":"","month":"2016-08"},{"category":"criminal-damage-arson","location_type":"Force","location":{"latitude":"51.617953","street":{"id":983844,"name":"On or near Oakfield Gardens"},"longitude":"-0.079394"},"context":"","outcome_status":{"category":"Investigation complete; no suspect identified","date":"2016-08"},"persistent_id":"06d5411c1eede8a929891f42127223dd0311667f7ec7908529612af208b0f3ce","id":50880349,"location_subtype":"","month":"2016-08"},{"category":"criminal-damage-arson","location_type":"Force","location":{"latitude":"51.625504","street":{"id":985470,"name":"On or near Hawthorne Way"},"longitude":"-0.072675"},"context":"","outcome_status":{"category":"Status update unavailable","date":"2016-12"},"persistent_id":"60d9b1e7c2baa0fd21d468b51fffcfcb0b07ac59d2ec821372c944276304df40","id":50882347,"location_subtype":"","month":"2016-08"},{"category":"criminal-damage-arson","location_type":"Force","location":{"latitude":"51.628869","street":{"id":985391,"name":"On or near St Joan's Road"},"longitude":"-0.066738"},"context":"","outcome_status":{"category":"Status update unavailable","date":"2016-12"},"persistent_id":"6d4906d3f9c5221b510203e1848b40ebc95f0db16cc6348817cd6b070fba9301","id":50887002,"location_subtype":"","month":"2016-08"},{"category":"criminal-damage-arson","location_type":"Force","location":{"latitude":"51.629620","street":{"id":985383,"name":"On or near Winchester Road"},"longitude":"-0.064308"},"context":"","outcome_status":{"category":"Investigation complete; no suspect identified","date":"2016-09"},"persistent_id":"d109740adf81a45cb9aba1d738569382a0cd8bcf495dbafa6c0303cc4146741e","id":50886866,"location_subtype":"","month":"2016-08"},{"category":"criminal-damage-arson","location_type":"Force","location":{"latitude":"51.626820","street":{"id":985472,"name":"On or near Gatward Green"},"longitude":"-0.072316"},"context":"","outcome_status":{"category":"Status update unavailable","date":"2016-12"},"persistent_id":"bb010a890c8f95247a8817c61983caca26229660a37906337f0cd70cf6aaa5c8","id":50914847,"location_subtype":"","month":"2016-08"},{"category":"criminal-damage-arson","location_type":"Force","location":{"latitude":"51.622303","street":{"id":983619,"name":"On or near Chalfont Road"},"longitude":"-0.073244"},"context":"","outcome_status":{"category":"Investigation complete; no suspect identified","date":"2016-08"},"persistent_id":"eb0d5702d87f45f4dffd176013e5cc43d86baab55a047cb968b4966701e20353","id":50862056,"location_subtype":"","month":"2016-08"},{"category":"criminal-damage-arson","location_type":"Force","location":{"latitude":"51.629620","street":{"id":985383,"name":"On or near Winchester Road"},"longitude":"-0.064308"},"context":"","outcome_status":{"category":"Status update unavailable","date":"2016-12"},"persistent_id":"5bbd2531ad813d0faf26310b95491e9f2adaa3ea6115295d609ae00f92fc9eec","id":50854466,"location_subtype":"","month":"2016-08"},{"category":"drugs","location_type":"Force","location":{"latitude":"51.626240","street":{"id":985405,"name":"On or near Lion Road"},"longitude":"-0.062212"},"context":"","outcome_status":{"category":"Offender given a drugs possession warning","date":"2016-09"},"persistent_id":"00716ab70e5854907afbdf31944020e10291426ee623fe33cd94c5114030f2c9","id":50874664,"location_subtype":"","month":"2016-08"},{"category":"drugs","location_type":"Force","location":{"latitude":"51.628672","street":{"id":985477,"name":"On or near Petrol Station"},"longitude":"-0.074997"},"context":"","outcome_status":{"category":"Offender fined","date":"2016-09"},"persistent_id":"a01c9c9aa20371079bb2dca3e70169a4653ec35ec7edd9124cec7fe26ba59180","id":50929272,"location_subtype":"","month":"2016-08"},{"category":"other-theft","location_type":"Force","location":{"latitude":"51.628042","street":{"id":985428,"name":"On or near Cyprus Road"},"longitude":"-0.067886"},"context":"","outcome_status":{"category":"Investigation complete; no suspect identified","date":"2016-09"},"persistent_id":"b95709ec62ebddccf17339559181e48c5fd8466437f65b7a0ea63db9ae8e5211","id":50863978,"location_subtype":"","month":"2016-08"},{"category":"other-theft","location_type":"Force","location":{"latitude":"51.628672","street":{"id":985477,"name":"On or near Petrol Station"},"longitude":"-0.074997"},"context":"","outcome_status":{"category":"Investigation complete; no suspect identified","date":"2016-08"},"persistent_id":"91e50cc0e25000e7a12f863f9e9014fc17a93cf27769216f3058c327c5bc59d4","id":50927484,"location_subtype":"","month":"2016-08"},{"category":"other-theft","location_type":"Force","location":{"latitude":"51.628869","street":{"id":985391,"name":"On or near St Joan's Road"},"longitude":"-0.066738"},"context":"","outcome_status":{"category":"Status update unavailable","date":"2016-12"},"persistent_id":"e55349dcb18497f715aa642856f24af624d553511694170107e909d0347a4216","id":50921828,"location_subtype":"","month":"2016-08"},{"category":"other-theft","location_type":"Force","location":{"latitude":"51.621450","street":{"id":983601,"name":"On or near Westerham Avenue"},"longitude":"-0.078828"},"context":"","outcome_status":{"category":"Investigation complete; no suspect identified","date":"2016-08"},"persistent_id":"0dda21e79ec6c70334a2a2e9e3c7571ca76727efde82b0ecaa04a52305df01ef","id":50877533,"location_subtype":"","month":"2016-08"},{"category":"other-theft","location_type":"Force","location":{"latitude":"51.628672","street":{"id":985477,"name":"On or near Petrol Station"},"longitude":"-0.074997"},"context":"","outcome_status":{"category":"Investigation complete; no suspect identified","date":"2016-09"},"persistent_id":"ce5e0b36f4838703647e0121b01f2720d659ac430c77c9ede6a78a294b1656d9","id":50889037,"location_subtype":"","month":"2016-08"},{"category":"other-theft","location_type":"Force","location":{"latitude":"51.628042","street":{"id":985428,"name":"On or near Cyprus Road"},"longitude":"-0.067886"},"context":"","outcome_status":{"category":"Status update unavailable","date":"2016-12"},"persistent_id":"5853ffc73055ac03372688f02840cf41f25ea237a5451e0e1c1d265fdd139ebb","id":50890417,"location_subtype":"","month":"2016-08"},{"category":"other-theft","location_type":"Force","location":{"latitude":"51.628672","street":{"id":985477,"name":"On or near Petrol Station"},"longitude":"-0.074997"},"context":"","outcome_status":{"category":"Court result unavailable","date":"2017-05"},"persistent_id":"55bea97a1d041e7542c176d381a62c56faff89139138f38e28572677fc22d8a7","id":50929273,"location_subtype":"","month":"2016-08"},{"category":"other-theft","location_type":"Force","location":{"latitude":"51.629139","street":{"id":985485,"name":"On or near Sports\/recreation Area"},"longitude":"-0.078300"},"context":"","outcome_status":{"category":"Investigation complete; no suspect identified","date":"2016-12"},"persistent_id":"394b7510319ef6a4aa6e110bf6322297f086f8105d94d49eb8c7e2599cba8570","id":50867520,"location_subtype":"","month":"2016-08"},{"category":"other-theft","location_type":"Force","location":{"latitude":"51.628163","street":{"id":985473,"name":"On or near Church Street"},"longitude":"-0.074137"},"context":"","outcome_status":{"category":"Investigation complete; no suspect identified","date":"2016-08"},"persistent_id":"0e75a1503ec20bed32b94eb6f50aea01b3e77b9bb4be42c8a5b3be98ea606067","id":50883868,"location_subtype":"","month":"2016-08"},{"category":"other-theft","location_type":"Force","location":{"latitude":"51.630097","street":{"id":985437,"name":"On or near Chichester Road"},"longitude":"-0.063782"},"context":"","outcome_status":{"category":"Investigation complete; no suspect identified","date":"2016-08"},"persistent_id":"abaf966b857994bb553399b49ea2f43e40bad36f9610367fc1da1f39de6fd323","id":50856496,"location_subtype":"","month":"2016-08"},{"category":"possession-of-weapons","location_type":"Force","location":{"latitude":"51.627687","street":{"id":985435,"name":"On or near Church Lane"},"longitude":"-0.065445"},"context":"","outcome_status":{"category":"Status update unavailable","date":"2016-12"},"persistent_id":"a3f2239cee19f3ac506629dd8afeff5a51ea363179a474e15426601d0560455a","id":50868293,"location_subtype":"","month":"2016-08"},{"category":"public-order","location_type":"Force","location":{"latitude":"51.627687","street":{"id":985435,"name":"On or near Church Lane"},"longitude":"-0.065445"},"context":"","outcome_status":{"category":"Status update unavailable","date":"2016-12"},"persistent_id":"144ebda64dc4ee9df7a8f57a763ffc4900a532068ad07776f250a59d6543af5b","id":50865216,"location_subtype":"","month":"2016-08"},{"category":"public-order","location_type":"Force","location":{"latitude":"51.627687","street":{"id":985435,"name":"On or near Church Lane"},"longitude":"-0.065445"},"context":"","outcome_status":{"category":"Status update unavailable","date":"2016-12"},"persistent_id":"144ebda64dc4ee9df7a8f57a763ffc4900a532068ad07776f250a59d6543af5b","id":50865215,"location_subtype":"","month":"2016-08"},{"category":"public-order","location_type":"Force","location":{"latitude":"51.615258","street":{"id":983589,"name":"On or near Tanners End Lane"},"longitude":"-0.076287"},"context":"","outcome_status":{"category":"Status update unavailable","date":"2016-12"},"persistent_id":"22b2042b4dd5176304888337e64c14f6a1bfc80a174ef361c63bf6ce82e06f25","id":50883786,"location_subtype":"","month":"2016-08"},{"category":"public-order","location_type":"Force","location":{"latitude":"51.629620","street":{"id":985383,"name":"On or near Winchester Road"},"longitude":"-0.064308"},"context":"","outcome_status":{"category":"Investigation complete; no suspect identified","date":"2016-09"},"persistent_id":"d90f257eb213e3f177c8ffd1e68dd27d453ef6971e6c5bf57ed6016172cfe625","id":50856482,"location_subtype":"","month":"2016-08"},{"category":"public-order","location_type":"Force","location":{"latitude":"51.625920","street":{"id":985381,"name":"On or near Winchester Road"},"longitude":"-0.064610"},"context":"","outcome_status":{"category":"Investigation complete; no suspect identified","date":"2016-08"},"persistent_id":"ca47aa25b8718024bb6b77745f2c2ab257f33b23b60ea7822cc0a661d8dee295","id":50882348,"location_subtype":"","month":"2016-08"},{"category":"public-order","location_type":"Force","location":{"latitude":"51.627687","street":{"id":985435,"name":"On or near Church Lane"},"longitude":"-0.065445"},"context":"","outcome_status":{"category":"Investigation complete; no suspect identified","date":"2016-08"},"persistent_id":"144ebda64dc4ee9df7a8f57a763ffc4900a532068ad07776f250a59d6543af5b","id":50865217,"location_subtype":"","month":"2016-08"},{"category":"public-order","location_type":"Force","location":{"latitude":"51.614594","street":{"id":983598,"name":"On or near Dickens Lane"},"longitude":"-0.074206"},"context":"","outcome_status":{"category":"Investigation complete; no suspect identified","date":"2016-08"},"persistent_id":"41537de4c66936b6348f9cbfb8f93afdc34a8e4a51cd87a09c5bd978ec38957e","id":50853951,"location_subtype":"","month":"2016-08"},{"category":"public-order","location_type":"Force","location":{"latitude":"51.627687","street":{"id":985435,"name":"On or near Church Lane"},"longitude":"-0.065445"},"context":"","outcome_status":{"category":"Status update unavailable","date":"2016-12"},"persistent_id":"144ebda64dc4ee9df7a8f57a763ffc4900a532068ad07776f250a59d6543af5b","id":50865214,"location_subtype":"","month":"2016-08"},{"category":"robbery","location_type":"Force","location":{"latitude":"51.628869","street":{"id":985391,"name":"On or near St Joan's Road"},"longitude":"-0.066738"},"context":"","outcome_status":{"category":"Investigation complete; no suspect identified","date":"2016-09"},"persistent_id":"a2789923a1cd11f950ed1994188cb527c8c7c96b1ec2d3a2c6c6740c074e5e52","id":50876371,"location_subtype":"","month":"2016-08"},{"category":"robbery","location_type":"Force","location":{"latitude":"51.621084","street":{"id":983845,"name":"On or near Keston Close"},"longitude":"-0.081154"},"context":"","outcome_status":{"category":"Investigation complete; no suspect identified","date":"2016-09"},"persistent_id":"2d76ff146c2d8b197e1c94ff3ee20d487d50d9752a7bf6528936ce7d27205656","id":50868600,"location_subtype":"","month":"2016-08"},{"category":"robbery","location_type":"Force","location":{"latitude":"51.615102","street":{"id":983597,"name":"On or near Dorrit Mews"},"longitude":"-0.073332"},"context":"","outcome_status":{"category":"Offender given a caution","date":"2016-08"},"persistent_id":"667aae70dbd4d357e38e262195789019b0999f3a04d38a90c206093fe8a2d5a2","id":50879369,"location_subtype":"","month":"2016-08"},{"category":"theft-from-the-person","location_type":"Force","location":{"latitude":"51.628331","street":{"id":985462,"name":"On or near Stanley Road"},"longitude":"-0.070157"},"context":"","outcome_status":{"category":"Investigation complete; no suspect identified","date":"2016-11"},"persistent_id":"51a1a8b3bbd57aa02f38797a9c070d5f3fe02ba541ecd7972be762f41201beed","id":50887342,"location_subtype":"","month":"2016-08"},{"category":"theft-from-the-person","location_type":"Force","location":{"latitude":"51.625920","street":{"id":985381,"name":"On or near Winchester Road"},"longitude":"-0.064610"},"context":"","outcome_status":{"category":"Investigation complete; no suspect identified","date":"2016-08"},"persistent_id":"ac6819f81805749689f7392f2df4de6b8959c64c5323a828ec37d74d4f4c62a7","id":50854568,"location_subtype":"","month":"2016-08"},{"category":"vehicle-crime","location_type":"Force","location":{"latitude":"51.620074","street":{"id":983609,"name":"On or near Park Lane"},"longitude":"-0.073844"},"context":"","outcome_status":{"category":"Status update unavailable","date":"2016-12"},"persistent_id":"34edaaacf0394e96b172562642706d25befa48a0466bb9cff1298e414a6c8824","id":50875595,"location_subtype":"","month":"2016-08"},{"category":"vehicle-crime","location_type":"Force","location":{"latitude":"51.627200","street":{"id":985424,"name":"On or near Durham Road"},"longitude":"-0.064281"},"context":"","outcome_status":{"category":"Status update unavailable","date":"2016-12"},"persistent_id":"05038232e02c6e294dbee3d99c588c3ffdd210b1de27c6fe1668acf9932e4068","id":50873806,"location_subtype":"","month":"2016-08"},{"category":"vehicle-crime","location_type":"Force","location":{"latitude":"51.626714","street":{"id":985406,"name":"On or near Lichfield Road"},"longitude":"-0.064793"},"context":"","outcome_status":{"category":"Status update unavailable","date":"2016-12"},"persistent_id":"d2b848db89a90d1270adad906022687ac4b28158db87f65e80ed9c47db24a8db","id":50873539,"location_subtype":"","month":"2016-08"},{"category":"vehicle-crime","location_type":"Force","location":{"latitude":"51.620405","street":{"id":983841,"name":"On or near Shortlands Close"},"longitude":"-0.081443"},"context":"","outcome_status":{"category":"Status update unavailable","date":"2016-12"},"persistent_id":"4acf4e862df87e34981262ec431f9e643971edcf998b8a46f96ca297895a60d5","id":50861270,"location_subtype":"","month":"2016-08"},{"category":"vehicle-crime","location_type":"Force","location":{"latitude":"51.625788","street":{"id":985291,"name":"On or near Latymer Way"},"longitude":"-0.079034"},"context":"","outcome_status":{"category":"Status update unavailable","date":"2016-12"},"persistent_id":"e453f962acd5412243072e91d208a01cfc7b203d249788ea1298c77e6402fc2b","id":50869427,"location_subtype":"","month":"2016-08"},{"category":"vehicle-crime","location_type":"Force","location":{"latitude":"51.616464","street":{"id":983800,"name":"On or near Kendal Parade"},"longitude":"-0.084571"},"context":"","outcome_status":{"category":"Status update unavailable","date":"2016-12"},"persistent_id":"4f3947f81131222b09bfc9e9f43a3c9deccaa43383466a88ac773973737527e4","id":50885491,"location_subtype":"","month":"2016-08"},{"category":"vehicle-crime","location_type":"Force","location":{"latitude":"51.629254","street":{"id":985389,"name":"On or near Streamside Close"},"longitude":"-0.069395"},"context":"","outcome_status":{"category":"Status update unavailable","date":"2016-12"},"persistent_id":"5776e22194cc2760c9b4d80ea29e7f4ec0b495022d7e9147a1871189dee72d19","id":50888792,"location_subtype":"","month":"2016-08"},{"category":"vehicle-crime","location_type":"Force","location":{"latitude":"51.632691","street":{"id":985441,"name":"On or near Bury Street"},"longitude":"-0.065160"},"context":"","outcome_status":{"category":"Status update unavailable","date":"2016-12"},"persistent_id":"187e131144e98f7d76345cc407f144242dd3a1f9b619fe487e1975f9ac8af9a7","id":50882908,"location_subtype":"","month":"2016-08"},{"category":"vehicle-crime","location_type":"Force","location":{"latitude":"51.626081","street":{"id":985467,"name":"On or near Laburnum Avenue"},"longitude":"-0.072188"},"context":"","outcome_status":{"category":"Status update unavailable","date":"2016-12"},"persistent_id":"37e53085752fcacd1e627215b4b0d71dc3446c3ca540026b2956b1f0144ce327","id":50872484,"location_subtype":"","month":"2016-08"},{"category":"vehicle-crime","location_type":"Force","location":{"latitude":"51.615102","street":{"id":983597,"name":"On or near Dorrit Mews"},"longitude":"-0.073332"},"context":"","outcome_status":{"category":"Status update unavailable","date":"2016-12"},"persistent_id":"9a9774efd9a0d50d82e76e129f81e0f38310b01b994b9f4c66bd9bb7ac9c9f82","id":50860288,"location_subtype":"","month":"2016-08"},{"category":"vehicle-crime","location_type":"Force","location":{"latitude":"51.629620","street":{"id":985383,"name":"On or near Winchester Road"},"longitude":"-0.064308"},"context":"","outcome_status":{"category":"Status update unavailable","date":"2016-12"},"persistent_id":"ee3fac7f4610f5adca17776adbdc632b8ad1db2c6d2f05b5be3113f362afe755","id":50885668,"location_subtype":"","month":"2016-08"},{"category":"vehicle-crime","location_type":"Force","location":{"latitude":"51.620074","street":{"id":983609,"name":"On or near Park Lane"},"longitude":"-0.073844"},"context":"","outcome_status":{"category":"Investigation complete; no suspect identified","date":"2016-08"},"persistent_id":"42aba19a8cfb3982afdb388e6221c2affb84818e5a7c6048aee6181875d58d94","id":50852160,"location_subtype":"","month":"2016-08"},{"category":"vehicle-crime","location_type":"Force","location":{"latitude":"51.631271","street":{"id":985408,"name":"On or near Lancing Gardens"},"longitude":"-0.066289"},"context":"","outcome_status":{"category":"Status update unavailable","date":"2016-12"},"persistent_id":"af33864ef6b40b2f64f03811859871a34bf6fef128020119e401b5c765d6bf7a","id":50853616,"location_subtype":"","month":"2016-08"},{"category":"vehicle-crime","location_type":"Force","location":{"latitude":"51.626261","street":{"id":985442,"name":"On or near Beechwood Mews"},"longitude":"-0.064017"},"context":"","outcome_status":{"category":"Status update unavailable","date":"2016-12"},"persistent_id":"3401154fc5a3d4915165f803230e97cf25b694536e39e2d2b97a444c0d3e2c7d","id":50919448,"location_subtype":"","month":"2016-08"},{"category":"vehicle-crime","location_type":"Force","location":{"latitude":"51.617456","street":{"id":983846,"name":"On or near Kendal Gardens"},"longitude":"-0.084211"},"context":"","outcome_status":{"category":"Status update unavailable","date":"2016-12"},"persistent_id":"48318151bd5bc2116b77a0dbc90b102d2313788bcd9e15ee4c906e947ec108af","id":50879485,"location_subtype":"","month":"2016-08"},{"category":"violent-crime","location_type":"Force","location":{"latitude":"51.626240","street":{"id":985405,"name":"On or near Lion Road"},"longitude":"-0.062212"},"context":"","outcome_status":{"category":"Status update unavailable","date":"2016-12"},"persistent_id":"8df740d34c3be3a0b210785936d439bf9476d0b054a476a4d54c2d60a84ef522","id":50875642,"location_subtype":"","month":"2016-08"},{"category":"violent-crime","location_type":"Force","location":{"latitude":"51.632854","street":{"id":985418,"name":"On or near Harrow Drive"},"longitude":"-0.068476"},"context":"","outcome_status":{"category":"Investigation complete; no suspect identified","date":"2018-05"},"persistent_id":"d3e6e66536c314c1ed82018236881b2862ddb8481caec4a6c503e7ab2610c3a3","id":50875956,"location_subtype":"","month":"2016-08"},{"category":"violent-crime","location_type":"Force","location":{"latitude":"51.627883","street":{"id":985402,"name":"On or near Milestone Close"},"longitude":"-0.063125"},"context":"","outcome_status":{"category":"Investigation complete; no suspect identified","date":"2016-11"},"persistent_id":"b415830d23b4ffac28d90cd4d62f5df1a5518a7c874a60915ee1df6068f84642","id":50920537,"location_subtype":"","month":"2016-08"},{"category":"violent-crime","location_type":"Force","location":{"latitude":"51.621116","street":{"id":983614,"name":"On or near Hazelbury Lane"},"longitude":"-0.074349"},"context":"","outcome_status":{"category":"Investigation complete; no suspect identified","date":"2017-04"},"persistent_id":"db5d3d9a7a9ffff053d3891a46fd57b01f35fd802d96a6263d6308bb661fff12","id":50879226,"location_subtype":"","month":"2016-08"},{"category":"violent-crime","location_type":"Force","location":{"latitude":"51.615102","street":{"id":983597,"name":"On or near Dorrit Mews"},"longitude":"-0.073332"},"context":"","outcome_status":{"category":"Investigation complete; no suspect identified","date":"2016-10"},"persistent_id":"93cb28a154df56e7ad70f9b77cea92d4a458bfecbad523246ed2d0ed8d7952dc","id":50870900,"location_subtype":"","month":"2016-08"},{"category":"violent-crime","location_type":"Force","location":{"latitude":"51.628331","street":{"id":985462,"name":"On or near Stanley Road"},"longitude":"-0.070157"},"context":"","outcome_status":{"category":"Status update unavailable","date":"2016-12"},"persistent_id":"b2ad0a107f28646b2aa78bccc87930e066e87f1eee5b098a5f95facd14830be9","id":50869544,"location_subtype":"","month":"2016-08"},{"category":"violent-crime","location_type":"Force","location":{"latitude":"51.619157","street":{"id":983840,"name":"On or near Windmill Road"},"longitude":"-0.080427"},"context":"","outcome_status":{"category":"Investigation complete; no suspect identified","date":"2016-11"},"persistent_id":"7cdf06bd996e793d7a6d7e7799cd3271c17b4b536aa6a39a77eb1cccf176f8ed","id":50869528,"location_subtype":"","month":"2016-08"},{"category":"violent-crime","location_type":"Force","location":{"latitude":"51.621116","street":{"id":983614,"name":"On or near Hazelbury Lane"},"longitude":"-0.074349"},"context":"","outcome_status":{"category":"Investigation complete; no suspect identified","date":"2017-04"},"persistent_id":"390f70c642134628f6cf9d8cc0fa84762a9e698ab55a2b23c0b029ebd0d1ef33","id":50928191,"location_subtype":"","month":"2016-08"},{"category":"violent-crime","location_type":"Force","location":{"latitude":"51.628672","street":{"id":985477,"name":"On or near Petrol Station"},"longitude":"-0.074997"},"context":"","outcome_status":{"category":"Investigation complete; no suspect identified","date":"2016-09"},"persistent_id":"5beb92315079887cf322de2517b43508da19163896140883e8fb86e23a9dc09b","id":50884091,"location_subtype":"","month":"2016-08"},{"category":"violent-crime","location_type":"Force","location":{"latitude":"51.626240","street":{"id":985405,"name":"On or near Lion Road"},"longitude":"-0.062212"},"context":"","outcome_status":{"category":"Investigation complete; no suspect identified","date":"2016-08"},"persistent_id":"ed08981c0a7cac852b0f0f9e45325115cf142b7c56d1e8bec84aa3fdf990d779","id":50881422,"location_subtype":"","month":"2016-08"},{"category":"violent-crime","location_type":"Force","location":{"latitude":"51.616498","street":{"id":983806,"name":"On or near Pedestrian Subway"},"longitude":"-0.086100"},"context":"","outcome_status":{"category":"Investigation complete; no suspect identified","date":"2017-09"},"persistent_id":"623b8a62d4e4c808089880f74467a4e70d9d2d90a7d2aaab8f3b11dc4fe07d3b","id":50885229,"location_subtype":"","month":"2016-08"},{"category":"violent-crime","location_type":"Force","location":{"latitude":"51.618066","street":{"id":983620,"name":"On or near Bulwer Road"},"longitude":"-0.074767"},"context":"","outcome_status":{"category":"Offender fined","date":"2016-10"},"persistent_id":"f5dd1da4519e9660e72e5ca0cba2bf73fa75bc436738a846aa59a6212abd8e5b","id":50871824,"location_subtype":"","month":"2016-08"},{"category":"violent-crime","location_type":"Force","location":{"latitude":"51.617978","street":{"id":983608,"name":"On or near Sheldon Road"},"longitude":"-0.073817"},"context":"","outcome_status":{"category":"Court result unavailable","date":"2017-05"},"persistent_id":"5dcf5515e120ae495764cb6c9d400c4f8a7ffaf5fe76b88946752778d32855f5","id":50917985,"location_subtype":"","month":"2016-08"},{"category":"violent-crime","location_type":"Force","location":{"latitude":"51.626262","street":{"id":985434,"name":"On or near Church Street"},"longitude":"-0.065722"},"context":"","outcome_status":{"category":"Defendant found not guilty","date":"2016-10"},"persistent_id":"7203ca9649cc53bee767d8f7c6432110a5444eb419463581da4251af0074cfb1","id":50859494,"location_subtype":"","month":"2016-08"},{"category":"violent-crime","location_type":"Force","location":{"latitude":"51.617978","street":{"id":983608,"name":"On or near Sheldon Road"},"longitude":"-0.073817"},"context":"","outcome_status":{"category":"Investigation complete; no suspect identified","date":"2016-11"},"persistent_id":"ca156a20d5daf99733fffef3b2a7a8457ce1acf41eb476f553d11aac6ca0020b","id":50854492,"location_subtype":"","month":"2016-08"},{"category":"violent-crime","location_type":"Force","location":{"latitude":"51.626240","street":{"id":985405,"name":"On or near Lion Road"},"longitude":"-0.062212"},"context":"","outcome_status":{"category":"Court result unavailable","date":"2017-06"},"persistent_id":"7f8b24c9288e03b24fdf28a4c0f960cf29118063e54408730afcbad0ea796a10","id":50864362,"location_subtype":"","month":"2016-08"},{"category":"violent-crime","location_type":"Force","location":{"latitude":"51.623566","street":{"id":985499,"name":"On or near Chalfont Green"},"longitude":"-0.072916"},"context":"","outcome_status":{"category":"Court result unavailable","date":"2017-02"},"persistent_id":"dc3c29d82f9971900152fa722f657b520e17bb1b08e23b0ecf154c124e297a8e","id":50926732,"location_subtype":"","month":"2016-08"},{"category":"violent-crime","location_type":"Force","location":{"latitude":"51.628680","street":{"id":985461,"name":"On or near Tillotson Road"},"longitude":"-0.071673"},"context":"","outcome_status":{"category":"Status update unavailable","date":"2016-12"},"persistent_id":"6d5cbfa3908b55a582b41ae083c0562f7b449e4f24922dcd60d47d60f1a8bdc5","id":50929520,"location_subtype":"","month":"2016-08"},{"category":"violent-crime","location_type":"Force","location":{"latitude":"51.617260","street":{"id":983611,"name":"On or near Lopen Road"},"longitude":"-0.077199"},"context":"","outcome_status":{"category":"Status update unavailable","date":"2016-12"},"persistent_id":"c0eef1de41954d231b6ab8b5ac391427a4975633ce5c4abd25087f87fa544daa","id":50889800,"location_subtype":"","month":"2016-08"},{"category":"violent-crime","location_type":"Force","location":{"latitude":"51.626240","street":{"id":985405,"name":"On or near Lion Road"},"longitude":"-0.062212"},"context":"","outcome_status":{"category":"Investigation complete; no suspect identified","date":"2017-03"},"persistent_id":"22a835d2cef0b8295100486ed9e72dd82acd4691c424c9438179a63d34e66d70","id":50866585,"location_subtype":"","month":"2016-08"},{"category":"violent-crime","location_type":"Force","location":{"latitude":"51.628672","street":{"id":985477,"name":"On or near Petrol Station"},"longitude":"-0.074997"},"context":"","outcome_status":{"category":"Investigation complete; no suspect identified","date":"2018-03"},"persistent_id":"2bf1554d546f033dcfd6986d9cb858ab2f4ca8c7f0b740fad6af499387887a27","id":50868242,"location_subtype":"","month":"2016-08"},{"category":"violent-crime","location_type":"Force","location":{"latitude":"51.625831","street":{"id":985394,"name":"On or near Sawyer Close"},"longitude":"-0.061970"},"context":"","outcome_status":{"category":"Investigation complete; no suspect identified","date":"2016-08"},"persistent_id":"f132b5c09944a2a209e7e302870975e0ee9af8929640fdddc778116c08f04001","id":50878889,"location_subtype":"","month":"2016-08"},{"category":"violent-crime","location_type":"Force","location":{"latitude":"51.615258","street":{"id":983589,"name":"On or near Tanners End Lane"},"longitude":"-0.076287"},"context":"","outcome_status":{"category":"Investigation complete; no suspect identified","date":"2016-09"},"persistent_id":"eab8782040727b00d8a42e5315dd2237f70e4e1514280b427559de32a884251a","id":50877584,"location_subtype":"","month":"2016-08"},{"category":"violent-crime","location_type":"Force","location":{"latitude":"51.625831","street":{"id":985394,"name":"On or near Sawyer Close"},"longitude":"-0.061970"},"context":"","outcome_status":{"category":"Investigation complete; no suspect identified","date":"2018-02"},"persistent_id":"bbedc490a84dd7b55a740fa6afee6019276ad3944cfd9e7d73612e450044b857","id":50862503,"location_subtype":"","month":"2016-08"},{"category":"violent-crime","location_type":"Force","location":{"latitude":"51.626240","street":{"id":985405,"name":"On or near Lion Road"},"longitude":"-0.062212"},"context":"","outcome_status":{"category":"Status update unavailable","date":"2016-12"},"persistent_id":"7f8b24c9288e03b24fdf28a4c0f960cf29118063e54408730afcbad0ea796a10","id":50864361,"location_subtype":"","month":"2016-08"},{"category":"violent-crime","location_type":"Force","location":{"latitude":"51.626240","street":{"id":985405,"name":"On or near Lion Road"},"longitude":"-0.062212"},"context":"","outcome_status":{"category":"Status update unavailable","date":"2016-12"},"persistent_id":"7f8b24c9288e03b24fdf28a4c0f960cf29118063e54408730afcbad0ea796a10","id":50864360,"location_subtype":"","month":"2016-08"},{"category":"violent-crime","location_type":"Force","location":{"latitude":"51.626240","street":{"id":985405,"name":"On or near Lion Road"},"longitude":"-0.062212"},"context":"","outcome_status":{"category":"Status update unavailable","date":"2016-12"},"persistent_id":"7f8b24c9288e03b24fdf28a4c0f960cf29118063e54408730afcbad0ea796a10","id":50864359,"location_subtype":"","month":"2016-08"},{"category":"violent-crime","location_type":"Force","location":{"latitude":"51.622303","street":{"id":983619,"name":"On or near Chalfont Road"},"longitude":"-0.073244"},"context":"","outcome_status":{"category":"Investigation complete; no suspect identified","date":"2016-09"},"persistent_id":"3946f5573b6da77d7a7157d76d23b637afd27d26b33b743a8c2b63e613469a01","id":50870730,"location_subtype":"","month":"2016-08"},{"category":"violent-crime","location_type":"Force","location":{"latitude":"51.628331","street":{"id":985462,"name":"On or near Stanley Road"},"longitude":"-0.070157"},"context":"","outcome_status":{"category":"Investigation complete; no suspect identified","date":"2016-09"},"persistent_id":"570bd0f1d9454135244bb0b596417e67623f7716255176d108455dcfddf34293","id":50870834,"location_subtype":"","month":"2016-08"},{"category":"violent-crime","location_type":"Force","location":{"latitude":"51.627145","street":{"id":985396,"name":"On or near Ruskin Walk"},"longitude":"-0.063084"},"context":"","outcome_status":{"category":"Investigation complete; no suspect identified","date":"2016-09"},"persistent_id":"f5708054ac992e02f98fb0968a2e3955354258a2b620756d07612e49af2789bf","id":50867127,"location_subtype":"","month":"2016-08"},{"category":"violent-crime","location_type":"Force","location":{"latitude":"51.630254","street":{"id":985390,"name":"On or near Stowe Gardens"},"longitude":"-0.065697"},"context":"","outcome_status":{"category":"Investigation complete; no suspect identified","date":"2016-08"},"persistent_id":"3db8ab670969bed7f4405b55e2a41dae3840a8dc1240c0791975f87731dd21c2","id":50928615,"location_subtype":"","month":"2016-08"},{"category":"violent-crime","location_type":"Force","location":{"latitude":"51.615122","street":{"id":983591,"name":"On or near Statham Grove"},"longitude":"-0.076740"},"context":"","outcome_status":{"category":"Offender given suspended prison sentence","date":"2016-12"},"persistent_id":"b8fa2f46b21c9abad4f8ed2fc653fff7612fe5e968412a8fc92cd4bafbc06d89","id":50881827,"location_subtype":"","month":"2016-08"},{"category":"violent-crime","location_type":"Force","location":{"latitude":"51.626262","street":{"id":985434,"name":"On or near Church Street"},"longitude":"-0.065722"},"context":"","outcome_status":{"category":"Investigation complete; no suspect identified","date":"2016-08"},"persistent_id":"91ee305bab5efbc1603abe854bfd2e967e0a5418e791cfe111cc27114373bad6","id":50861619,"location_subtype":"","month":"2016-08"},{"category":"violent-crime","location_type":"Force","location":{"latitude":"51.620074","street":{"id":983609,"name":"On or near Park Lane"},"longitude":"-0.073844"},"context":"","outcome_status":{"category":"Investigation complete; no suspect identified","date":"2016-08"},"persistent_id":"987715624e778ce576790ccd385210f119411f15f3ada676f7257bb726c4ceb0","id":50860828,"location_subtype":"","month":"2016-08"},{"category":"violent-crime","location_type":"Force","location":{"latitude":"51.619157","street":{"id":983840,"name":"On or near Windmill Road"},"longitude":"-0.080427"},"context":"","outcome_status":{"category":"Court result unavailable","date":"2017-05"},"persistent_id":"0beda54d5aa7e6b5d3eb5b5cad8a38a056868482ae652b5ea965f272e4c9ae5e","id":50888562,"location_subtype":"","month":"2016-08"},{"category":"violent-crime","location_type":"Force","location":{"latitude":"51.615398","street":{"id":983593,"name":"On or near Silver Street"},"longitude":"-0.072236"},"context":"","outcome_status":{"category":"Investigation complete; no suspect identified","date":"2016-08"},"persistent_id":"9df83b55c859480e9fb8771770ef6cef616b5c61dcb1b46b940eceef6ff56b93","id":50865691,"location_subtype":"","month":"2016-08"},{"category":"violent-crime","location_type":"Force","location":{"latitude":"51.624240","street":{"id":985374,"name":"On or near Perry Gardens"},"longitude":"-0.080068"},"context":"","outcome_status":{"category":"Investigation complete; no suspect identified","date":"2017-10"},"persistent_id":"4ce314852d9336eb8567c97b9e8489f2ce8e7f185e777727290d8dd885eed497","id":50861874,"location_subtype":"","month":"2016-08"},{"category":"other-crime","location_type":"Force","location":{"latitude":"51.627132","street":{"id":985379,"name":"On or near Wyldfield Gardens"},"longitude":"-0.067751"},"context":"","outcome_status":{"category":"Investigation complete; no suspect identified","date":"2016-10"},"persistent_id":"34fd78b5aa01d5b1baefa3ff92920254013ab236f7501761853ce994a3e87277","id":50856380,"location_subtype":"","month":"2016-08"}]