[{"category":"anti-social-behaviour","location_type":"Force","location":{"latitude":"51.462779","street":{"id":942726,"name":"On or near Bromell's Road"},"longitude":"-0.138563"},"context":"","outcome_status":null,"persistent_id":"","id":49553874,"location_subtype":"","month":"2016-06"},{"category":"anti-social-behaviour","location_type":"Force","location":{"latitude":"51.463810","street":{"id":942882,"name":"On or near Cedars Road"},"longitude":"-0.149750"},"context":"","outcome_status":null,"persistent_id":"","id":49553904,"location_subtype":"","month":"2016-06"},{"category":"anti-social-behaviour","location_type":"Force","location":{"latitude":"51.463810","street":{"id":942882,"name":"On or near Cedars Road"},"longitude":"-0.149750"},"context":"","outcome_status":null,"persistent_id":"","id":49553902,"location_subtype":"","month":"2016-06"},{"category":"anti-social-behaviour","location_type":"Force","location":{"latitude":"51.462711","street":{"id":942716,"name":"On or near Clapham High Street"},"longitude":"-0.135471"},"context":"","outcome_status":null,"persistent_id":"","id":49553196,"location_subtype":"","month":"2016-06"},{"category":"anti-social-behaviour","location_type":"Force","location":{"latitude":"51.462711","street":{"id":942716,"name":"On or near Clapham High Street"},"longitude":"-0.135471"},"context":"","outcome_status":null,"persistent_id":"","id":49553197,"location_subtype":"","month":"2016-06"},{"category":"anti-social-behaviour","location_type":"Force","location":{"latitude":"51.462341","street":{"id":942739,"name":"On or near Supermarket"},"longitude":"-0.135903"},"context":"","outcome_status":null,"persistent_id":"","id":49553212,"location_subtype":"","month":"2016-06"},{"category":"anti-social-behaviour","location_type":"Force","location":{"latitude":"51.462836","street":{"id":942931,"name":"On or near Wix's Lane"},"longitude":"-0.150740"},"context":"","outcome_status":null,"persistent_id":"","id":49553905,"location_subtype":"","month":"2016-06"},{"category":"anti-social-behaviour","location_type":"Force","location":{"latitude":"51.462341","street":{"id":942739,"name":"On or near Supermarket"},"longitude":"-0.135903"},"context":"","outcome_status":null,"persistent_id":"","id":49553213,"location_subtype":"","month":"2016-06"},{"category":"anti-social-behaviour","location_type":"Force","location":{"latitude":"51.462341","street":{"id":942739,"name":"On or near Supermarket"},"longitude":"-0.135903"},"context":"","outcome_status":null,"persistent_id":"","id":49553214,"location_subtype":"","month":"2016-06"},{"category":"anti-social-behaviour","location_type":"Force","location":{"latitude":"51.462341","street":{"id":942739,"name":"On or near Supermarket"},"longitude":"-0.135903"},"context":"","outcome_status":null,"persistent_id":"","id":49553215,"location_subtype":"","month":"2016-06"},{"category":"anti-social-behaviour","location_type":"Force","location":{"latitude":"51.462341","street":{"id":942739,"name":"On or near Supermarket"},"longitude":"-0.135903"},"context":"","outcome_status":null,"persistent_id":"","id":49553216,"location_subtype":"","month":"2016-06"},{"category":"anti-social-behaviour","location_type":"Force","location":{"latitude":"51.466818","street":{"id":945836,"name":"On or near Cubitt Terrace"},"longitude":"-0.138687"},"context":"","outcome_status":null,"persistent_id":"","id":49553225,"location_subtype":"","month":"2016-06"},{"category":"anti-social-behaviour","location_type":"Force","location":{"latitude":"51.469137","street":{"id":945839,"name":"On or near Brayburne Avenue"},"longitude":"-0.138636"},"context":"","outcome_status":null,"persistent_id":"","id":49553228,"location_subtype":"","month":"2016-06"},{"category":"anti-social-behaviour","location_type":"Force","location":{"latitude":"51.469137","street":{"id":945839,"name":"On or near Brayburne Avenue"},"longitude":"-0.138636"},"context":"","outcome_status":null,"persistent_id":"","id":49553872,"location_subtype":"","month":"2016-06"},{"category":"anti-social-behaviour","location_type":"Force","location":{"latitude":"51.462779","street":{"id":942726,"name":"On or near Bromell's Road"},"longitude":"-0.138563"},"context":"","outcome_status":null,"persistent_id":"","id":49553873,"location_subtype":"","month":"2016-06"},{"category":"anti-social-behaviour","location_type":"Force","location":{"latitude":"51.463810","street":{"id":942882,"name":"On or near Cedars Road"},"longitude":"-0.149750"},"context":"","outcome_status":null,"persistent_id":"","id":49553903,"location_subtype":"","month":"2016-06"},{"category":"anti-social-behaviour","location_type":"Force","location":{"latitude":"51.462779","street":{"id":942726,"name":"On or near Bromell's Road"},"longitude":"-0.138563"},"context":"","outcome_status":null,"persistent_id":"","id":49553875,"location_subtype":"","month":"2016-06"},{"category":"anti-social-behaviour","location_type":"Force","location":{"latitude":"51.469696","street":{"id":945757,"name":"On or near St Rule Street"},"longitude":"-0.142644"},"context":"","outcome_status":null,"persistent_id":"","id":49553882,"location_subtype":"","month":"2016-06"},{"category":"anti-social-behaviour","location_type":"Force","location":{"latitude":"51.469696","street":{"id":945757,"name":"On or near St Rule Street"},"longitude":"-0.142644"},"context":"","outcome_status":null,"persistent_id":"","id":49553883,"location_subtype":"","month":"2016-06"},{"category":"anti-social-behaviour","location_type":"Force","location":{"latitude":"51.468428","street":{"id":945802,"name":"On or near Iveley Road"},"longitude":"-0.141501"},"context":"","outcome_status":null,"persistent_id":"","id":49553884,"location_subtype":"","month":"2016-06"},{"category":"anti-social-behaviour","location_type":"Force","location":{"latitude":"51.469696","street":{"id":945757,"name":"On or near St Rule Street"},"longitude":"-0.142644"},"context":"","outcome_status":null,"persistent_id":"","id":49553885,"location_subtype":"","month":"2016-06"},{"category":"anti-social-behaviour","location_type":"Force","location":{"latitude":"51.462238","street":{"id":942660,"name":"On or near Clapham Common North Side"},"longitude":"-0.144156"},"context":"","outcome_status":null,"persistent_id":"","id":49553893,"location_subtype":"","month":"2016-06"},{"category":"anti-social-behaviour","location_type":"Force","location":{"latitude":"51.467807","street":{"id":945822,"name":"On or near Bev Callender Close"},"longitude":"-0.147717"},"context":"","outcome_status":null,"persistent_id":"","id":49553899,"location_subtype":"","month":"2016-06"},{"category":"anti-social-behaviour","location_type":"Force","location":{"latitude":"51.467598","street":{"id":945674,"name":"On or near Heather Close"},"longitude":"-0.149324"},"context":"","outcome_status":null,"persistent_id":"","id":49553901,"location_subtype":"","month":"2016-06"},{"category":"anti-social-behaviour","location_type":"Force","location":{"latitude":"51.462836","street":{"id":942931,"name":"On or near Wix's Lane"},"longitude":"-0.150740"},"context":"","outcome_status":null,"persistent_id":"","id":49553906,"location_subtype":"","month":"2016-06"},{"category":"anti-social-behaviour","location_type":"Force","location":{"latitude":"51.464925","street":{"id":942670,"name":"On or near Voltaire Road"},"longitude":"-0.133264"},"context":"","outcome_status":null,"persistent_id":"","id":49553172,"location_subtype":"","month":"2016-06"},{"category":"anti-social-behaviour","location_type":"Force","location":{"latitude":"51.465381","street":{"id":942693,"name":"On or near Littlebury Road"},"longitude":"-0.134800"},"context":"","outcome_status":null,"persistent_id":"","id":49553195,"location_subtype":"","month":"2016-06"},{"category":"bicycle-theft","location_type":"Force","location":{"latitude":"51.465340","street":{"id":942654,"name":"On or near Lydon Road"},"longitude":"-0.142461"},"context":"","outcome_status":{"category":"Investigation complete; no suspect identified","date":"2016-07"},"persistent_id":"9101dfd278fc4736e17d8adda2906a5e7326c589501370fe8a9d1fd7ba8f2f72","id":49624258,"location_subtype":"","month":"2016-06"},{"category":"bicycle-theft","location_type":"Force","location":{"latitude":"51.468076","street":{"id":945829,"name":"On or near Larkhall Rise"},"longitude":"-0.138016"},"context":"","outcome_status":{"category":"Status update unavailable","date":"2016-10"},"persistent_id":"6740a20244f5824f4e1dd63e7e0e257e899eb5287cd792b3b2edace1533f2a33","id":49618814,"location_subtype":"","month":"2016-06"},{"category":"bicycle-theft","location_type":"Force","location":{"latitude":"51.462203","street":{"id":942738,"name":"On or near Supermarket"},"longitude":"-0.137982"},"context":"","outcome_status":{"category":"Investigation complete; no suspect identified","date":"2016-10"},"persistent_id":"2116ad686743b331a4ca3b876fd0b53c05e79c9ba383ae2bd5ba1646b9814234","id":49621268,"location_subtype":"","month":"2016-06"},{"category":"bicycle-theft","location_type":"Force","location":{"latitude":"51.466578","street":{"id":945833,"name":"On or near Elmhurst Street"},"longitude":"-0.135990"},"context":"","outcome_status":{"category":"Status update unavailable","date":"2016-10"},"persistent_id":"f267dd38415d3931e2db1005f68e037507da80c64c4b18280c64b904487f248a","id":49578678,"location_subtype":"","month":"2016-06"},{"category":"bicycle-theft","location_type":"Force","location":{"latitude":"51.461539","street":{"id":942637,"name":"On or near Clapham Common North Side"},"longitude":"-0.147755"},"context":"","outcome_status":{"category":"Investigation complete; no suspect identified","date":"2016-07"},"persistent_id":"cf234141ffe3280e73fae0a333396e8d149bc21551a7f50cdf3013f2231e3727","id":49596765,"location_subtype":"","month":"2016-06"},{"category":"burglary","location_type":"Force","location":{"latitude":"51.462791","street":{"id":942672,"name":"On or near Venn Street"},"longitude":"-0.138203"},"context":"","outcome_status":{"category":"Investigation complete; no suspect identified","date":"2016-11"},"persistent_id":"9225af540f54c94b72c6953f6b4c40ed1b6ae2ba87180931714712921e71078e","id":49597773,"location_subtype":"","month":"2016-06"},{"category":"burglary","location_type":"Force","location":{"latitude":"51.468408","street":{"id":945793,"name":"On or near Stone Close"},"longitude":"-0.139673"},"context":"","outcome_status":{"category":"Status update unavailable","date":"2016-10"},"persistent_id":"aaedf84289c2daff52bdc70a592ba0130864256e8c067825c891f94c97dd4867","id":49610671,"location_subtype":"","month":"2016-06"},{"category":"burglary","location_type":"Force","location":{"latitude":"51.462275","street":{"id":942638,"name":"On or near Cedars Mews"},"longitude":"-0.148805"},"context":"","outcome_status":{"category":"Investigation complete; no suspect identified","date":"2016-07"},"persistent_id":"f3d156dedabd649056c02ddab8ce66fe8b1e9aa51caf8fc93ff0b0e54d9af8c0","id":49620802,"location_subtype":"","month":"2016-06"},{"category":"burglary","location_type":"Force","location":{"latitude":"51.469023","street":{"id":945809,"name":"On or near Petrol Station"},"longitude":"-0.142729"},"context":"","outcome_status":{"category":"Status update unavailable","date":"2016-10"},"persistent_id":"bea241d70da13d2fde93b2b167d85dbdf0791befff2715bd854a33e0c3956583","id":49629820,"location_subtype":"","month":"2016-06"},{"category":"burglary","location_type":"Force","location":{"latitude":"51.465957","street":{"id":942639,"name":"On or near Conference\/exhibition Centre"},"longitude":"-0.147346"},"context":"","outcome_status":{"category":"Defendant found not guilty","date":"2016-11"},"persistent_id":"947f17d323a5d65ef71cc0857d1528852d642a2683083fec66d9a259ac7ae988","id":49623743,"location_subtype":"","month":"2016-06"},{"category":"burglary","location_type":"Force","location":{"latitude":"51.463810","street":{"id":942882,"name":"On or near Cedars Road"},"longitude":"-0.149750"},"context":"","outcome_status":{"category":"Status update unavailable","date":"2016-10"},"persistent_id":"01acb4022c1c6ac8516d301e0e591007e7dc461ae00941cbea55b940b53aab91","id":49596732,"location_subtype":"","month":"2016-06"},{"category":"burglary","location_type":"Force","location":{"latitude":"51.462238","street":{"id":942660,"name":"On or near Clapham Common North Side"},"longitude":"-0.144156"},"context":"","outcome_status":{"category":"Status update unavailable","date":"2016-10"},"persistent_id":"f5c59629f362e759456037b770cf7bc9468ac457e558b091e6bfa4e381413a53","id":49576498,"location_subtype":"","month":"2016-06"},{"category":"burglary","location_type":"Force","location":{"latitude":"51.464062","street":{"id":942707,"name":"On or near Cresset Street"},"longitude":"-0.136164"},"context":"","outcome_status":{"category":"Status update unavailable","date":"2016-10"},"persistent_id":"b484d310e5d796bc753e00dcbfeadd526c3c7ebe68dc312bb5da6f2075e9faaf","id":49628689,"location_subtype":"","month":"2016-06"},{"category":"burglary","location_type":"Force","location":{"latitude":"51.466818","street":{"id":945836,"name":"On or near Cubitt Terrace"},"longitude":"-0.138687"},"context":"","outcome_status":{"category":"Investigation complete; no suspect identified","date":"2016-07"},"persistent_id":"ab362f4dd907c134e46dd4f1f1739a114378fc226dc5b23fa676843139754087","id":49626198,"location_subtype":"","month":"2016-06"},{"category":"burglary","location_type":"Force","location":{"latitude":"51.469137","street":{"id":945839,"name":"On or near Brayburne Avenue"},"longitude":"-0.138636"},"context":"","outcome_status":{"category":"Status update unavailable","date":"2016-10"},"persistent_id":"b75bf1a9585b41beb29804f7393596c76d7270f272983e81c869ab94dee7ed8a","id":49595311,"location_subtype":"","month":"2016-06"},{"category":"burglary","location_type":"Force","location":{"latitude":"51.468915","street":{"id":945800,"name":"On or near Netherford Road"},"longitude":"-0.139336"},"context":"","outcome_status":{"category":"Status update unavailable","date":"2016-10"},"persistent_id":"fc9a93e42531becf67148e3c50bb7f998b14c85f3b6bb2fef678d58ca0a57ec7","id":49628384,"location_subtype":"","month":"2016-06"},{"category":"burglary","location_type":"Force","location":{"latitude":"51.469696","street":{"id":945757,"name":"On or near St Rule Street"},"longitude":"-0.142644"},"context":"","outcome_status":{"category":"Investigation complete; no suspect identified","date":"2016-06"},"persistent_id":"a14756c9c1fc63a5b2d963c23c64fe458d56102e3e88b9335e853356533dc63c","id":49625063,"location_subtype":"","month":"2016-06"},{"category":"burglary","location_type":"Force","location":{"latitude":"51.465425","street":{"id":942656,"name":"On or near Liston Road"},"longitude":"-0.139866"},"context":"","outcome_status":{"category":"Investigation complete; no suspect identified","date":"2016-09"},"persistent_id":"b9078a0dd19cbe96b79f07dc630121ed961c412a2c5e8b4dbdef97068e148561","id":49634010,"location_subtype":"","month":"2016-06"},{"category":"burglary","location_type":"Force","location":{"latitude":"51.463810","street":{"id":942882,"name":"On or near Cedars Road"},"longitude":"-0.149750"},"context":"","outcome_status":{"category":"Status update unavailable","date":"2016-10"},"persistent_id":"01acb4022c1c6ac8516d301e0e591007e7dc461ae00941cbea55b940b53aab91","id":49596731,"location_subtype":"","month":"2016-06"},{"category":"burglary","location_type":"Force","location":{"latitude":"51.465596","street":{"id":942687,"name":"On or near Offerton Road"},"longitude":"-0.138736"},"context":"","outcome_status":{"category":"Status update unavailable","date":"2016-10"},"persistent_id":"ebf2a73169974e0da25b7add82d21a6a0fdf0cd6490f2472d346f058255b1689","id":49616094,"location_subtype":"","month":"2016-06"},{"category":"burglary","location_type":"Force","location":{"latitude":"51.467493","street":{"id":945794,"name":"On or near Stephen Place"},"longitude":"-0.140963"},"context":"","outcome_status":{"category":"Status update unavailable","date":"2016-10"},"persistent_id":"bec5e4f276dc06885dd4cae98e4c9a7432cc3bf05310b43ad6399a373e318ca9","id":49588634,"location_subtype":"","month":"2016-06"},{"category":"burglary","location_type":"Force","location":{"latitude":"51.462238","street":{"id":942660,"name":"On or near Clapham Common North Side"},"longitude":"-0.144156"},"context":"","outcome_status":{"category":"Investigation complete; no suspect identified","date":"2016-06"},"persistent_id":"ccf069cb1d2e94ed2f83758be2af62e93c652e6dd3032e7888db728af6f07153","id":49574507,"location_subtype":"","month":"2016-06"},{"category":"criminal-damage-arson","location_type":"Force","location":{"latitude":"51.462704","street":{"id":942724,"name":"On or near Carpenter's Place"},"longitude":"-0.134463"},"context":"","outcome_status":{"category":"Offender given a caution","date":"2016-06"},"persistent_id":"7d72c8e25642bdad9eed1a10d7244e0f3612d3ea5348d5eed62ad50ba9c7450d","id":49586496,"location_subtype":"","month":"2016-06"},{"category":"criminal-damage-arson","location_type":"Force","location":{"latitude":"51.467043","street":{"id":945825,"name":"On or near Shamrock Street"},"longitude":"-0.136446"},"context":"","outcome_status":{"category":"Offender given a caution","date":"2016-06"},"persistent_id":"18fb8aafa3932290ce0ab6b13319af3cab69bd181af7919014d84642f273ee23","id":49605051,"location_subtype":"","month":"2016-06"},{"category":"criminal-damage-arson","location_type":"Force","location":{"latitude":"51.469137","street":{"id":945839,"name":"On or near Brayburne Avenue"},"longitude":"-0.138636"},"context":"","outcome_status":{"category":"Investigation complete; no suspect identified","date":"2016-06"},"persistent_id":"be599f2e2b8a8ad35305408f72a5d48015871525d6b680847c5028cc9745d095","id":49612849,"location_subtype":"","month":"2016-06"},{"category":"criminal-damage-arson","location_type":"Force","location":{"latitude":"51.466578","street":{"id":945833,"name":"On or near Elmhurst Street"},"longitude":"-0.135990"},"context":"","outcome_status":{"category":"Status update unavailable","date":"2016-10"},"persistent_id":"93b0559cf0aa427cd69a86f23366cc017b863d5e514d1b5aee28b409eb87ee3f","id":49606305,"location_subtype":"","month":"2016-06"},{"category":"criminal-damage-arson","location_type":"BTP","location":{"latitude":"51.465400","street":{"id":1487937,"name":"Clapham High Street (station)"},"longitude":"-0.132492"},"context":"","outcome_status":{"category":"Status update unavailable","date":"2016-10"},"persistent_id":"","id":65543936,"location_subtype":"STATION","month":"2016-06"},{"category":"criminal-damage-arson","location_type":"Force","location":{"latitude":"51.463123","street":{"id":942737,"name":"On or near Nightclub"},"longitude":"-0.135915"},"context":"","outcome_status":{"category":"Offender given suspended prison sentence","date":"2016-06"},"persistent_id":"6fc29ca59276cd902b4ad9565d06e19d7720ea5465617d8b776f820efab32848","id":49596720,"location_subtype":"","month":"2016-06"},{"category":"criminal-damage-arson","location_type":"Force","location":{"latitude":"51.466078","street":{"id":945805,"name":"On or near Charlotte Row"},"longitude":"-0.142489"},"context":"","outcome_status":{"category":"Status update unavailable","date":"2016-10"},"persistent_id":"c2551229e8c2c7c0994316c33b0229b10b4d2c964b2a5e859d7fc3abe7930937","id":49630060,"location_subtype":"","month":"2016-06"},{"category":"criminal-damage-arson","location_type":"Force","location":{"latitude":"51.468842","street":{"id":945795,"name":"On or near Silverthorne Road"},"longitude":"-0.144939"},"context":"","outcome_status":{"category":"Status update unavailable","date":"2016-10"},"persistent_id":"5932f8d2dbbf6f91d2db23dcd87142803ab26220413791a2859c5ee173c83462","id":49628407,"location_subtype":"","month":"2016-06"},{"category":"criminal-damage-arson","location_type":"Force","location":{"latitude":"51.467824","street":{"id":945792,"name":"On or near Turret Grove"},"longitude":"-0.142000"},"context":"","outcome_status":{"category":"Status update unavailable","date":"2016-10"},"persistent_id":"86adab776d4b585c4bee3840c395d645c70211679be5105ba5bb3fd07c6c4afb","id":49628342,"location_subtype":"","month":"2016-06"},{"category":"criminal-damage-arson","location_type":"Force","location":{"latitude":"51.465596","street":{"id":942687,"name":"On or near Offerton Road"},"longitude":"-0.138736"},"context":"","outcome_status":{"category":"Status update unavailable","date":"2016-10"},"persistent_id":"306ab09052b5726eef71f08206e7885309a0cae21c32db387d541a5b7816154b","id":49628165,"location_subtype":"","month":"2016-06"},{"category":"criminal-damage-arson","location_type":"Force","location":{"latitude":"51.467737","street":{"id":945813,"name":"On or near Newby Street"},"longitude":"-0.146165"},"context":"","outcome_status":{"category":"Investigation complete; no suspect identified","date":"2016-07"},"persistent_id":"7357c2c2ee747550eb89b2b389fa3378ee7a5bfd5cf3608c603302bf0a329f02","id":49606249,"location_subtype":"","month":"2016-06"},{"category":"criminal-damage-arson","location_type":"Force","location":{"latitude":"51.467090","street":{"id":945806,"name":"On or near Charles Barry Close"},"longitude":"-0.139395"},"context":"","outcome_status":{"category":"Status update unavailable","date":"2016-10"},"persistent_id":"e0e904b8d02f9fe3a6458851f224daa6e9f816e1b47ff2e52eac75f900137a91","id":49573319,"location_subtype":"","month":"2016-06"},{"category":"criminal-damage-arson","location_type":"Force","location":{"latitude":"51.462704","street":{"id":942724,"name":"On or near Carpenter's Place"},"longitude":"-0.134463"},"context":"","outcome_status":{"category":"Status update unavailable","date":"2016-10"},"persistent_id":"22dddefcdb602f2ca4862d4b5840c28f1434d3e739339d2c19e05ec7285e5d1b","id":49582817,"location_subtype":"","month":"2016-06"},{"category":"criminal-damage-arson","location_type":"Force","location":{"latitude":"51.467870","street":{"id":945810,"name":"On or near Nightclub"},"longitude":"-0.144331"},"context":"","outcome_status":{"category":"Investigation complete; no suspect identified","date":"2016-06"},"persistent_id":"9afc9b743e9f715ee15f4bc57ca84b83ba6aaaaee1fabf613ee2111ede8d7fdf","id":49595922,"location_subtype":"","month":"2016-06"},{"category":"criminal-damage-arson","location_type":"Force","location":{"latitude":"51.467737","street":{"id":945813,"name":"On or near Newby Street"},"longitude":"-0.146165"},"context":"","outcome_status":{"category":"Investigation complete; no suspect identified","date":"2016-06"},"persistent_id":"1d96638607ce65b6ee4e9d868c776724c14a2eca18dc7cc1451685d9d67af19e","id":49630564,"location_subtype":"","month":"2016-06"},{"category":"criminal-damage-arson","location_type":"Force","location":{"latitude":"51.467737","street":{"id":945813,"name":"On or near Newby Street"},"longitude":"-0.146165"},"context":"","outcome_status":{"category":"Investigation complete; no suspect identified","date":"2016-06"},"persistent_id":"a1afb875f297a59cd2af1df9f0770151797221d78dc051e141d4566b4e8029be","id":49618975,"location_subtype":"","month":"2016-06"},{"category":"criminal-damage-arson","location_type":"Force","location":{"latitude":"51.470990","street":{"id":945759,"name":"On or near Portslade Road"},"longitude":"-0.139741"},"context":"","outcome_status":{"category":"Investigation complete; no suspect identified","date":"2016-08"},"persistent_id":"65a00e9c3f4bea04020c1cce4699f5c9820e73055e9ca85020ada02944df3b7f","id":49594209,"location_subtype":"","month":"2016-06"},{"category":"drugs","location_type":"Force","location":{"latitude":"51.463123","street":{"id":942737,"name":"On or near Nightclub"},"longitude":"-0.135915"},"context":"","outcome_status":{"category":"Offender given a caution","date":"2016-06"},"persistent_id":"e612a00fba5ec45970d8b9c3b0cd3d333dc8dacecd9a2f35317321bd041323a2","id":49612677,"location_subtype":"","month":"2016-06"},{"category":"drugs","location_type":"Force","location":{"latitude":"51.461704","street":{"id":942675,"name":"On or near The Pavement"},"longitude":"-0.139413"},"context":"","outcome_status":{"category":"Investigation complete; no suspect identified","date":"2016-11"},"persistent_id":"ec568f7697e8165ffcfb8f060c30f0c7bae4f5132c99255dc2ebbbb91e9dd6b5","id":49601923,"location_subtype":"","month":"2016-06"},{"category":"drugs","location_type":"Force","location":{"latitude":"51.465123","street":{"id":942730,"name":"On or near Belmont Close"},"longitude":"-0.137244"},"context":"","outcome_status":{"category":"Offender given penalty notice","date":"2016-06"},"persistent_id":"41aadc3f2915593dabb9d8f084e6d5385d3d785a4778355bec61b7f646fe62de","id":49591720,"location_subtype":"","month":"2016-06"},{"category":"drugs","location_type":"Force","location":{"latitude":"51.462836","street":{"id":942931,"name":"On or near Wix's Lane"},"longitude":"-0.150740"},"context":"","outcome_status":{"category":"Offender given a drugs possession warning","date":"2016-06"},"persistent_id":"10bc1a107288a1ddab12827d90c6976d5fc2dc8083f326c85a7faa4e55e578a0","id":49618869,"location_subtype":"","month":"2016-06"},{"category":"drugs","location_type":"Force","location":{"latitude":"51.462341","street":{"id":942739,"name":"On or near Supermarket"},"longitude":"-0.135903"},"context":"","outcome_status":{"category":"Offender given penalty notice","date":"2016-06"},"persistent_id":"f6b46bf81d3d76f0d914a46873e33012d2bc35523e64bd20d5e252eb65e132e2","id":49596769,"location_subtype":"","month":"2016-06"},{"category":"drugs","location_type":"Force","location":{"latitude":"51.463450","street":{"id":942685,"name":"On or near Prescott Place"},"longitude":"-0.135541"},"context":"","outcome_status":{"category":"Offender given a drugs possession warning","date":"2016-06"},"persistent_id":"581ff919088e3cf010b86808c767eb30580a2adda6ab42bef0d09e121d4955c8","id":49625318,"location_subtype":"","month":"2016-06"},{"category":"drugs","location_type":"Force","location":{"latitude":"51.462341","street":{"id":942739,"name":"On or near Supermarket"},"longitude":"-0.135903"},"context":"","outcome_status":{"category":"Offender given a drugs possession warning","date":"2016-06"},"persistent_id":"3f0a43e813e8656bf061ec3d4d65ddbcacd80ab3bab443fb4072074a489dc70d","id":49596676,"location_subtype":"","month":"2016-06"},{"category":"other-theft","location_type":"Force","location":{"latitude":"51.468842","street":{"id":945795,"name":"On or near Silverthorne Road"},"longitude":"-0.144939"},"context":"","outcome_status":{"category":"Status update unavailable","date":"2016-10"},"persistent_id":"1ee683b87ac3391b852c0280d4ef8a9d2e6d8e029a7237adf0e67edd2b2d230f","id":49584181,"location_subtype":"","month":"2016-06"},{"category":"other-theft","location_type":"Force","location":{"latitude":"51.463963","street":{"id":942705,"name":"On or near Edgeley Lane"},"longitude":"-0.133318"},"context":"","outcome_status":{"category":"Status update unavailable","date":"2016-10"},"persistent_id":"39a20dcbb50b1426ad59a8dd6d02960c686ed1771b233e8cf9ba4b2123098163","id":49625125,"location_subtype":"","month":"2016-06"},{"category":"other-theft","location_type":"Force","location":{"latitude":"51.462704","street":{"id":942724,"name":"On or near Carpenter's Place"},"longitude":"-0.134463"},"context":"","outcome_status":{"category":"Status update unavailable","date":"2016-10"},"persistent_id":"b14e7248cc55c324326c1d671b56988ec35bc8553ced28094d016a79793db343","id":49629592,"location_subtype":"","month":"2016-06"},{"category":"other-theft","location_type":"Force","location":{"latitude":"51.461907","street":{"id":942712,"name":"On or near Clapham Park Road"},"longitude":"-0.137490"},"context":"","outcome_status":{"category":"Investigation complete; no suspect identified","date":"2016-06"},"persistent_id":"57223dde87b2da1dc3419375632e00b7dabfa4c2cd2bdb0c1998e4f0bf011601","id":49593595,"location_subtype":"","month":"2016-06"},{"category":"other-theft","location_type":"Force","location":{"latitude":"51.469023","street":{"id":945809,"name":"On or near Petrol Station"},"longitude":"-0.142729"},"context":"","outcome_status":{"category":"Investigation complete; no suspect identified","date":"2016-06"},"persistent_id":"ce9059e9e7360b4250e9506a81535da00f9d4406305633bf3aec4a8e1b8609bd","id":49623664,"location_subtype":"","month":"2016-06"},{"category":"other-theft","location_type":"Force","location":{"latitude":"51.464319","street":{"id":942658,"name":"On or near Francis Bentley Mews"},"longitude":"-0.140991"},"context":"","outcome_status":{"category":"Investigation complete; no suspect identified","date":"2016-07"},"persistent_id":"b344f3c3d1af46798cca8e9dc3d0a9674c4cc20351b48549954d033b7cde573d","id":49630082,"location_subtype":"","month":"2016-06"},{"category":"other-theft","location_type":"Force","location":{"latitude":"51.462341","street":{"id":942739,"name":"On or near Supermarket"},"longitude":"-0.135903"},"context":"","outcome_status":{"category":"Investigation complete; no suspect identified","date":"2016-07"},"persistent_id":"1c004d5343f73dc60c558ca73fbb853bd1af8674e74e06da93773b95ecd13331","id":49625658,"location_subtype":"","month":"2016-06"},{"category":"other-theft","location_type":"Force","location":{"latitude":"51.463123","street":{"id":942737,"name":"On or near Nightclub"},"longitude":"-0.135915"},"context":"","outcome_status":{"category":"Investigation complete; no suspect identified","date":"2016-06"},"persistent_id":"25ec4ef4d9bea2c6a9418e4ab483280c31588117b4389a05efeb8e24056df985","id":49623018,"location_subtype":"","month":"2016-06"},{"category":"other-theft","location_type":"Force","location":{"latitude":"51.467737","street":{"id":945813,"name":"On or near Newby Street"},"longitude":"-0.146165"},"context":"","outcome_status":{"category":"Investigation complete; no suspect identified","date":"2016-07"},"persistent_id":"97d41e6819c9576741ed124c6020e94ec5da1d4e161fa1c9f73167fda4c4dec1","id":49620878,"location_subtype":"","month":"2016-06"},{"category":"other-theft","location_type":"Force","location":{"latitude":"51.461250","street":{"id":942673,"name":"On or near Triangle Place"},"longitude":"-0.134623"},"context":"","outcome_status":{"category":"Investigation complete; no suspect identified","date":"2016-09"},"persistent_id":"9995733bd428fb0862fdb20bb6c50a03c044736d18643966217cc8bd7a31baf0","id":49620858,"location_subtype":"","month":"2016-06"},{"category":"other-theft","location_type":"Force","location":{"latitude":"51.467737","street":{"id":945813,"name":"On or near Newby Street"},"longitude":"-0.146165"},"context":"","outcome_status":{"category":"Status update unavailable","date":"2016-10"},"persistent_id":"ea8b3d04cd9a96f3e6a332eef25b2fc701f074caaba21c86a42deab8d467a914","id":49612719,"location_subtype":"","month":"2016-06"},{"category":"other-theft","location_type":"Force","location":{"latitude":"51.463963","street":{"id":942705,"name":"On or near Edgeley Lane"},"longitude":"-0.133318"},"context":"","outcome_status":{"category":"Investigation complete; no suspect identified","date":"2016-06"},"persistent_id":"d6223815663bbcf5f506769d1b67bd080eee1c8c74018988c4ff410bce6ebd32","id":49613060,"location_subtype":"","month":"2016-06"},{"category":"other-theft","location_type":"Force","location":{"latitude":"51.462341","street":{"id":942739,"name":"On or near Supermarket"},"longitude":"-0.135903"},"context":"","outcome_status":{"category":"Investigation complete; no suspect identified","date":"2016-06"},"persistent_id":"61b8d698846a01c8806305427aaa27979854c3bde2f0819e3b907c88d5cff8fc","id":49607546,"location_subtype":"","month":"2016-06"},{"category":"other-theft","location_type":"Force","location":{"latitude":"51.465599","street":{"id":942715,"name":"On or near Clapham Manor Street"},"longitude":"-0.136073"},"context":"","outcome_status":{"category":"Investigation complete; no suspect identified","date":"2016-06"},"persistent_id":"a168449df7f377039494e78c8fd2c84a755be33e58841c9ac907c6353faa5927","id":49605109,"location_subtype":"","month":"2016-06"},{"category":"other-theft","location_type":"Force","location":{"latitude":"51.466578","street":{"id":945833,"name":"On or near Elmhurst Street"},"longitude":"-0.135990"},"context":"","outcome_status":{"category":"Status update unavailable","date":"2016-10"},"persistent_id":"ae26b7ea6745e642bad7543dcdd00178026e611b22c2296f0d253adc055365b1","id":49600119,"location_subtype":"","month":"2016-06"},{"category":"other-theft","location_type":"Force","location":{"latitude":"51.467737","street":{"id":945813,"name":"On or near Newby Street"},"longitude":"-0.146165"},"context":"","outcome_status":{"category":"Status update unavailable","date":"2016-10"},"persistent_id":"ed92764e95f7a42daa9d18ac349b1c7535164cf1784a2591405fd04e9833e8c3","id":49597428,"location_subtype":"","month":"2016-06"},{"category":"other-theft","location_type":"Force","location":{"latitude":"51.463450","street":{"id":942685,"name":"On or near Prescott Place"},"longitude":"-0.135541"},"context":"","outcome_status":{"category":"Investigation complete; no suspect identified","date":"2016-06"},"persistent_id":"2dfdb88a1cc987e855878e5ca6fb9a52ce7e205f3bfc7ce6cd83b267adac09c8","id":49576043,"location_subtype":"","month":"2016-06"},{"category":"other-theft","location_type":"Force","location":{"latitude":"51.461704","street":{"id":942675,"name":"On or near The Pavement"},"longitude":"-0.139413"},"context":"","outcome_status":{"category":"Status update unavailable","date":"2016-10"},"persistent_id":"1f5513937b7f45e5ee5a8142e60893b23f7a7c0b12040add7468d931984af263","id":49600299,"location_subtype":"","month":"2016-06"},{"category":"other-theft","location_type":"Force","location":{"latitude":"51.461704","street":{"id":942675,"name":"On or near The Pavement"},"longitude":"-0.139413"},"context":"","outcome_status":{"category":"Status update unavailable","date":"2016-10"},"persistent_id":"1f5513937b7f45e5ee5a8142e60893b23f7a7c0b12040add7468d931984af263","id":49600298,"location_subtype":"","month":"2016-06"},{"category":"other-theft","location_type":"Force","location":{"latitude":"51.463963","street":{"id":942705,"name":"On or near Edgeley Lane"},"longitude":"-0.133318"},"context":"","outcome_status":{"category":"Investigation complete; no suspect identified","date":"2016-06"},"persistent_id":"add146f43b8e797fa24594de8d893ee221f47feab21773b8046d18f452f60034","id":49615871,"location_subtype":"","month":"2016-06"},{"category":"other-theft","location_type":"Force","location":{"latitude":"51.470257","street":{"id":945694,"name":"On or near Pedestrian Subway"},"longitude":"-0.138921"},"context":"","outcome_status":{"category":"Investigation complete; no suspect identified","date":"2016-09"},"persistent_id":"8a36af1841d3bdf1add337e7d0e8cf212a9e7ccf2a11a05a3c3005f83cba4dcf","id":49578278,"location_subtype":"","month":"2016-06"},{"category":"other-theft","location_type":"Force","location":{"latitude":"51.463123","street":{"id":942737,"name":"On or near Nightclub"},"longitude":"-0.135915"},"context":"","outcome_status":{"category":"Investigation complete; no suspect identified","date":"2016-06"},"persistent_id":"b01a2079054a69ccb858d795bfe887eeb7ea6c812d63df1862cd8d9a4a34fb29","id":49594119,"location_subtype":"","month":"2016-06"},{"category":"other-theft","location_type":"Force","location":{"latitude":"51.462203","street":{"id":942738,"name":"On or near Supermarket"},"longitude":"-0.137982"},"context":"","outcome_status":{"category":"Investigation complete; no suspect identified","date":"2016-06"},"persistent_id":"64be5d330a31b9288957d6be39e2330d0d1bbcef7f7affedfac0b8e81867ddbe","id":49613834,"location_subtype":"","month":"2016-06"},{"category":"other-theft","location_type":"Force","location":{"latitude":"51.469137","street":{"id":945839,"name":"On or near Brayburne Avenue"},"longitude":"-0.138636"},"context":"","outcome_status":{"category":"Investigation complete; no suspect identified","date":"2016-06"},"persistent_id":"562d454d5182f81c3dd24410dd3dcaf39934f937012f131766ce22e07beba07c","id":49630679,"location_subtype":"","month":"2016-06"},{"category":"other-theft","location_type":"Force","location":{"latitude":"51.469023","street":{"id":945809,"name":"On or near Petrol Station"},"longitude":"-0.142729"},"context":"","outcome_status":{"category":"Investigation complete; no suspect identified","date":"2016-07"},"persistent_id":"a3e6236cdb0b4023e3dabd07aa61cf816ddea1d9f8e273453b4469af4922f839","id":49601971,"location_subtype":"","month":"2016-06"},{"category":"other-theft","location_type":"Force","location":{"latitude":"51.463893","street":{"id":942634,"name":"On or near Victoria Rise"},"longitude":"-0.148178"},"context":"","outcome_status":{"category":"Investigation complete; no suspect identified","date":"2016-07"},"persistent_id":"06520fec896bc49470976b9a467ae5e22e8b5939b5903e2f24ecfea4256e7188","id":49628233,"location_subtype":"","month":"2016-06"},{"category":"possession-of-weapons","location_type":"Force","location":{"latitude":"51.467598","street":{"id":945674,"name":"On or near Heather Close"},"longitude":"-0.149324"},"context":"","outcome_status":{"category":"Offender given community sentence","date":"2016-06"},"persistent_id":"51c5cfccc96bdcb8e28b015041aef078f0c5648a7fd001f952a8aacc80a2affc","id":49602121,"location_subtype":"","month":"2016-06"},{"category":"public-order","location_type":"Force","location":{"latitude":"51.465599","street":{"id":942715,"name":"On or near Clapham Manor Street"},"longitude":"-0.136073"},"context":"","outcome_status":{"category":"Investigation complete; no suspect identified","date":"2016-06"},"persistent_id":"75cd95b279560f536556d25396e178d5385515447d70100731d28973367e5833","id":49573370,"location_subtype":"","month":"2016-06"},{"category":"public-order","location_type":"Force","location":{"latitude":"51.462275","street":{"id":942638,"name":"On or near Cedars Mews"},"longitude":"-0.148805"},"context":"","outcome_status":{"category":"Status update unavailable","date":"2016-10"},"persistent_id":"6fbab4e36e0fefe8bdb0780e6274682e231ed9ca43e8c9ffa9fe770337fab8fc","id":49616710,"location_subtype":"","month":"2016-06"},{"category":"public-order","location_type":"Force","location":{"latitude":"51.467737","street":{"id":945813,"name":"On or near Newby Street"},"longitude":"-0.146165"},"context":"","outcome_status":{"category":"Investigation complete; no suspect identified","date":"2016-08"},"persistent_id":"d694c02648120f509249b39427638552d9de847fdb9f3396ff92ae029fd3da79","id":49624093,"location_subtype":"","month":"2016-06"},{"category":"public-order","location_type":"Force","location":{"latitude":"51.464062","street":{"id":942707,"name":"On or near Cresset Street"},"longitude":"-0.136164"},"context":"","outcome_status":{"category":"Investigation complete; no suspect identified","date":"2016-06"},"persistent_id":"55b384173b8f049ebda73ae3bd0d14a6bc08e88deeca2ff13a26080ab7d2acc3","id":49596252,"location_subtype":"","month":"2016-06"},{"category":"public-order","location_type":"BTP","location":{"latitude":"51.465400","street":{"id":1487937,"name":"Clapham High Street (station)"},"longitude":"-0.132492"},"context":"","outcome_status":{"category":"Status update unavailable","date":"2016-10"},"persistent_id":"","id":65543937,"location_subtype":"STATION","month":"2016-06"},{"category":"public-order","location_type":"BTP","location":{"latitude":"51.465400","street":{"id":1487937,"name":"Clapham High Street (station)"},"longitude":"-0.132492"},"context":"","outcome_status":{"category":"Status update unavailable","date":"2016-10"},"persistent_id":"","id":65543938,"location_subtype":"STATION","month":"2016-06"},{"category":"public-order","location_type":"Force","location":{"latitude":"51.462704","street":{"id":942724,"name":"On or near Carpenter's Place"},"longitude":"-0.134463"},"context":"","outcome_status":{"category":"Status update unavailable","date":"2016-10"},"persistent_id":"7d72c8e25642bdad9eed1a10d7244e0f3612d3ea5348d5eed62ad50ba9c7450d","id":49586495,"location_subtype":"","month":"2016-06"},{"category":"public-order","location_type":"Force","location":{"latitude":"51.463123","street":{"id":942737,"name":"On or near Nightclub"},"longitude":"-0.135915"},"context":"","outcome_status":{"category":"Status update unavailable","date":"2016-10"},"persistent_id":"6fc29ca59276cd902b4ad9565d06e19d7720ea5465617d8b776f820efab32848","id":49596719,"location_subtype":"","month":"2016-06"},{"category":"robbery","location_type":"Force","location":{"latitude":"51.463205","street":{"id":942736,"name":"On or near Nightclub"},"longitude":"-0.136545"},"context":"","outcome_status":{"category":"Investigation complete; no suspect identified","date":"2016-06"},"persistent_id":"abb399c3237bc8bdbbfb242f530ea0e46706083904352011f6d92ec650ae9283","id":49596742,"location_subtype":"","month":"2016-06"},{"category":"robbery","location_type":"Force","location":{"latitude":"51.466467","street":{"id":945689,"name":"On or near Supermarket"},"longitude":"-0.150046"},"context":"","outcome_status":{"category":"Investigation complete; no suspect identified","date":"2016-07"},"persistent_id":"9000f4486fc7df87af4d1c060069f9b21b58787f3f252a6a636fd5d9fce7cf9b","id":49630568,"location_subtype":"","month":"2016-06"},{"category":"robbery","location_type":"Force","location":{"latitude":"51.464319","street":{"id":942658,"name":"On or near Francis Bentley Mews"},"longitude":"-0.140991"},"context":"","outcome_status":{"category":"Investigation complete; no suspect identified","date":"2016-08"},"persistent_id":"fef4e9321c4cac307ef3eaf6910bf5b099af2c1a47d6e6627f5d14110ef5b732","id":49591852,"location_subtype":"","month":"2016-06"},{"category":"robbery","location_type":"Force","location":{"latitude":"51.465599","street":{"id":942715,"name":"On or near Clapham Manor Street"},"longitude":"-0.136073"},"context":"","outcome_status":{"category":"Investigation complete; no suspect identified","date":"2016-08"},"persistent_id":"42f9a9cb63d0bfc34ac5b07c5855f408adac8265e616ef002ee11edf8a5fde6a","id":49595795,"location_subtype":"","month":"2016-06"},{"category":"robbery","location_type":"Force","location":{"latitude":"51.467870","street":{"id":945810,"name":"On or near Nightclub"},"longitude":"-0.144331"},"context":"","outcome_status":{"category":"Investigation complete; no suspect identified","date":"2016-07"},"persistent_id":"d4dc90a3a1e8be3ff21ab9e0d1564e797597b068ae18eb8416a0dc5415e84984","id":49622764,"location_subtype":"","month":"2016-06"},{"category":"shoplifting","location_type":"Force","location":{"latitude":"51.462115","street":{"id":942740,"name":"On or near Supermarket"},"longitude":"-0.138677"},"context":"","outcome_status":{"category":"Investigation complete; no suspect identified","date":"2016-06"},"persistent_id":"095989ad1561517b7774c9e1e19bd4c32955dda6c64a3c8fc5080dcee3a5ffd3","id":49605053,"location_subtype":"","month":"2016-06"},{"category":"shoplifting","location_type":"Force","location":{"latitude":"51.462711","street":{"id":942716,"name":"On or near Clapham High Street"},"longitude":"-0.135471"},"context":"","outcome_status":{"category":"Investigation complete; no suspect identified","date":"2016-06"},"persistent_id":"56bfa35c8721896d39c52fda9d7c5489cc13b6ccf46c802e6a9a1ccfd9a65da1","id":49633001,"location_subtype":"","month":"2016-06"},{"category":"shoplifting","location_type":"Force","location":{"latitude":"51.462341","street":{"id":942739,"name":"On or near Supermarket"},"longitude":"-0.135903"},"context":"","outcome_status":{"category":"Status update unavailable","date":"2016-10"},"persistent_id":"f1ce2bf530866501afe0d84fd5980c9fc53aa194aa846bb2c10870a54905af93","id":49628210,"location_subtype":"","month":"2016-06"},{"category":"shoplifting","location_type":"Force","location":{"latitude":"51.462115","street":{"id":942740,"name":"On or near Supermarket"},"longitude":"-0.138677"},"context":"","outcome_status":{"category":"Investigation complete; no suspect identified","date":"2016-06"},"persistent_id":"72220c87b92936971fdf4f23b66db72ba034a090f79af82c3b9159e10964231a","id":49627776,"location_subtype":"","month":"2016-06"},{"category":"shoplifting","location_type":"Force","location":{"latitude":"51.462341","street":{"id":942739,"name":"On or near Supermarket"},"longitude":"-0.135903"},"context":"","outcome_status":{"category":"Offender given community sentence","date":"2016-07"},"persistent_id":"c52a3e1fc5dcb8185f7483b1e4d729ff3d7b0119908a3f80e644bea67ee18341","id":49624957,"location_subtype":"","month":"2016-06"},{"category":"shoplifting","location_type":"Force","location":{"latitude":"51.462115","street":{"id":942740,"name":"On or near Supermarket"},"longitude":"-0.138677"},"context":"","outcome_status":{"category":"Investigation complete; no suspect identified","date":"2016-06"},"persistent_id":"19afca2a0914ad1fb0a5c50e43a9d27718c02e5a92d8e1813a16722eacb2473e","id":49603351,"location_subtype":"","month":"2016-06"},{"category":"shoplifting","location_type":"Force","location":{"latitude":"51.462115","street":{"id":942740,"name":"On or near Supermarket"},"longitude":"-0.138677"},"context":"","outcome_status":{"category":"Investigation complete; no suspect identified","date":"2016-06"},"persistent_id":"72ff47b39e1cbf767c83653564c1ea859b09b47a3f3e9426f0bcbe72b02558f8","id":49603350,"location_subtype":"","month":"2016-06"},{"category":"shoplifting","location_type":"Force","location":{"latitude":"51.462341","street":{"id":942739,"name":"On or near Supermarket"},"longitude":"-0.135903"},"context":"","outcome_status":{"category":"Status update unavailable","date":"2016-10"},"persistent_id":"f8f3b7a76e57324899012e634ac1ef48606ed88b746ea6e1052533755ed59095","id":49618884,"location_subtype":"","month":"2016-06"},{"category":"shoplifting","location_type":"Force","location":{"latitude":"51.463278","street":{"id":942641,"name":"On or near Wingate Square"},"longitude":"-0.140587"},"context":"","outcome_status":{"category":"Investigation complete; no suspect identified","date":"2016-06"},"persistent_id":"25fc2d2ccf324ff137caf2204a73687d65b98e14779c8cdcc224be5c2fdfd781","id":49632997,"location_subtype":"","month":"2016-06"},{"category":"shoplifting","location_type":"Force","location":{"latitude":"51.466467","street":{"id":945689,"name":"On or near Supermarket"},"longitude":"-0.150046"},"context":"","outcome_status":{"category":"Investigation complete; no suspect identified","date":"2016-06"},"persistent_id":"058088f3c749a44050a46b69cc0154d5bc500959b054b883e27b982e7c7f8aeb","id":49599857,"location_subtype":"","month":"2016-06"},{"category":"shoplifting","location_type":"Force","location":{"latitude":"51.469023","street":{"id":945809,"name":"On or near Petrol Station"},"longitude":"-0.142729"},"context":"","outcome_status":{"category":"Investigation complete; no suspect identified","date":"2016-06"},"persistent_id":"b07e9659f01a6e583cb15a12f78d704a61203b09f4cd6651f065cec7e2d07da8","id":49613833,"location_subtype":"","month":"2016-06"},{"category":"shoplifting","location_type":"Force","location":{"latitude":"51.463205","street":{"id":942736,"name":"On or near Nightclub"},"longitude":"-0.136545"},"context":"","outcome_status":{"category":"Investigation complete; no suspect identified","date":"2016-09"},"persistent_id":"ef76e0c7f0247a34311303179025fcb595e280f1b32d1a9aa246cfb1fad1cf9c","id":49611863,"location_subtype":"","month":"2016-06"},{"category":"shoplifting","location_type":"Force","location":{"latitude":"51.462115","street":{"id":942740,"name":"On or near Supermarket"},"longitude":"-0.138677"},"context":"","outcome_status":{"category":"Offender given suspended prison sentence","date":"2016-06"},"persistent_id":"c8b3e60db5b3fab3ad21361e78da1e032d653fd02d05a6510be2efe33273691f","id":49587437,"location_subtype":"","month":"2016-06"},{"category":"shoplifting","location_type":"Force","location":{"latitude":"51.462203","street":{"id":942738,"name":"On or near Supermarket"},"longitude":"-0.137982"},"context":"","outcome_status":{"category":"Investigation complete; no suspect identified","date":"2016-06"},"persistent_id":"5e7b51065ade736d852f87b1ccca01e9818aef2912f99a122689481fa0ac024f","id":49573559,"location_subtype":"","month":"2016-06"},{"category":"shoplifting","location_type":"Force","location":{"latitude":"51.463123","street":{"id":942737,"name":"On or near Nightclub"},"longitude":"-0.135915"},"context":"","outcome_status":{"category":"Investigation complete; no suspect identified","date":"2016-06"},"persistent_id":"56436459c07a2fab16c6da827bf47f5b54deb99729cc7f187a3403152d2916b3","id":49627192,"location_subtype":"","month":"2016-06"},{"category":"shoplifting","location_type":"Force","location":{"latitude":"51.462341","street":{"id":942739,"name":"On or near Supermarket"},"longitude":"-0.135903"},"context":"","outcome_status":{"category":"Investigation complete; no suspect identified","date":"2016-06"},"persistent_id":"bc6d503e334e98344f49d53adaff0a56d81972b779c951f5bee961bc92b1be09","id":49616100,"location_subtype":"","month":"2016-06"},{"category":"shoplifting","location_type":"Force","location":{"latitude":"51.462711","street":{"id":942716,"name":"On or near Clapham High Street"},"longitude":"-0.135471"},"context":"","outcome_status":{"category":"Investigation complete; no suspect identified","date":"2016-06"},"persistent_id":"9b00b0b23c03a9265044e398e74c55bd326d37ddde247eae76312adb95aad06b","id":49635797,"location_subtype":"","month":"2016-06"},{"category":"theft-from-the-person","location_type":"Force","location":{"latitude":"51.466004","street":{"id":945804,"name":"On or near Fitzwilliam Road"},"longitude":"-0.140102"},"context":"","outcome_status":{"category":"Investigation complete; no suspect identified","date":"2017-05"},"persistent_id":"fd49da102c2e350d440fe80b50a7c9304ae604ebab3b999a5865359adefa25e4","id":49621546,"location_subtype":"","month":"2016-06"},{"category":"theft-from-the-person","location_type":"Force","location":{"latitude":"51.462341","street":{"id":942739,"name":"On or near Supermarket"},"longitude":"-0.135903"},"context":"","outcome_status":{"category":"Status update unavailable","date":"2016-10"},"persistent_id":"a107935359c1596ee208c8fbc6ea7330df8c914688c9b4061f40262686e8f9d4","id":49575957,"location_subtype":"","month":"2016-06"},{"category":"theft-from-the-person","location_type":"Force","location":{"latitude":"51.463963","street":{"id":942705,"name":"On or near Edgeley Lane"},"longitude":"-0.133318"},"context":"","outcome_status":{"category":"Investigation complete; no suspect identified","date":"2016-06"},"persistent_id":"bd561d82f6ba1bd34e554ed625d1d52d8ce611bae386566c83533076ad644582","id":49627784,"location_subtype":"","month":"2016-06"},{"category":"theft-from-the-person","location_type":"Force","location":{"latitude":"51.463450","street":{"id":942685,"name":"On or near Prescott Place"},"longitude":"-0.135541"},"context":"","outcome_status":{"category":"Status update unavailable","date":"2016-10"},"persistent_id":"92ee70384c6c6029a61c21eb598582191c29834e27ac7b63a8c410bd931b0a08","id":49579050,"location_subtype":"","month":"2016-06"},{"category":"theft-from-the-person","location_type":"Force","location":{"latitude":"51.467696","street":{"id":945796,"name":"On or near Rozel Road"},"longitude":"-0.142466"},"context":"","outcome_status":{"category":"Status update unavailable","date":"2016-10"},"persistent_id":"77aaf85c6a3fa3f70badc2ee17230f95f834bc4f783c7c7296b32e95304fc541","id":49574192,"location_subtype":"","month":"2016-06"},{"category":"theft-from-the-person","location_type":"Force","location":{"latitude":"51.461704","street":{"id":942675,"name":"On or near The Pavement"},"longitude":"-0.139413"},"context":"","outcome_status":{"category":"Status update unavailable","date":"2016-10"},"persistent_id":"9da759c0ea9434cf99cc5c0f446f8098dd4ca0986e0bc08be35d78b58a974a98","id":49618892,"location_subtype":"","month":"2016-06"},{"category":"theft-from-the-person","location_type":"Force","location":{"latitude":"51.463450","street":{"id":942685,"name":"On or near Prescott Place"},"longitude":"-0.135541"},"context":"","outcome_status":{"category":"Investigation complete; no suspect identified","date":"2016-06"},"persistent_id":"8cf07744c30886cb56a618ea3fa74468e47f4fbec04e74da611ae24da5326532","id":49605205,"location_subtype":"","month":"2016-06"},{"category":"theft-from-the-person","location_type":"Force","location":{"latitude":"51.463123","street":{"id":942737,"name":"On or near Nightclub"},"longitude":"-0.135915"},"context":"","outcome_status":{"category":"Status update unavailable","date":"2016-10"},"persistent_id":"92beb41977d57a53bc5c1417dcd52045ec36bd8f8a436a08698b3ec13b0e13b3","id":49593819,"location_subtype":"","month":"2016-06"},{"category":"theft-from-the-person","location_type":"Force","location":{"latitude":"51.461907","street":{"id":942712,"name":"On or near Clapham Park Road"},"longitude":"-0.137490"},"context":"","outcome_status":{"category":"Investigation complete; no suspect identified","date":"2016-06"},"persistent_id":"7347d823593f60831d61eba5d132350e5e431a5f19b0581bb60ab529454343d1","id":49592813,"location_subtype":"","month":"2016-06"},{"category":"theft-from-the-person","location_type":"Force","location":{"latitude":"51.464058","street":{"id":942652,"name":"On or near Old Town"},"longitude":"-0.141549"},"context":"","outcome_status":{"category":"Status update unavailable","date":"2016-10"},"persistent_id":"6f566dc35a405940f53b5c8bbf0f5f4bb218a709a4ce9faa61358b4d4ab22dcf","id":49612895,"location_subtype":"","month":"2016-06"},{"category":"theft-from-the-person","location_type":"Force","location":{"latitude":"51.463205","street":{"id":942736,"name":"On or near Nightclub"},"longitude":"-0.136545"},"context":"","outcome_status":{"category":"Investigation complete; no suspect identified","date":"2016-06"},"persistent_id":"bc736a128174775e416900b7fa15c806b6d16babafcfdafeb6fd1b5b3cfcd620","id":49607476,"location_subtype":"","month":"2016-06"},{"category":"theft-from-the-person","location_type":"Force","location":{"latitude":"51.467696","street":{"id":945796,"name":"On or near Rozel Road"},"longitude":"-0.142466"},"context":"","outcome_status":{"category":"Investigation complete; no suspect identified","date":"2016-07"},"persistent_id":"1ec4bff1bc748851080319690a51ce404a1de69c884841e88652dd7328986c9e","id":49617312,"location_subtype":"","month":"2016-06"},{"category":"theft-from-the-person","location_type":"Force","location":{"latitude":"51.462341","street":{"id":942739,"name":"On or near Supermarket"},"longitude":"-0.135903"},"context":"","outcome_status":{"category":"Investigation complete; no suspect identified","date":"2016-06"},"persistent_id":"7863755e27997e49058aaa727549ae3f52a7461f1f2838ebf00c18f31c759bff","id":49618793,"location_subtype":"","month":"2016-06"},{"category":"theft-from-the-person","location_type":"Force","location":{"latitude":"51.463450","street":{"id":942685,"name":"On or near Prescott Place"},"longitude":"-0.135541"},"context":"","outcome_status":{"category":"Investigation complete; no suspect identified","date":"2016-06"},"persistent_id":"eefff9def37d2cd2fd79037d7605a88b53bf0b412bc42717e221296aa3de19f3","id":49602642,"location_subtype":"","month":"2016-06"},{"category":"theft-from-the-person","location_type":"Force","location":{"latitude":"51.461907","street":{"id":942712,"name":"On or near Clapham Park Road"},"longitude":"-0.137490"},"context":"","outcome_status":{"category":"Status update unavailable","date":"2016-10"},"persistent_id":"e1b1d2c871b59c283f474f0522221b0c78a8dccbbf5eee9ebc25a165118eddc2","id":49625500,"location_subtype":"","month":"2016-06"},{"category":"vehicle-crime","location_type":"Force","location":{"latitude":"51.465957","street":{"id":942639,"name":"On or near Conference\/exhibition Centre"},"longitude":"-0.147346"},"context":"","outcome_status":{"category":"Status update unavailable","date":"2016-10"},"persistent_id":"92bc5b0ffbaf175326ab9d0cd5cdb55362b0f7a9fc3a0a2983413aab5b744237","id":49619944,"location_subtype":"","month":"2016-06"},{"category":"vehicle-crime","location_type":"Force","location":{"latitude":"51.467090","street":{"id":945806,"name":"On or near Charles Barry Close"},"longitude":"-0.139395"},"context":"","outcome_status":{"category":"Status update unavailable","date":"2016-10"},"persistent_id":"50a5a511a84253e59c7d67cc80bbd82c7f62493133c0466e66a01bcabfaf0849","id":49613549,"location_subtype":"","month":"2016-06"},{"category":"vehicle-crime","location_type":"Force","location":{"latitude":"51.464925","street":{"id":942670,"name":"On or near Voltaire Road"},"longitude":"-0.133264"},"context":"","outcome_status":{"category":"Status update unavailable","date":"2016-10"},"persistent_id":"e0852173f3f23fa9f186f85fa38a9f76b70ad3b5d8400b19b9b03c7716533416","id":49595815,"location_subtype":"","month":"2016-06"},{"category":"vehicle-crime","location_type":"Force","location":{"latitude":"51.462704","street":{"id":942724,"name":"On or near Carpenter's Place"},"longitude":"-0.134463"},"context":"","outcome_status":{"category":"Investigation complete; no suspect identified","date":"2016-06"},"persistent_id":"d4b60aec62dda04b326b971a7a63e101d47c79f55f5fb34581abf2a4c40f7c5a","id":49594226,"location_subtype":"","month":"2016-06"},{"category":"vehicle-crime","location_type":"Force","location":{"latitude":"51.467598","street":{"id":945674,"name":"On or near Heather Close"},"longitude":"-0.149324"},"context":"","outcome_status":{"category":"Status update unavailable","date":"2016-10"},"persistent_id":"2d75d347c7fcb8f066c280448ecb35fdbac2877480a78976128c4e9e5b74a035","id":49594212,"location_subtype":"","month":"2016-06"},{"category":"vehicle-crime","location_type":"Force","location":{"latitude":"51.464801","street":{"id":942729,"name":"On or near Belmont Road"},"longitude":"-0.137934"},"context":"","outcome_status":{"category":"Status update unavailable","date":"2016-10"},"persistent_id":"f56714a3ee53afad8d651d1d1a1f9cf3ccc0f66a05098649126346d3db67eb8b","id":49592904,"location_subtype":"","month":"2016-06"},{"category":"vehicle-crime","location_type":"Force","location":{"latitude":"51.466004","street":{"id":945804,"name":"On or near Fitzwilliam Road"},"longitude":"-0.140102"},"context":"","outcome_status":{"category":"Status update unavailable","date":"2016-10"},"persistent_id":"044face9cb705b3a9efad5c87789b782b43b224236da0f89a899b96e56da563d","id":49588636,"location_subtype":"","month":"2016-06"},{"category":"vehicle-crime","location_type":"Force","location":{"latitude":"51.463278","street":{"id":942641,"name":"On or near Wingate Square"},"longitude":"-0.140587"},"context":"","outcome_status":{"category":"Status update unavailable","date":"2016-10"},"persistent_id":"d07901251181dc48a8fe09264eea381c8eb9964849d5ea52aba3c0020c77cc77","id":49620553,"location_subtype":"","month":"2016-06"},{"category":"vehicle-crime","location_type":"Force","location":{"latitude":"51.464354","street":{"id":942635,"name":"On or near The Chase"},"longitude":"-0.146647"},"context":"","outcome_status":{"category":"Status update unavailable","date":"2016-10"},"persistent_id":"88ee423850500a33fd808e77037ffb4099f1fe48d5dfab386afc58f90858a7d8","id":49582176,"location_subtype":"","month":"2016-06"},{"category":"vehicle-crime","location_type":"Force","location":{"latitude":"51.465425","street":{"id":942656,"name":"On or near Liston Road"},"longitude":"-0.139866"},"context":"","outcome_status":{"category":"Status update unavailable","date":"2016-10"},"persistent_id":"6ce981fedaa7eeca5f6224ffa47ed1ce1a236f6d6da8efa279b59eadebe0f9a9","id":49622648,"location_subtype":"","month":"2016-06"},{"category":"vehicle-crime","location_type":"Force","location":{"latitude":"51.465340","street":{"id":942654,"name":"On or near Lydon Road"},"longitude":"-0.142461"},"context":"","outcome_status":{"category":"Status update unavailable","date":"2016-10"},"persistent_id":"84a75f8d5e816d039dacba25e1423eabe55075185326d7d88b4a1518de7b6271","id":49625498,"location_subtype":"","month":"2016-06"},{"category":"vehicle-crime","location_type":"Force","location":{"latitude":"51.469137","street":{"id":945839,"name":"On or near Brayburne Avenue"},"longitude":"-0.138636"},"context":"","outcome_status":{"category":"Status update unavailable","date":"2016-10"},"persistent_id":"030152ad7456eed4fa0377bf95dc1236c2fcb8fe3a6cc5cfc7029e4ef4ce54d0","id":49625719,"location_subtype":"","month":"2016-06"},{"category":"vehicle-crime","location_type":"Force","location":{"latitude":"51.464801","street":{"id":942729,"name":"On or near Belmont Road"},"longitude":"-0.137934"},"context":"","outcome_status":{"category":"Investigation complete; no suspect identified","date":"2016-08"},"persistent_id":"ff103524bafb8eaed99b46b219feb97b0c8b35e242429623c886095f183e2ba2","id":49628662,"location_subtype":"","month":"2016-06"},{"category":"vehicle-crime","location_type":"Force","location":{"latitude":"51.469696","street":{"id":945757,"name":"On or near St Rule Street"},"longitude":"-0.142644"},"context":"","outcome_status":{"category":"Status update unavailable","date":"2016-10"},"persistent_id":"d9836157014ae190dbc5f893866ac0cf8be247842f006747e024b269a6ab6697","id":49629748,"location_subtype":"","month":"2016-06"},{"category":"vehicle-crime","location_type":"Force","location":{"latitude":"51.465425","street":{"id":942656,"name":"On or near Liston Road"},"longitude":"-0.139866"},"context":"","outcome_status":{"category":"Status update unavailable","date":"2016-10"},"persistent_id":"8d95abe1febbd0e05a5d07659cf725d55b35bb1fbb53bb3820046c1416ebcde2","id":49629814,"location_subtype":"","month":"2016-06"},{"category":"vehicle-crime","location_type":"Force","location":{"latitude":"51.468076","street":{"id":945829,"name":"On or near Larkhall Rise"},"longitude":"-0.138016"},"context":"","outcome_status":{"category":"Investigation complete; no suspect identified","date":"2016-07"},"persistent_id":"db0c2e7f47a6e48d86169de7ef9ae25ff6f613aeb2507280d9a98b94a98980aa","id":49625657,"location_subtype":"","month":"2016-06"},{"category":"vehicle-crime","location_type":"Force","location":{"latitude":"51.470549","street":{"id":945767,"name":"On or near Crichton Street"},"longitude":"-0.141472"},"context":"","outcome_status":{"category":"Status update unavailable","date":"2016-10"},"persistent_id":"9cb96d53f8f904d71879ada8f56d53188074475b78df71eafd295333a5c385a3","id":49619302,"location_subtype":"","month":"2016-06"},{"category":"vehicle-crime","location_type":"Force","location":{"latitude":"51.468076","street":{"id":945829,"name":"On or near Larkhall Rise"},"longitude":"-0.138016"},"context":"","outcome_status":{"category":"Status update unavailable","date":"2016-10"},"persistent_id":"018e466869b7ee654bd8a9a36a434d111e786f77dcb19ba74419166f67f5108d","id":49618742,"location_subtype":"","month":"2016-06"},{"category":"vehicle-crime","location_type":"Force","location":{"latitude":"51.462704","street":{"id":942724,"name":"On or near Carpenter's Place"},"longitude":"-0.134463"},"context":"","outcome_status":{"category":"Investigation complete; no suspect identified","date":"2016-06"},"persistent_id":"4c42b7908c3680ace4fa060573e0ace9e9423ade50196a428fa1f0cd54141f5a","id":49581644,"location_subtype":"","month":"2016-06"},{"category":"vehicle-crime","location_type":"Force","location":{"latitude":"51.466358","street":{"id":945816,"name":"On or near Lambourn Road"},"longitude":"-0.145976"},"context":"","outcome_status":{"category":"Investigation complete; no suspect identified","date":"2016-06"},"persistent_id":"c01a1b2c5a3b4891d590c422c64bef6ba2b17e7455380209b8a34d7c3ad523dd","id":49597855,"location_subtype":"","month":"2016-06"},{"category":"vehicle-crime","location_type":"Force","location":{"latitude":"51.470990","street":{"id":945759,"name":"On or near Portslade Road"},"longitude":"-0.139741"},"context":"","outcome_status":{"category":"Investigation complete; no suspect identified","date":"2016-07"},"persistent_id":"55d1715759e4ac531185424d0bddb129ab5076ac0c10e3c462eb6823163a84d2","id":49629771,"location_subtype":"","month":"2016-06"},{"category":"vehicle-crime","location_type":"Force","location":{"latitude":"51.465978","street":{"id":945801,"name":"On or near Lillieshall Road"},"longitude":"-0.144105"},"context":"","outcome_status":{"category":"Investigation complete; no suspect identified","date":"2016-06"},"persistent_id":"f1a22648e53dae0270d9aa6938e105491dbb7d53dacf82454b1df25d0027d345","id":49630132,"location_subtype":"","month":"2016-06"},{"category":"vehicle-crime","location_type":"Force","location":{"latitude":"51.468516","street":{"id":945798,"name":"On or near Peardon Street"},"longitude":"-0.145370"},"context":"","outcome_status":{"category":"Investigation complete; no suspect identified","date":"2016-07"},"persistent_id":"43db810eb40e8680e7dce5e694be3b0ea33ffb1a427fd645ce88f581fac9cd9f","id":49605416,"location_subtype":"","month":"2016-06"},{"category":"vehicle-crime","location_type":"Force","location":{"latitude":"51.461704","street":{"id":942675,"name":"On or near The Pavement"},"longitude":"-0.139413"},"context":"","outcome_status":{"category":"Status update unavailable","date":"2016-10"},"persistent_id":"3a9f37abb482a18d1731ef371e65859244d01e8227b083469e4d71f2ce062340","id":49610853,"location_subtype":"","month":"2016-06"},{"category":"violent-crime","location_type":"Force","location":{"latitude":"51.459993","street":{"id":942720,"name":"On or near Clapham Crescent"},"longitude":"-0.133595"},"context":"","outcome_status":{"category":"Investigation complete; no suspect identified","date":"2016-06"},"persistent_id":"20088142b639690fe1cbbae51f777b62d3e63312a1b8db414c594ff2345153e6","id":49623745,"location_subtype":"","month":"2016-06"},{"category":"violent-crime","location_type":"Force","location":{"latitude":"51.462203","street":{"id":942738,"name":"On or near Supermarket"},"longitude":"-0.137982"},"context":"","outcome_status":{"category":"Offender given a caution","date":"2016-06"},"persistent_id":"f8f5bd6ba6bc7295fb15d8f5e74c65bc866004f8eae13db78c0eb81b942e0002","id":49576505,"location_subtype":"","month":"2016-06"},{"category":"violent-crime","location_type":"Force","location":{"latitude":"51.462203","street":{"id":942738,"name":"On or near Supermarket"},"longitude":"-0.137982"},"context":"","outcome_status":{"category":"Investigation complete; no suspect identified","date":"2016-10"},"persistent_id":"abaa46f81a7e1ba3bf4e6389f9190e039b597e6a5b5abfd78ee6c0c0513fec03","id":49585325,"location_subtype":"","month":"2016-06"},{"category":"violent-crime","location_type":"Force","location":{"latitude":"51.459993","street":{"id":942720,"name":"On or near Clapham Crescent"},"longitude":"-0.133595"},"context":"","outcome_status":{"category":"Investigation complete; no suspect identified","date":"2016-08"},"persistent_id":"f62d413d648c9c836c049072e6ff9a2653ce75b670639cd59b59a4c5a7f2b569","id":49582416,"location_subtype":"","month":"2016-06"},{"category":"violent-crime","location_type":"Force","location":{"latitude":"51.463963","street":{"id":942705,"name":"On or near Edgeley Lane"},"longitude":"-0.133318"},"context":"","outcome_status":{"category":"Status update unavailable","date":"2016-10"},"persistent_id":"58e749fb07ee87d5284a58fb0327e705644364245fe77293f77dc237be98a413","id":49593495,"location_subtype":"","month":"2016-06"},{"category":"violent-crime","location_type":"Force","location":{"latitude":"51.463810","street":{"id":942882,"name":"On or near Cedars Road"},"longitude":"-0.149750"},"context":"","outcome_status":{"category":"Investigation complete; no suspect identified","date":"2016-07"},"persistent_id":"997b0bc3f16c0c33c092662442269b3b3cc6697a1b0032b5158cffd12dec7919","id":49617727,"location_subtype":"","month":"2016-06"},{"category":"violent-crime","location_type":"Force","location":{"latitude":"51.466078","street":{"id":945805,"name":"On or near Charlotte Row"},"longitude":"-0.142489"},"context":"","outcome_status":{"category":"Investigation complete; no suspect identified","date":"2016-06"},"persistent_id":"820141f5126b1022435707984c77d698de6f37f5a2d4b06f202d71c689b4e196","id":49593445,"location_subtype":"","month":"2016-06"},{"category":"violent-crime","location_type":"Force","location":{"latitude":"51.467737","street":{"id":945813,"name":"On or near Newby Street"},"longitude":"-0.146165"},"context":"","outcome_status":{"category":"Status update unavailable","date":"2016-10"},"persistent_id":"c7edabbee80a45b1ecf8d76bc2725245a5fa208345be6a43f2104ab3b40fd2ba","id":49593709,"location_subtype":"","month":"2016-06"},{"category":"violent-crime","location_type":"Force","location":{"latitude":"51.463963","street":{"id":942705,"name":"On or near Edgeley Lane"},"longitude":"-0.133318"},"context":"","outcome_status":{"category":"Investigation complete; no suspect identified","date":"2016-06"},"persistent_id":"aed9a5062ba2b0dff8a67abb3a6d01df1a38e0cc73c071e4af822f0a49f3222f","id":49577140,"location_subtype":"","month":"2016-06"},{"category":"violent-crime","location_type":"Force","location":{"latitude":"51.466818","street":{"id":945836,"name":"On or near Cubitt Terrace"},"longitude":"-0.138687"},"context":"","outcome_status":{"category":"Defendant found not guilty","date":"2016-11"},"persistent_id":"1375968c1d4e5397722d10948e39cdd2e38cb6b78726e6cb44fb4e55d28ae907","id":49576377,"location_subtype":"","month":"2016-06"},{"category":"violent-crime","location_type":"Force","location":{"latitude":"51.467737","street":{"id":945813,"name":"On or near Newby Street"},"longitude":"-0.146165"},"context":"","outcome_status":{"category":"Status update unavailable","date":"2016-10"},"persistent_id":"0e328444cd567d93c60185dd8473171abeb6a85787e47d65397e4616b1e9bfe6","id":49577125,"location_subtype":"","month":"2016-06"},{"category":"violent-crime","location_type":"Force","location":{"latitude":"51.462341","street":{"id":942739,"name":"On or near Supermarket"},"longitude":"-0.135903"},"context":"","outcome_status":{"category":"Investigation complete; no suspect identified","date":"2016-08"},"persistent_id":"a46520179cdd28c578478dae4aea52464bfe3d5ef34b51b20e0078a03a900368","id":49577453,"location_subtype":"","month":"2016-06"},{"category":"violent-crime","location_type":"Force","location":{"latitude":"51.466467","street":{"id":945689,"name":"On or near Supermarket"},"longitude":"-0.150046"},"context":"","outcome_status":{"category":"Investigation complete; no suspect identified","date":"2016-06"},"persistent_id":"2ee6cd3fe0a2d03f337d3d4090653dc6de425c5515b1f44d485cc9737c4c4499","id":49593954,"location_subtype":"","month":"2016-06"},{"category":"violent-crime","location_type":"Force","location":{"latitude":"51.463963","street":{"id":942705,"name":"On or near Edgeley Lane"},"longitude":"-0.133318"},"context":"","outcome_status":{"category":"Investigation complete; no suspect identified","date":"2016-08"},"persistent_id":"1884fb3cae3af15c2b3f01c817da3a1d117a6ae385e205ffa23c5b1065b3e347","id":49613752,"location_subtype":"","month":"2016-06"},{"category":"violent-crime","location_type":"Force","location":{"latitude":"51.463963","street":{"id":942705,"name":"On or near Edgeley Lane"},"longitude":"-0.133318"},"context":"","outcome_status":{"category":"Investigation complete; no suspect identified","date":"2016-06"},"persistent_id":"81f88229bff782664c8cfca06dbb41710014775ae2c81f3a45ed2d949ba85824","id":49577688,"location_subtype":"","month":"2016-06"},{"category":"violent-crime","location_type":"Force","location":{"latitude":"51.466467","street":{"id":945689,"name":"On or near Supermarket"},"longitude":"-0.150046"},"context":"","outcome_status":{"category":"Investigation complete; no suspect identified","date":"2016-06"},"persistent_id":"788b794d8dfe8278526b6aa707221ad407bdae6d30027f09c25f87b5c3608650","id":49623910,"location_subtype":"","month":"2016-06"},{"category":"violent-crime","location_type":"Force","location":{"latitude":"51.464058","street":{"id":942652,"name":"On or near Old Town"},"longitude":"-0.141549"},"context":"","outcome_status":{"category":"Offender given suspended prison sentence","date":"2016-11"},"persistent_id":"d7671db6821d90a143176bc6742602da4cdfd9b687834a503cb2408a5ae1247b","id":49623918,"location_subtype":"","month":"2016-06"},{"category":"violent-crime","location_type":"Force","location":{"latitude":"51.463450","street":{"id":942685,"name":"On or near Prescott Place"},"longitude":"-0.135541"},"context":"","outcome_status":{"category":"Investigation complete; no suspect identified","date":"2016-09"},"persistent_id":"3615f029bdd9858759c9e1988475399a2620881685550c60e69ebc0f27061582","id":49623694,"location_subtype":"","month":"2016-06"},{"category":"violent-crime","location_type":"Force","location":{"latitude":"51.462341","street":{"id":942739,"name":"On or near Supermarket"},"longitude":"-0.135903"},"context":"","outcome_status":{"category":"Investigation complete; no suspect identified","date":"2016-08"},"persistent_id":"d30e14e6bd508adfb1c88a3c5686e9eec9b45a584f33dfcb9f2af5bc44890e05","id":49619136,"location_subtype":"","month":"2016-06"},{"category":"violent-crime","location_type":"Force","location":{"latitude":"51.463963","street":{"id":942705,"name":"On or near Edgeley Lane"},"longitude":"-0.133318"},"context":"","outcome_status":{"category":"Status update unavailable","date":"2016-10"},"persistent_id":"25fdca33feb6e841182a881be6b0e18f752a9110eb7ebe3c793d9dc044f95182","id":49617928,"location_subtype":"","month":"2016-06"},{"category":"violent-crime","location_type":"Force","location":{"latitude":"51.466818","street":{"id":945836,"name":"On or near Cubitt Terrace"},"longitude":"-0.138687"},"context":"","outcome_status":{"category":"Investigation complete; no suspect identified","date":"2016-06"},"persistent_id":"2f4e2fedb4216c1a86b302d3c3b0712cec8a35c0b14a5af58602fa7d326de20c","id":49582180,"location_subtype":"","month":"2016-06"},{"category":"violent-crime","location_type":"Force","location":{"latitude":"51.462115","street":{"id":942740,"name":"On or near Supermarket"},"longitude":"-0.138677"},"context":"","outcome_status":{"category":"Investigation complete; no suspect identified","date":"2016-06"},"persistent_id":"91923bd0d67589b0a50d518ec8551fa6f4d0c7f5b6fec677e1c26d4d51ba6b75","id":49632810,"location_subtype":"","month":"2016-06"},{"category":"violent-crime","location_type":"Force","location":{"latitude":"51.463450","street":{"id":942685,"name":"On or near Prescott Place"},"longitude":"-0.135541"},"context":"","outcome_status":{"category":"Offender given a caution","date":"2016-06"},"persistent_id":"00bf59916f4753213754b95ad373a346f6d3fcdc2c399a0e52e0b95fc6f8e0fe","id":49621139,"location_subtype":"","month":"2016-06"},{"category":"violent-crime","location_type":"Force","location":{"latitude":"51.462203","street":{"id":942738,"name":"On or near Supermarket"},"longitude":"-0.137982"},"context":"","outcome_status":{"category":"Offender given community sentence","date":"2016-11"},"persistent_id":"a0d89d754dc20daded57d74e6f1079d480f3f37286fb015f1c259420d06f6fee","id":49604856,"location_subtype":"","month":"2016-06"},{"category":"violent-crime","location_type":"Force","location":{"latitude":"51.462203","street":{"id":942738,"name":"On or near Supermarket"},"longitude":"-0.137982"},"context":"","outcome_status":{"category":"Investigation complete; no suspect identified","date":"2016-07"},"persistent_id":"b1518d611070875996aa44ac0729b6c4d44e10a009ca439a297fc68008a4ebd0","id":49617309,"location_subtype":"","month":"2016-06"},{"category":"violent-crime","location_type":"Force","location":{"latitude":"51.463963","street":{"id":942705,"name":"On or near Edgeley Lane"},"longitude":"-0.133318"},"context":"","outcome_status":{"category":"Investigation complete; no suspect identified","date":"2016-06"},"persistent_id":"0264e05a9e34e741931690a38e9b338e5f7317dff6b619d5e774e6f1f6fe5b96","id":49612672,"location_subtype":"","month":"2016-06"},{"category":"violent-crime","location_type":"Force","location":{"latitude":"51.463123","street":{"id":942737,"name":"On or near Nightclub"},"longitude":"-0.135915"},"context":"","outcome_status":{"category":"Status update unavailable","date":"2016-10"},"persistent_id":"6fc29ca59276cd902b4ad9565d06e19d7720ea5465617d8b776f820efab32848","id":49596718,"location_subtype":"","month":"2016-06"},{"category":"violent-crime","location_type":"Force","location":{"latitude":"51.466151","street":{"id":945834,"name":"On or near Edgeley Road"},"longitude":"-0.134596"},"context":"","outcome_status":{"category":"Investigation complete; no suspect identified","date":"2017-04"},"persistent_id":"678e846c34803ce2f3ca8f8f28882fa8410757440314459579539f1df49322b6","id":49610283,"location_subtype":"","month":"2016-06"},{"category":"violent-crime","location_type":"Force","location":{"latitude":"51.461672","street":{"id":942690,"name":"On or near Nelsons Row"},"longitude":"-0.134002"},"context":"","outcome_status":{"category":"Status update unavailable","date":"2016-10"},"persistent_id":"a57a6c9f67f0824b1124e70732f6d9c187c136630fb8cb10c1e84ed64db386e3","id":49625763,"location_subtype":"","month":"2016-06"},{"category":"violent-crime","location_type":"Force","location":{"latitude":"51.463123","street":{"id":942737,"name":"On or near Nightclub"},"longitude":"-0.135915"},"context":"","outcome_status":{"category":"Investigation complete; no suspect identified","date":"2017-02"},"persistent_id":"40cd907bb5efc1d47f53606305f0aa6c81ad454898e1da2bf0046c3df06a9617","id":49625392,"location_subtype":"","month":"2016-06"},{"category":"violent-crime","location_type":"Force","location":{"latitude":"51.467737","street":{"id":945813,"name":"On or near Newby Street"},"longitude":"-0.146165"},"context":"","outcome_status":{"category":"Investigation complete; no suspect identified","date":"2016-11"},"persistent_id":"a9e44de89ce665f1e41cf6472a161c41589f6a1dd16a799d59ff91a368e4e8bf","id":49624966,"location_subtype":"","month":"2016-06"},{"category":"violent-crime","location_type":"Force","location":{"latitude":"51.462115","street":{"id":942740,"name":"On or near Supermarket"},"longitude":"-0.138677"},"context":"","outcome_status":{"category":"Court result unavailable","date":"2017-06"},"persistent_id":"460a1008d87b392e4f6a87968daee26d9b16c8f4da5c21799a36f640dfe58977","id":49627791,"location_subtype":"","month":"2016-06"},{"category":"violent-crime","location_type":"Force","location":{"latitude":"51.467737","street":{"id":945813,"name":"On or near Newby Street"},"longitude":"-0.146165"},"context":"","outcome_status":{"category":"Status update unavailable","date":"2016-10"},"persistent_id":"781037c9faaec4269c761981127de97af44de372623b528628410d65940cf3b8","id":49625047,"location_subtype":"","month":"2016-06"},{"category":"violent-crime","location_type":"Force","location":{"latitude":"51.462203","street":{"id":942738,"name":"On or near Supermarket"},"longitude":"-0.137982"},"context":"","outcome_status":{"category":"Investigation complete; no suspect identified","date":"2016-08"},"persistent_id":"a85fb40e1cd9f28e515568775503d126747b45ea97232898bcd31d109bd32c53","id":49628321,"location_subtype":"","month":"2016-06"},{"category":"violent-crime","location_type":"Force","location":{"latitude":"51.463123","street":{"id":942737,"name":"On or near Nightclub"},"longitude":"-0.135915"},"context":"","outcome_status":{"category":"Investigation complete; no suspect identified","date":"2016-08"},"persistent_id":"932fe1ab8a79cccedfde500f0151d770cf843c5b389262485f76c269db1cf250","id":49630120,"location_subtype":"","month":"2016-06"},{"category":"violent-crime","location_type":"Force","location":{"latitude":"51.461199","street":{"id":942668,"name":"On or near White's Square"},"longitude":"-0.132567"},"context":"","outcome_status":{"category":"Local resolution","date":"2016-08"},"persistent_id":"6ba70db1c0557dfce8fdce8fb172690f0941ecae8638bee4273527d451f5705b","id":49598289,"location_subtype":"","month":"2016-06"},{"category":"violent-crime","location_type":"Force","location":{"latitude":"51.463963","street":{"id":942705,"name":"On or near Edgeley Lane"},"longitude":"-0.133318"},"context":"","outcome_status":{"category":"Investigation complete; no suspect identified","date":"2016-12"},"persistent_id":"18e6ff7bc22f26b487ab1ceb013a7e56ac40f0177c7fb7c6519409e2781e8c50","id":49612837,"location_subtype":"","month":"2016-06"},{"category":"violent-crime","location_type":"Force","location":{"latitude":"51.463599","street":{"id":942679,"name":"On or near Stonhouse Street"},"longitude":"-0.136989"},"context":"","outcome_status":{"category":"Status update unavailable","date":"2016-10"},"persistent_id":"f7fbb22d939936d431d44f406ae63d97f86b21473692e9aecc7d1cdc9bcdd7fb","id":49624065,"location_subtype":"","month":"2016-06"},{"category":"other-crime","location_type":"Force","location":{"latitude":"51.461199","street":{"id":942668,"name":"On or near White's Square"},"longitude":"-0.132567"},"context":"","outcome_status":{"category":"Court result unavailable","date":"2016-12"},"persistent_id":"15c73cb04267562195b3c986635420bede64f7eed8d588433442f48cc8802881","id":49628323,"location_subtype":"","month":"2016-06"},{"category":"other-crime","location_type":"Force","location":{"latitude":"51.463123","street":{"id":942737,"name":"On or near Nightclub"},"longitude":"-0.135915"},"context":"","outcome_status":{"category":"Investigation complete; no suspect identified","date":"2016-08"},"persistent_id":"e9169d3052229efeff32a32738c2ec0d7dcb82f4c34e7213d074c5198c075bc7","id":49579189,"location_subtype":"","month":"2016-06"}]