[{"category":"anti-social-behaviour","location_type":"Force","location":{"latitude":"51.357928","street":{"id":926183,"name":"On or near Harrow Close"},"longitude":"-0.310908"},"context":"","outcome_status":null,"persistent_id":"","id":49551280,"location_subtype":"","month":"2016-06"},{"category":"anti-social-behaviour","location_type":"Force","location":{"latitude":"51.357928","street":{"id":926183,"name":"On or near Harrow Close"},"longitude":"-0.310908"},"context":"","outcome_status":null,"persistent_id":"","id":49551278,"location_subtype":"","month":"2016-06"},{"category":"anti-social-behaviour","location_type":"Force","location":{"latitude":"51.360046","street":{"id":926182,"name":"On or near Sienna Close"},"longitude":"-0.310614"},"context":"","outcome_status":null,"persistent_id":"","id":49551276,"location_subtype":"","month":"2016-06"},{"category":"anti-social-behaviour","location_type":"Force","location":{"latitude":"51.357928","street":{"id":926183,"name":"On or near Harrow Close"},"longitude":"-0.310908"},"context":"","outcome_status":null,"persistent_id":"","id":49551282,"location_subtype":"","month":"2016-06"},{"category":"anti-social-behaviour","location_type":"Force","location":{"latitude":"51.357928","street":{"id":926183,"name":"On or near Harrow Close"},"longitude":"-0.310908"},"context":"","outcome_status":null,"persistent_id":"","id":49551281,"location_subtype":"","month":"2016-06"},{"category":"anti-social-behaviour","location_type":"Force","location":{"latitude":"51.357084","street":{"id":926186,"name":"On or near Burton Close"},"longitude":"-0.311010"},"context":"","outcome_status":null,"persistent_id":"","id":49551283,"location_subtype":"","month":"2016-06"},{"category":"anti-social-behaviour","location_type":"Force","location":{"latitude":"51.358659","street":{"id":926159,"name":"On or near Billockby Close"},"longitude":"-0.294923"},"context":"","outcome_status":null,"persistent_id":"","id":49550335,"location_subtype":"","month":"2016-06"},{"category":"anti-social-behaviour","location_type":"Force","location":{"latitude":"51.357494","street":{"id":926191,"name":"On or near Wetherby Way"},"longitude":"-0.303254"},"context":"","outcome_status":null,"persistent_id":"","id":49550397,"location_subtype":"","month":"2016-06"},{"category":"anti-social-behaviour","location_type":"Force","location":{"latitude":"51.362777","street":{"id":926348,"name":"On or near Juniper Close"},"longitude":"-0.293693"},"context":"","outcome_status":null,"persistent_id":"","id":49550321,"location_subtype":"","month":"2016-06"},{"category":"anti-social-behaviour","location_type":"Force","location":{"latitude":"51.357580","street":{"id":926190,"name":"On or near York Way"},"longitude":"-0.306109"},"context":"","outcome_status":null,"persistent_id":"","id":49551249,"location_subtype":"","month":"2016-06"},{"category":"anti-social-behaviour","location_type":"Force","location":{"latitude":"51.357947","street":{"id":926204,"name":"On or near Crayke Hill"},"longitude":"-0.304759"},"context":"","outcome_status":null,"persistent_id":"","id":49551216,"location_subtype":"","month":"2016-06"},{"category":"anti-social-behaviour","location_type":"Force","location":{"latitude":"51.356783","street":{"id":926202,"name":"On or near Garrison Lane"},"longitude":"-0.305707"},"context":"","outcome_status":null,"persistent_id":"","id":49551253,"location_subtype":"","month":"2016-06"},{"category":"anti-social-behaviour","location_type":"Force","location":{"latitude":"51.362561","street":{"id":926199,"name":"On or near Leatherhead Road"},"longitude":"-0.307879"},"context":"","outcome_status":null,"persistent_id":"","id":49551264,"location_subtype":"","month":"2016-06"},{"category":"anti-social-behaviour","location_type":"Force","location":{"latitude":"51.362561","street":{"id":926199,"name":"On or near Leatherhead Road"},"longitude":"-0.307879"},"context":"","outcome_status":null,"persistent_id":"","id":49551265,"location_subtype":"","month":"2016-06"},{"category":"anti-social-behaviour","location_type":"Force","location":{"latitude":"51.357947","street":{"id":926204,"name":"On or near Crayke Hill"},"longitude":"-0.304759"},"context":"","outcome_status":null,"persistent_id":"","id":49551215,"location_subtype":"","month":"2016-06"},{"category":"anti-social-behaviour","location_type":"Force","location":{"latitude":"51.359011","street":{"id":926171,"name":"On or near Lofthouse Place"},"longitude":"-0.314889"},"context":"","outcome_status":null,"persistent_id":"","id":49551299,"location_subtype":"","month":"2016-06"},{"category":"anti-social-behaviour","location_type":"Force","location":{"latitude":"51.349185","street":{"id":924749,"name":"On or near Chalky Lane"},"longitude":"-0.310769"},"context":"","outcome_status":null,"persistent_id":"","id":49551297,"location_subtype":"","month":"2016-06"},{"category":"anti-social-behaviour","location_type":"Force","location":{"latitude":"51.353045","street":{"id":926212,"name":"On or near Almshouse Lane"},"longitude":"-0.314017"},"context":"","outcome_status":null,"persistent_id":"","id":49551293,"location_subtype":"","month":"2016-06"},{"category":"anti-social-behaviour","location_type":"Force","location":{"latitude":"51.353045","street":{"id":926212,"name":"On or near Almshouse Lane"},"longitude":"-0.314017"},"context":"","outcome_status":null,"persistent_id":"","id":49551292,"location_subtype":"","month":"2016-06"},{"category":"anti-social-behaviour","location_type":"Force","location":{"latitude":"51.353045","street":{"id":926212,"name":"On or near Almshouse Lane"},"longitude":"-0.314017"},"context":"","outcome_status":null,"persistent_id":"","id":49551291,"location_subtype":"","month":"2016-06"},{"category":"anti-social-behaviour","location_type":"Force","location":{"latitude":"51.357928","street":{"id":926183,"name":"On or near Harrow Close"},"longitude":"-0.310908"},"context":"","outcome_status":null,"persistent_id":"","id":49551279,"location_subtype":"","month":"2016-06"},{"category":"burglary","location_type":"Force","location":{"latitude":"51.360046","street":{"id":926182,"name":"On or near Sienna Close"},"longitude":"-0.310614"},"context":"","outcome_status":{"category":"Investigation complete; no suspect identified","date":"2016-07"},"persistent_id":"fca18d8ae196811bc827a6b2a3c975d9685cc6171b051f5005a1bb2bb7adea7d","id":49616692,"location_subtype":"","month":"2016-06"},{"category":"burglary","location_type":"Force","location":{"latitude":"51.363397","street":{"id":926265,"name":"On or near Mansfield Road"},"longitude":"-0.312272"},"context":"","outcome_status":{"category":"Investigation complete; no suspect identified","date":"2016-07"},"persistent_id":"680aa9c4054abe21fefa5a6d9d33069d217f5b78b80b9fc2bfa06db877a47a70","id":49571122,"location_subtype":"","month":"2016-06"},{"category":"burglary","location_type":"Force","location":{"latitude":"51.357947","street":{"id":926204,"name":"On or near Crayke Hill"},"longitude":"-0.304759"},"context":"","outcome_status":{"category":"Investigation complete; no suspect identified","date":"2017-01"},"persistent_id":"a9828890d81220ef0dddad8afbd9a8bf0373393bd75a00a9367f7a6148136160","id":49566775,"location_subtype":"","month":"2016-06"},{"category":"burglary","location_type":"Force","location":{"latitude":"51.359789","street":{"id":926144,"name":"On or near Thrigby Road"},"longitude":"-0.292870"},"context":"","outcome_status":{"category":"Status update unavailable","date":"2016-10"},"persistent_id":"7bce9eb86489f12ec159ebbf3d9f7f2d234eab1c7658eeeeb0a7bb268f23b59a","id":49598268,"location_subtype":"","month":"2016-06"},{"category":"burglary","location_type":"Force","location":{"latitude":"51.360253","street":{"id":926152,"name":"On or near Hemsby Road"},"longitude":"-0.295683"},"context":"","outcome_status":{"category":"Status update unavailable","date":"2016-10"},"persistent_id":"7b0cf66d21b2cf4387912ec01c9925d36ab6b15c012f6b361863d64904305510","id":49596134,"location_subtype":"","month":"2016-06"},{"category":"burglary","location_type":"Force","location":{"latitude":"51.328057","street":{"id":924748,"name":"On or near Kingston Road"},"longitude":"-0.326100"},"context":"","outcome_status":{"category":"Investigation complete; no suspect identified","date":"2016-07"},"persistent_id":"ca4de394345ebadf3638d6d459bf18ecc71465e20467652c032037bd8271d3e7","id":49622298,"location_subtype":"","month":"2016-06"},{"category":"criminal-damage-arson","location_type":"Force","location":{"latitude":"51.357928","street":{"id":926183,"name":"On or near Harrow Close"},"longitude":"-0.310908"},"context":"","outcome_status":{"category":"Status update unavailable","date":"2016-10"},"persistent_id":"b0bb8a519ddced5bf19002f41dbf69e9702f1c648a6671c045b08c24ab877438","id":49569941,"location_subtype":"","month":"2016-06"},{"category":"criminal-damage-arson","location_type":"Force","location":{"latitude":"51.363245","street":{"id":926284,"name":"On or near Hook Road"},"longitude":"-0.308572"},"context":"","outcome_status":{"category":"Status update unavailable","date":"2016-10"},"persistent_id":"82084c2a26b82277bacc93caf662b0017af01b72772963818fa43fcc9ee88360","id":49622287,"location_subtype":"","month":"2016-06"},{"category":"criminal-damage-arson","location_type":"Force","location":{"latitude":"51.361216","street":{"id":926216,"name":"On or near Benham Close"},"longitude":"-0.315053"},"context":"","outcome_status":{"category":"Status update unavailable","date":"2016-10"},"persistent_id":"f9a7b64d6cb663a906e094464e303736b8e4063bed062a441c792abbbb31bbc6","id":49628439,"location_subtype":"","month":"2016-06"},{"category":"criminal-damage-arson","location_type":"Force","location":{"latitude":"51.364863","street":{"id":926352,"name":"On or near Chantry Road"},"longitude":"-0.291762"},"context":"","outcome_status":{"category":"Investigation complete; no suspect identified","date":"2016-06"},"persistent_id":"3357742032cdf3b523e7ec7897ac3790ee1a5c7b5aea61ae90be33dfcc3a39cb","id":49567384,"location_subtype":"","month":"2016-06"},{"category":"criminal-damage-arson","location_type":"Force","location":{"latitude":"51.361724","street":{"id":926149,"name":"On or near May Close"},"longitude":"-0.293574"},"context":"","outcome_status":{"category":"Court result unavailable","date":"2016-12"},"persistent_id":"20e2c07821761780265cf74ce52597aedfec0f6245c882aae96b27f7c4ab0ca6","id":49596010,"location_subtype":"","month":"2016-06"},{"category":"criminal-damage-arson","location_type":"Force","location":{"latitude":"51.338718","street":{"id":924752,"name":"On or near Silverglade"},"longitude":"-0.318290"},"context":"","outcome_status":{"category":"Status update unavailable","date":"2016-10"},"persistent_id":"a00922669499caabc7d81ee49578f47af7078c03e0d898125f2a987610ee7a3b","id":49566230,"location_subtype":"","month":"2016-06"},{"category":"drugs","location_type":"Force","location":{"latitude":"51.361047","street":{"id":926193,"name":"On or near St Catherines Close"},"longitude":"-0.308911"},"context":"","outcome_status":{"category":"Offender sent to prison","date":"2016-06"},"persistent_id":"05ae1adecbfde990128f1cd821f4f0ee897dbc81ded82ef7fb4c9818e379bebc","id":49568671,"location_subtype":"","month":"2016-06"},{"category":"drugs","location_type":"Force","location":{"latitude":"51.349185","street":{"id":924749,"name":"On or near Chalky Lane"},"longitude":"-0.310769"},"context":"","outcome_status":{"category":"Offender fined","date":"2016-06"},"persistent_id":"50fa97f050ad5a67e8685ec6d05d5d93d4e326d3b6b388b9421c9644f4ad7592","id":49570053,"location_subtype":"","month":"2016-06"},{"category":"drugs","location_type":"Force","location":{"latitude":"51.361047","street":{"id":926193,"name":"On or near St Catherines Close"},"longitude":"-0.308911"},"context":"","outcome_status":{"category":"Offender given conditional discharge","date":"2016-07"},"persistent_id":"cdac1ef249e045f1dbded327d21eecbc798d07b01f7e4bbbdb3e36a6173893cd","id":49569966,"location_subtype":"","month":"2016-06"},{"category":"possession-of-weapons","location_type":"Force","location":{"latitude":"51.357494","street":{"id":926191,"name":"On or near Wetherby Way"},"longitude":"-0.303254"},"context":"","outcome_status":{"category":"Investigation complete; no suspect identified","date":"2016-08"},"persistent_id":"4b364fb1895e595f279c0b469827dc47731c4f239e068046b53a897e3074c68b","id":49569214,"location_subtype":"","month":"2016-06"},{"category":"public-order","location_type":"Force","location":{"latitude":"51.362948","street":{"id":926293,"name":"On or near A243"},"longitude":"-0.307922"},"context":"","outcome_status":{"category":"Investigation complete; no suspect identified","date":"2016-07"},"persistent_id":"fe44b084e4fc4bc0a4e72dd82876c0e9de749eadbd21152f631c5b545d56cb1a","id":49630467,"location_subtype":"","month":"2016-06"},{"category":"public-order","location_type":"Force","location":{"latitude":"51.349185","street":{"id":924749,"name":"On or near Chalky Lane"},"longitude":"-0.310769"},"context":"","outcome_status":{"category":"Status update unavailable","date":"2016-10"},"persistent_id":"d55f2dc13d43ee4bea0d65d4bfc5932bb1a8eb17d2aea1439f8c51ceca7292aa","id":49599434,"location_subtype":"","month":"2016-06"},{"category":"public-order","location_type":"Force","location":{"latitude":"51.361047","street":{"id":926193,"name":"On or near St Catherines Close"},"longitude":"-0.308911"},"context":"","outcome_status":{"category":"Investigation complete; no suspect identified","date":"2016-06"},"persistent_id":"c09ff73e47a224e857ae41ef2c792d60b7c17425b257965d49d5e6b752b6f873","id":49620284,"location_subtype":"","month":"2016-06"},{"category":"public-order","location_type":"Force","location":{"latitude":"51.361047","street":{"id":926193,"name":"On or near St Catherines Close"},"longitude":"-0.308911"},"context":"","outcome_status":{"category":"Investigation complete; no suspect identified","date":"2016-07"},"persistent_id":"daca810f3cf3ee83eca196e405585638282c536d47ee30d4a432372937782800","id":49622120,"location_subtype":"","month":"2016-06"},{"category":"robbery","location_type":"Force","location":{"latitude":"51.358659","street":{"id":926159,"name":"On or near Billockby Close"},"longitude":"-0.294923"},"context":"","outcome_status":{"category":"Investigation complete; no suspect identified","date":"2016-07"},"persistent_id":"3902d3684999d4f5baf20bb3c77b8d4f511f3678bb777fedce2ce70d569a361b","id":49620551,"location_subtype":"","month":"2016-06"},{"category":"theft-from-the-person","location_type":"Force","location":{"latitude":"51.349185","street":{"id":924749,"name":"On or near Chalky Lane"},"longitude":"-0.310769"},"context":"","outcome_status":{"category":"Status update unavailable","date":"2016-10"},"persistent_id":"572d53107c2df40fa82e0877d0955ce6bbb494f3729d0d6e7cabcb872bb094af","id":49600700,"location_subtype":"","month":"2016-06"},{"category":"theft-from-the-person","location_type":"Force","location":{"latitude":"51.356393","street":{"id":926188,"name":"On or near Parking Area"},"longitude":"-0.307977"},"context":"","outcome_status":{"category":"Status update unavailable","date":"2016-10"},"persistent_id":"3a1231767cb92184aec3ab6446184e0b7d7135ff7b6604080a65788512e532d3","id":49567599,"location_subtype":"","month":"2016-06"},{"category":"vehicle-crime","location_type":"Force","location":{"latitude":"51.362554","street":{"id":926205,"name":"On or near Court Crescent"},"longitude":"-0.309904"},"context":"","outcome_status":{"category":"Status update unavailable","date":"2016-10"},"persistent_id":"01a2f9bce7547b37126cc105268aebc61075e004fbc8aa868d5e9350ef34fa85","id":49577619,"location_subtype":"","month":"2016-06"},{"category":"vehicle-crime","location_type":"Force","location":{"latitude":"51.363245","street":{"id":926284,"name":"On or near Hook Road"},"longitude":"-0.308572"},"context":"","outcome_status":{"category":"Status update unavailable","date":"2016-10"},"persistent_id":"69b4d1bd593fb92ea033f18bfbe0479484c4d04015e1e9d91f8fc18f3a4a57d7","id":49572883,"location_subtype":"","month":"2016-06"},{"category":"vehicle-crime","location_type":"Force","location":{"latitude":"51.349185","street":{"id":924749,"name":"On or near Chalky Lane"},"longitude":"-0.310769"},"context":"","outcome_status":{"category":"Investigation complete; no suspect identified","date":"2016-08"},"persistent_id":"30bb935fc7077d2f275adc81f33857bacbf993d8e83d6383159f689941cf27fe","id":49624206,"location_subtype":"","month":"2016-06"},{"category":"violent-crime","location_type":"Force","location":{"latitude":"51.363153","street":{"id":926350,"name":"On or near Chessington Hill Park"},"longitude":"-0.289212"},"context":"","outcome_status":{"category":"Investigation complete; no suspect identified","date":"2016-07"},"persistent_id":"fd827b2c9c355eca9291d96c611eb5c27f686d7b57d81e9b2e88944e45539940","id":49622140,"location_subtype":"","month":"2016-06"},{"category":"violent-crime","location_type":"Force","location":{"latitude":"51.357084","street":{"id":926186,"name":"On or near Burton Close"},"longitude":"-0.311010"},"context":"","outcome_status":{"category":"Offender given a caution","date":"2016-08"},"persistent_id":"77516e197224c394687bd4a8e99299abf2ca6c4df74090342052678a609c11dc","id":49622688,"location_subtype":"","month":"2016-06"},{"category":"violent-crime","location_type":"Force","location":{"latitude":"51.357084","street":{"id":926186,"name":"On or near Burton Close"},"longitude":"-0.311010"},"context":"","outcome_status":{"category":"Status update unavailable","date":"2016-10"},"persistent_id":"77516e197224c394687bd4a8e99299abf2ca6c4df74090342052678a609c11dc","id":49622687,"location_subtype":"","month":"2016-06"},{"category":"violent-crime","location_type":"Force","location":{"latitude":"51.358246","street":{"id":926142,"name":"On or near Oakwood Avenue"},"longitude":"-0.299305"},"context":"","outcome_status":{"category":"Local resolution","date":"2016-07"},"persistent_id":"f6d8d5d70648e5512b2ebb97de8ece1ae41ef793bb34360a88d393368518ef8d","id":49623607,"location_subtype":"","month":"2016-06"},{"category":"violent-crime","location_type":"Force","location":{"latitude":"51.357093","street":{"id":926151,"name":"On or near Leas Close"},"longitude":"-0.298572"},"context":"","outcome_status":{"category":"Investigation complete; no suspect identified","date":"2016-09"},"persistent_id":"b28548fdb4f921220aac95e809b09ec69ef55ab4b8c670ff6bdf9795b2e0a51a","id":49600341,"location_subtype":"","month":"2016-06"},{"category":"violent-crime","location_type":"Force","location":{"latitude":"51.356393","street":{"id":926188,"name":"On or near Parking Area"},"longitude":"-0.307977"},"context":"","outcome_status":{"category":"Investigation complete; no suspect identified","date":"2016-06"},"persistent_id":"d1a05a1320950b0c6dd3c57ca2fdc1d1727a144f32e839e59e546616a36d1b0e","id":49633715,"location_subtype":"","month":"2016-06"},{"category":"violent-crime","location_type":"Force","location":{"latitude":"51.361047","street":{"id":926193,"name":"On or near St Catherines Close"},"longitude":"-0.308911"},"context":"","outcome_status":{"category":"Investigation complete; no suspect identified","date":"2016-07"},"persistent_id":"6c0e10581e7cb8e9148c1ff3e3e84dd1c269fc548052bf10ec18524e52faa893","id":49579309,"location_subtype":"","month":"2016-06"},{"category":"violent-crime","location_type":"Force","location":{"latitude":"51.362196","street":{"id":926157,"name":"On or near Church Rise"},"longitude":"-0.296990"},"context":"","outcome_status":{"category":"Investigation complete; no suspect identified","date":"2016-07"},"persistent_id":"7c3330241091e7041a9b9d38d81966058568c4fc35265be26109f45094cb6af7","id":49572874,"location_subtype":"","month":"2016-06"},{"category":"violent-crime","location_type":"Force","location":{"latitude":"51.328057","street":{"id":924748,"name":"On or near Kingston Road"},"longitude":"-0.326100"},"context":"","outcome_status":{"category":"Status update unavailable","date":"2016-10"},"persistent_id":"64ab54fb1a2b03aa15fcf5a488354e386bb619c493fdf83f588eeebbdb74e644","id":49568050,"location_subtype":"","month":"2016-06"},{"category":"violent-crime","location_type":"Force","location":{"latitude":"51.357928","street":{"id":926183,"name":"On or near Harrow Close"},"longitude":"-0.310908"},"context":"","outcome_status":{"category":"Investigation complete; no suspect identified","date":"2018-04"},"persistent_id":"c0b161da43f4c0b71bcf5b128c334ca041bd471325221cd84783d160bd7bcb92","id":49635548,"location_subtype":"","month":"2016-06"},{"category":"violent-crime","location_type":"Force","location":{"latitude":"51.349185","street":{"id":924749,"name":"On or near Chalky Lane"},"longitude":"-0.310769"},"context":"","outcome_status":{"category":"Investigation complete; no suspect identified","date":"2016-08"},"persistent_id":"f0bf5b70c81647be7280360e8ba445094cb1af88a8209e7586bb3aeda1dd6577","id":49569933,"location_subtype":"","month":"2016-06"},{"category":"violent-crime","location_type":"Force","location":{"latitude":"51.349185","street":{"id":924749,"name":"On or near Chalky Lane"},"longitude":"-0.310769"},"context":"","outcome_status":{"category":"Offender given a caution","date":"2016-09"},"persistent_id":"60ce7e68cc27942542855f3227bcd337ce52e7fae9766cf8400bd66835074c9a","id":49622333,"location_subtype":"","month":"2016-06"}]