[{"category":"anti-social-behaviour","location_type":"Force","location":{"latitude":"51.571077","street":{"id":973237,"name":"On or near Sunnydene Avenue"},"longitude":"-0.412874"},"context":"","outcome_status":null,"persistent_id":"","id":49547219,"location_subtype":"","month":"2016-06"},{"category":"anti-social-behaviour","location_type":"Force","location":{"latitude":"51.570003","street":{"id":973364,"name":"On or near Eversley Crescent"},"longitude":"-0.420559"},"context":"","outcome_status":null,"persistent_id":"","id":49547768,"location_subtype":"","month":"2016-06"},{"category":"anti-social-behaviour","location_type":"Force","location":{"latitude":"51.566362","street":{"id":973235,"name":"On or near Tiverton Road"},"longitude":"-0.409316"},"context":"","outcome_status":null,"persistent_id":"","id":49547163,"location_subtype":"","month":"2016-06"},{"category":"anti-social-behaviour","location_type":"Force","location":{"latitude":"51.566362","street":{"id":973235,"name":"On or near Tiverton Road"},"longitude":"-0.409316"},"context":"","outcome_status":null,"persistent_id":"","id":49547162,"location_subtype":"","month":"2016-06"},{"category":"anti-social-behaviour","location_type":"Force","location":{"latitude":"51.566362","street":{"id":973235,"name":"On or near Tiverton Road"},"longitude":"-0.409316"},"context":"","outcome_status":null,"persistent_id":"","id":49547161,"location_subtype":"","month":"2016-06"},{"category":"anti-social-behaviour","location_type":"Force","location":{"latitude":"51.566362","street":{"id":973235,"name":"On or near Tiverton Road"},"longitude":"-0.409316"},"context":"","outcome_status":null,"persistent_id":"","id":49547160,"location_subtype":"","month":"2016-06"},{"category":"anti-social-behaviour","location_type":"Force","location":{"latitude":"51.564933","street":{"id":973241,"name":"On or near Flamborough Road"},"longitude":"-0.407389"},"context":"","outcome_status":null,"persistent_id":"","id":49547154,"location_subtype":"","month":"2016-06"},{"category":"anti-social-behaviour","location_type":"Force","location":{"latitude":"51.567914","street":{"id":973284,"name":"On or near Beverley Road"},"longitude":"-0.404385"},"context":"","outcome_status":null,"persistent_id":"","id":49547143,"location_subtype":"","month":"2016-06"},{"category":"anti-social-behaviour","location_type":"Force","location":{"latitude":"51.563052","street":{"id":973313,"name":"On or near Sports\/recreation Area"},"longitude":"-0.411206"},"context":"","outcome_status":null,"persistent_id":"","id":49547232,"location_subtype":"","month":"2016-06"},{"category":"anti-social-behaviour","location_type":"Force","location":{"latitude":"51.574918","street":{"id":973253,"name":"On or near Elm Avenue"},"longitude":"-0.407661"},"context":"","outcome_status":null,"persistent_id":"","id":49547158,"location_subtype":"","month":"2016-06"},{"category":"anti-social-behaviour","location_type":"Force","location":{"latitude":"51.573963","street":{"id":973263,"name":"On or near West Way"},"longitude":"-0.414780"},"context":"","outcome_status":null,"persistent_id":"","id":49547247,"location_subtype":"","month":"2016-06"},{"category":"anti-social-behaviour","location_type":"Force","location":{"latitude":"51.573963","street":{"id":973263,"name":"On or near West Way"},"longitude":"-0.414780"},"context":"","outcome_status":null,"persistent_id":"","id":49547246,"location_subtype":"","month":"2016-06"},{"category":"anti-social-behaviour","location_type":"Force","location":{"latitude":"51.572471","street":{"id":973258,"name":"On or near Supermarket"},"longitude":"-0.412220"},"context":"","outcome_status":null,"persistent_id":"","id":49547234,"location_subtype":"","month":"2016-06"},{"category":"burglary","location_type":"Force","location":{"latitude":"51.573112","street":{"id":973259,"name":"On or near Parking Area"},"longitude":"-0.413741"},"context":"","outcome_status":{"category":"Investigation complete; no suspect identified","date":"2016-07"},"persistent_id":"38089023ee118c687cd8c90faff144152f7d017fb2c96168578442d10f6ddca8","id":49611730,"location_subtype":"","month":"2016-06"},{"category":"burglary","location_type":"Force","location":{"latitude":"51.571244","street":{"id":973315,"name":"On or near Shenley Avenue"},"longitude":"-0.416548"},"context":"","outcome_status":{"category":"Status update unavailable","date":"2016-10"},"persistent_id":"15d8ac2c600e4ff9dd52b19269f2a8bc79849d57ab94c78294770baa2c8db251","id":49580909,"location_subtype":"","month":"2016-06"},{"category":"criminal-damage-arson","location_type":"Force","location":{"latitude":"51.566367","street":{"id":973287,"name":"On or near Sports\/recreation Area"},"longitude":"-0.401741"},"context":"","outcome_status":{"category":"Status update unavailable","date":"2016-10"},"persistent_id":"a2e1deeed5b33b58e252a2e18716b10be83fe0fb1b49e05b51ff9675f016dee6","id":49590048,"location_subtype":"","month":"2016-06"},{"category":"criminal-damage-arson","location_type":"Force","location":{"latitude":"51.574918","street":{"id":973253,"name":"On or near Elm Avenue"},"longitude":"-0.407661"},"context":"","outcome_status":{"category":"Status update unavailable","date":"2016-10"},"persistent_id":"4e9bdd0056afa35f7769a368cd695e815e2377627ca455dec18a4cbc30397546","id":49609765,"location_subtype":"","month":"2016-06"},{"category":"criminal-damage-arson","location_type":"Force","location":{"latitude":"51.570187","street":{"id":973357,"name":"On or near Wood Lane"},"longitude":"-0.423511"},"context":"","outcome_status":{"category":"Status update unavailable","date":"2016-10"},"persistent_id":"9636ecefc8a1cd1ec1e8e14001f62224bb61be5a4021bb4afd1fa264220b4c83","id":49631246,"location_subtype":"","month":"2016-06"},{"category":"criminal-damage-arson","location_type":"Force","location":{"latitude":"51.568392","street":{"id":973366,"name":"On or near Sports\/recreation Area"},"longitude":"-0.426445"},"context":"","outcome_status":{"category":"Status update unavailable","date":"2016-10"},"persistent_id":"0f82a5bf5d5398c15c728f810bec8f50166460d4a607a368ce2ce6a564c17e01","id":49608134,"location_subtype":"","month":"2016-06"},{"category":"criminal-damage-arson","location_type":"Force","location":{"latitude":"51.564804","street":{"id":973274,"name":"On or near Whitby Road"},"longitude":"-0.403137"},"context":"","outcome_status":{"category":"Investigation complete; no suspect identified","date":"2016-07"},"persistent_id":"7f1e48a4b47e6d1d2ce1407f67ab99c172a4b48099ffcc26bb439dbe68695df2","id":49607677,"location_subtype":"","month":"2016-06"},{"category":"criminal-damage-arson","location_type":"Force","location":{"latitude":"51.566367","street":{"id":973287,"name":"On or near Sports\/recreation Area"},"longitude":"-0.401741"},"context":"","outcome_status":{"category":"Status update unavailable","date":"2016-10"},"persistent_id":"8e5410c7e02f246b3796cb691b5738cf2a5cabe79142be5959a0b1bc7704dc49","id":49611071,"location_subtype":"","month":"2016-06"},{"category":"criminal-damage-arson","location_type":"Force","location":{"latitude":"51.566367","street":{"id":973287,"name":"On or near Sports\/recreation Area"},"longitude":"-0.401741"},"context":"","outcome_status":{"category":"Status update unavailable","date":"2016-10"},"persistent_id":"6c528f2243223064b3eef022bcac0803f019e1466d90c2143a74194fd2a396ca","id":49585663,"location_subtype":"","month":"2016-06"},{"category":"drugs","location_type":"Force","location":{"latitude":"51.571077","street":{"id":973237,"name":"On or near Sunnydene Avenue"},"longitude":"-0.412874"},"context":"","outcome_status":{"category":"Offender given a caution","date":"2016-06"},"persistent_id":"5517ccef9f15a26ecf465642b3cb8fab7e201bc82d451943f112311118422d46","id":49621227,"location_subtype":"","month":"2016-06"},{"category":"other-theft","location_type":"Force","location":{"latitude":"51.564804","street":{"id":973274,"name":"On or near Whitby Road"},"longitude":"-0.403137"},"context":"","outcome_status":{"category":"Investigation complete; no suspect identified","date":"2016-07"},"persistent_id":"77f8a535a925bfb927d6c9f7dd6673318c672f23e6e8101adb91c01b7b3ce1c9","id":49625425,"location_subtype":"","month":"2016-06"},{"category":"other-theft","location_type":"Force","location":{"latitude":"51.570187","street":{"id":973357,"name":"On or near Wood Lane"},"longitude":"-0.423511"},"context":"","outcome_status":{"category":"Status update unavailable","date":"2016-10"},"persistent_id":"1b68093e4e3f95c9d6a97c30d7670c3ae6fff84ae1be386a56ed696ee0e54886","id":49630698,"location_subtype":"","month":"2016-06"},{"category":"other-theft","location_type":"Force","location":{"latitude":"51.571077","street":{"id":973237,"name":"On or near Sunnydene Avenue"},"longitude":"-0.412874"},"context":"","outcome_status":{"category":"Investigation complete; no suspect identified","date":"2016-06"},"persistent_id":"635e9e50300fcc4607331af522dc7d0e17367e87ae4899d3fd388db59685d1d6","id":49613370,"location_subtype":"","month":"2016-06"},{"category":"other-theft","location_type":"Force","location":{"latitude":"51.570187","street":{"id":973357,"name":"On or near Wood Lane"},"longitude":"-0.423511"},"context":"","outcome_status":{"category":"Investigation complete; no suspect identified","date":"2016-07"},"persistent_id":"7ed5ed2afb132ee2b9dc75bc46c0554d0499077d807306dbafb0c5661758f791","id":49630666,"location_subtype":"","month":"2016-06"},{"category":"other-theft","location_type":"Force","location":{"latitude":"51.572471","street":{"id":973258,"name":"On or near Supermarket"},"longitude":"-0.412220"},"context":"","outcome_status":{"category":"Investigation complete; no suspect identified","date":"2016-07"},"persistent_id":"16f0639b229d62f7180967fbd8ede69509d22527082269901a74c76453df2ba0","id":49593448,"location_subtype":"","month":"2016-06"},{"category":"other-theft","location_type":"Force","location":{"latitude":"51.566362","street":{"id":973235,"name":"On or near Tiverton Road"},"longitude":"-0.409316"},"context":"","outcome_status":{"category":"Investigation complete; no suspect identified","date":"2016-07"},"persistent_id":"be2f746aba8266ffbc2243108d9756ca45f1c4f78e0155345ff5d5e86b145a19","id":49595273,"location_subtype":"","month":"2016-06"},{"category":"public-order","location_type":"BTP","location":{"latitude":"51.573200","street":{"id":1488638,"name":"Ruislip Manor (lu Station)"},"longitude":"-0.412740"},"context":"","outcome_status":{"category":"Status update unavailable","date":"2016-10"},"persistent_id":"","id":65541711,"location_subtype":"LU STATION","month":"2016-06"},{"category":"shoplifting","location_type":"Force","location":{"latitude":"51.571077","street":{"id":973237,"name":"On or near Sunnydene Avenue"},"longitude":"-0.412874"},"context":"","outcome_status":{"category":"Investigation complete; no suspect identified","date":"2016-07"},"persistent_id":"5dd686eceed02787c9f5164cb4fd3485ae3d3ec4ba1da2b33e9d37d3eee29d6b","id":49621091,"location_subtype":"","month":"2016-06"},{"category":"shoplifting","location_type":"Force","location":{"latitude":"51.570187","street":{"id":973357,"name":"On or near Wood Lane"},"longitude":"-0.423511"},"context":"","outcome_status":{"category":"Investigation complete; no suspect identified","date":"2016-06"},"persistent_id":"fdb5c1f409b2b9c33185c3712c6e0f6caceaf7dd907f3ae6a974c47b9953fa18","id":49602258,"location_subtype":"","month":"2016-06"},{"category":"shoplifting","location_type":"Force","location":{"latitude":"51.571077","street":{"id":973237,"name":"On or near Sunnydene Avenue"},"longitude":"-0.412874"},"context":"","outcome_status":{"category":"Offender sent to prison","date":"2016-10"},"persistent_id":"079d622ac920bdb5bcf497893248cbba57b5532dd83324dc4168e62a2cc345b3","id":49634027,"location_subtype":"","month":"2016-06"},{"category":"shoplifting","location_type":"Force","location":{"latitude":"51.571077","street":{"id":973237,"name":"On or near Sunnydene Avenue"},"longitude":"-0.412874"},"context":"","outcome_status":{"category":"Investigation complete; no suspect identified","date":"2016-07"},"persistent_id":"68a64de2627c796c09c42afebd1c300f744b957df3fdf81cfcc6668587c5b108","id":49628657,"location_subtype":"","month":"2016-06"},{"category":"shoplifting","location_type":"Force","location":{"latitude":"51.571077","street":{"id":973237,"name":"On or near Sunnydene Avenue"},"longitude":"-0.412874"},"context":"","outcome_status":{"category":"Investigation complete; no suspect identified","date":"2016-07"},"persistent_id":"e507cdbdc51b1639e880e69cc242a9e430260a1ac4e65426d6335e0926c8da12","id":49578899,"location_subtype":"","month":"2016-06"},{"category":"vehicle-crime","location_type":"Force","location":{"latitude":"51.571341","street":{"id":973244,"name":"On or near Chelston Road"},"longitude":"-0.408435"},"context":"","outcome_status":{"category":"Status update unavailable","date":"2016-10"},"persistent_id":"62778c85583ed3794824e655e95812caab8998f05503e0667f3cb22a5f5de55f","id":49621579,"location_subtype":"","month":"2016-06"},{"category":"vehicle-crime","location_type":"Force","location":{"latitude":"51.571341","street":{"id":973244,"name":"On or near Chelston Road"},"longitude":"-0.408435"},"context":"","outcome_status":{"category":"Investigation complete; no suspect identified","date":"2016-07"},"persistent_id":"8fb81967b9839ff08adf45534a0fa12c5aa07945db27f657e84b13c1b134a9f2","id":49633364,"location_subtype":"","month":"2016-06"},{"category":"vehicle-crime","location_type":"Force","location":{"latitude":"51.564933","street":{"id":973241,"name":"On or near Flamborough Road"},"longitude":"-0.407389"},"context":"","outcome_status":{"category":"Status update unavailable","date":"2016-10"},"persistent_id":"1c41b01dc3088bb5cf47393b0556bf88a2007528549c910ae6198ba77b5f6335","id":49632096,"location_subtype":"","month":"2016-06"},{"category":"vehicle-crime","location_type":"Force","location":{"latitude":"51.571077","street":{"id":973237,"name":"On or near Sunnydene Avenue"},"longitude":"-0.412874"},"context":"","outcome_status":{"category":"Status update unavailable","date":"2016-10"},"persistent_id":"62e0c60acb5808f7ecd29cfc5c0c4f5721e2afb47e377e038f2bcc13f33cd099","id":49627353,"location_subtype":"","month":"2016-06"},{"category":"vehicle-crime","location_type":"Force","location":{"latitude":"51.569356","street":{"id":973227,"name":"On or near Cranley Drive"},"longitude":"-0.418576"},"context":"","outcome_status":{"category":"Status update unavailable","date":"2016-10"},"persistent_id":"66476e7d3cef3c89d41e0c8cdb3dfa198e0bca1cd176fa2d8bdc9054ec9d8bd8","id":49626226,"location_subtype":"","month":"2016-06"},{"category":"vehicle-crime","location_type":"Force","location":{"latitude":"51.568015","street":{"id":973229,"name":"On or near Cornwall Road"},"longitude":"-0.415174"},"context":"","outcome_status":{"category":"Status update unavailable","date":"2016-10"},"persistent_id":"70a955ab856b7d098992cf1c6d35be222c60b357cc81455087784e3789f786a7","id":49626102,"location_subtype":"","month":"2016-06"},{"category":"vehicle-crime","location_type":"Force","location":{"latitude":"51.563945","street":{"id":973308,"name":"On or near Berkeley Close"},"longitude":"-0.414060"},"context":"","outcome_status":{"category":"Status update unavailable","date":"2016-10"},"persistent_id":"8ae1f5c2852851fe0ab927a710e79eb0b66871798bdd52e5a91afb2aa92fbf77","id":49623637,"location_subtype":"","month":"2016-06"},{"category":"vehicle-crime","location_type":"Force","location":{"latitude":"51.563945","street":{"id":973308,"name":"On or near Berkeley Close"},"longitude":"-0.414060"},"context":"","outcome_status":{"category":"Status update unavailable","date":"2016-10"},"persistent_id":"4a8bde7f198fa8df0c1bcf2a452d287d309761c3f9d091c7887e6451b46cfc6a","id":49623893,"location_subtype":"","month":"2016-06"},{"category":"vehicle-crime","location_type":"Force","location":{"latitude":"51.567914","street":{"id":973284,"name":"On or near Beverley Road"},"longitude":"-0.404385"},"context":"","outcome_status":{"category":"Investigation complete; no suspect identified","date":"2016-07"},"persistent_id":"92fbee402ccd0f2adfd12ec5ddad2bcce96ff51007912c984e71a03b724fc171","id":49616481,"location_subtype":"","month":"2016-06"},{"category":"vehicle-crime","location_type":"Force","location":{"latitude":"51.570195","street":{"id":973242,"name":"On or near Dulverton Road"},"longitude":"-0.409456"},"context":"","outcome_status":{"category":"Status update unavailable","date":"2016-10"},"persistent_id":"c31ea176b248318f94c5de135605f84e325e13f4e390c10b75ecad35b5d3c755","id":49606138,"location_subtype":"","month":"2016-06"},{"category":"vehicle-crime","location_type":"Force","location":{"latitude":"51.566596","street":{"id":973356,"name":"On or near Sports\/recreation Area"},"longitude":"-0.426665"},"context":"","outcome_status":{"category":"Status update unavailable","date":"2016-10"},"persistent_id":"081c59f8e6307c211b6b144dd1f577c6078def861767e8770283e1048806cafc","id":49595186,"location_subtype":"","month":"2016-06"},{"category":"violent-crime","location_type":"Force","location":{"latitude":"51.565849","street":{"id":973286,"name":"On or near Bempton Drive"},"longitude":"-0.405265"},"context":"","outcome_status":{"category":"Local resolution","date":"2016-07"},"persistent_id":"97620a947f965389ad9440ffc6b31663c3558df52f2859ee6455e211270a1cb5","id":49595060,"location_subtype":"","month":"2016-06"},{"category":"violent-crime","location_type":"Force","location":{"latitude":"51.569951","street":{"id":973363,"name":"On or near Garden Close"},"longitude":"-0.421369"},"context":"","outcome_status":{"category":"Investigation complete; no suspect identified","date":"2016-10"},"persistent_id":"3427ff65d4f395304e097e9239450f09323da16c41753663b4f09a0a3c904416","id":49627423,"location_subtype":"","month":"2016-06"},{"category":"violent-crime","location_type":"BTP","location":{"latitude":"51.573200","street":{"id":1488638,"name":"Ruislip Manor (lu Station)"},"longitude":"-0.412740"},"context":"","outcome_status":{"category":"Status update unavailable","date":"2016-10"},"persistent_id":"","id":65541710,"location_subtype":"LU STATION","month":"2016-06"},{"category":"violent-crime","location_type":"Force","location":{"latitude":"51.573215","street":{"id":973266,"name":"On or near Pembroke Road"},"longitude":"-0.415989"},"context":"","outcome_status":{"category":"Investigation complete; no suspect identified","date":"2016-07"},"persistent_id":"0480f39ce53b1832ec8bd8e2073c80dc33d5737ad9ec63e1e0caa9e4c5a02f34","id":49631439,"location_subtype":"","month":"2016-06"},{"category":"violent-crime","location_type":"Force","location":{"latitude":"51.566596","street":{"id":973356,"name":"On or near Sports\/recreation Area"},"longitude":"-0.426665"},"context":"","outcome_status":{"category":"Offender given a caution","date":"2016-06"},"persistent_id":"888168142b54a53cd8889a326e7974888a8b4cbf84bbf852343c623d043580eb","id":49606364,"location_subtype":"","month":"2016-06"},{"category":"violent-crime","location_type":"Force","location":{"latitude":"51.573112","street":{"id":973259,"name":"On or near Parking Area"},"longitude":"-0.413741"},"context":"","outcome_status":{"category":"Investigation complete; no suspect identified","date":"2016-06"},"persistent_id":"b1b517d2867573877103c341a18d6fb220681d5dca5f388e6f5e5e42ffce04d2","id":49609530,"location_subtype":"","month":"2016-06"},{"category":"other-crime","location_type":"Force","location":{"latitude":"51.573112","street":{"id":973259,"name":"On or near Parking Area"},"longitude":"-0.413741"},"context":"","outcome_status":{"category":"Investigation complete; no suspect identified","date":"2016-09"},"persistent_id":"740ccf4dc64c3efc3171fcf2f45ac6381eb69c518f7a1fc00c58647be2f43ff2","id":49578398,"location_subtype":"","month":"2016-06"}]