[{"category":"anti-social-behaviour","location_type":"Force","location":{"latitude":"51.429697","street":{"id":936488,"name":"On or near Domonic Drive"},"longitude":"0.068386"},"context":"","outcome_status":null,"persistent_id":"","id":64306485,"location_subtype":"","month":"2018-04"},{"category":"anti-social-behaviour","location_type":"Force","location":{"latitude":"51.431634","street":{"id":936561,"name":"On or near Partridge Green"},"longitude":"0.057453"},"context":"","outcome_status":null,"persistent_id":"","id":64306577,"location_subtype":"","month":"2018-04"},{"category":"anti-social-behaviour","location_type":"Force","location":{"latitude":"51.431634","street":{"id":936561,"name":"On or near Partridge Green"},"longitude":"0.057453"},"context":"","outcome_status":null,"persistent_id":"","id":64306578,"location_subtype":"","month":"2018-04"},{"category":"anti-social-behaviour","location_type":"Force","location":{"latitude":"51.438923","street":{"id":940604,"name":"On or near Petrol Station"},"longitude":"0.051521"},"context":"","outcome_status":null,"persistent_id":"","id":64307722,"location_subtype":"","month":"2018-04"},{"category":"anti-social-behaviour","location_type":"Force","location":{"latitude":"51.438923","street":{"id":940604,"name":"On or near Petrol Station"},"longitude":"0.051521"},"context":"","outcome_status":null,"persistent_id":"","id":64307723,"location_subtype":"","month":"2018-04"},{"category":"anti-social-behaviour","location_type":"Force","location":{"latitude":"51.432166","street":{"id":936572,"name":"On or near Haven Close"},"longitude":"0.049636"},"context":"","outcome_status":null,"persistent_id":"","id":64319035,"location_subtype":"","month":"2018-04"},{"category":"anti-social-behaviour","location_type":"Force","location":{"latitude":"51.432166","street":{"id":936572,"name":"On or near Haven Close"},"longitude":"0.049636"},"context":"","outcome_status":null,"persistent_id":"","id":64319036,"location_subtype":"","month":"2018-04"},{"category":"anti-social-behaviour","location_type":"Force","location":{"latitude":"51.431090","street":{"id":936485,"name":"On or near Montbelle Road"},"longitude":"0.067887"},"context":"","outcome_status":null,"persistent_id":"","id":64306502,"location_subtype":"","month":"2018-04"},{"category":"anti-social-behaviour","location_type":"Force","location":{"latitude":"51.440810","street":{"id":940577,"name":"On or near Shrubsall Close"},"longitude":"0.046454"},"context":"","outcome_status":null,"persistent_id":"","id":64307747,"location_subtype":"","month":"2018-04"},{"category":"anti-social-behaviour","location_type":"Force","location":{"latitude":"51.428904","street":{"id":936489,"name":"On or near Brownspring Drive"},"longitude":"0.069486"},"context":"","outcome_status":null,"persistent_id":"","id":64318014,"location_subtype":"","month":"2018-04"},{"category":"anti-social-behaviour","location_type":"Force","location":{"latitude":"51.432166","street":{"id":936572,"name":"On or near Haven Close"},"longitude":"0.049636"},"context":"","outcome_status":null,"persistent_id":"","id":64319033,"location_subtype":"","month":"2018-04"},{"category":"anti-social-behaviour","location_type":"Force","location":{"latitude":"51.430631","street":{"id":936560,"name":"On or near Sandling Rise"},"longitude":"0.056689"},"context":"","outcome_status":null,"persistent_id":"","id":64306574,"location_subtype":"","month":"2018-04"},{"category":"anti-social-behaviour","location_type":"Force","location":{"latitude":"51.427597","street":{"id":936444,"name":"On or near Milverton Way"},"longitude":"0.062004"},"context":"","outcome_status":null,"persistent_id":"","id":64306564,"location_subtype":"","month":"2018-04"},{"category":"anti-social-behaviour","location_type":"Force","location":{"latitude":"51.432166","street":{"id":936572,"name":"On or near Haven Close"},"longitude":"0.049636"},"context":"","outcome_status":null,"persistent_id":"","id":64319034,"location_subtype":"","month":"2018-04"},{"category":"anti-social-behaviour","location_type":"Force","location":{"latitude":"51.430819","street":{"id":936569,"name":"On or near Leas Dale"},"longitude":"0.058783"},"context":"","outcome_status":null,"persistent_id":"","id":64306566,"location_subtype":"","month":"2018-04"},{"category":"bicycle-theft","location_type":"Force","location":{"latitude":"51.429583","street":{"id":936559,"name":"On or near Southold Rise"},"longitude":"0.055419"},"context":"","outcome_status":{"category":"Under investigation","date":"2018-04"},"persistent_id":"777d8a70c4ffd2cf36b3472b6d9ab28406af2f298b9cb479d055dcbe5e38c084","id":64334778,"location_subtype":"","month":"2018-04"},{"category":"bicycle-theft","location_type":"Force","location":{"latitude":"51.438923","street":{"id":940604,"name":"On or near Petrol Station"},"longitude":"0.051521"},"context":"","outcome_status":{"category":"Under investigation","date":"2018-04"},"persistent_id":"455ba2f9d216d44e2a5ec3b548e60fba5bc561f26dbcd2386c16b98974cf9dda","id":64328896,"location_subtype":"","month":"2018-04"},{"category":"burglary","location_type":"Force","location":{"latitude":"51.437858","street":{"id":940602,"name":"On or near Court Road"},"longitude":"0.048625"},"context":"","outcome_status":{"category":"Under investigation","date":"2018-04"},"persistent_id":"d3e454fec38f6cb9d530600c661f6c39dac8eadbfc3ae31397d04b7dd150cfa2","id":64380820,"location_subtype":"","month":"2018-04"},{"category":"burglary","location_type":"Force","location":{"latitude":"51.427061","street":{"id":936549,"name":"On or near Beanshaw"},"longitude":"0.059247"},"context":"","outcome_status":{"category":"Under investigation","date":"2018-04"},"persistent_id":"d6937a2508db8f3b52adaefbf31f211c64f79f120d2d79432779683c17e398cd","id":64363826,"location_subtype":"","month":"2018-04"},{"category":"burglary","location_type":"Force","location":{"latitude":"51.429878","street":{"id":936565,"name":"On or near Mottingham Road"},"longitude":"0.052929"},"context":"","outcome_status":{"category":"Under investigation","date":"2018-04"},"persistent_id":"e527251cfc0aa68f808bae3c44e14cac6a4fd9b9519585b0c4440505d3c2a502","id":64362161,"location_subtype":"","month":"2018-04"},{"category":"burglary","location_type":"Force","location":{"latitude":"51.436846","street":{"id":940660,"name":"On or near Park View Road"},"longitude":"0.064824"},"context":"","outcome_status":{"category":"Under investigation","date":"2018-04"},"persistent_id":"8db8a7658f5b63a7ed292ee27dc1f11b47c91985d9245730dc17e4bdb2d28d73","id":64343724,"location_subtype":"","month":"2018-04"},{"category":"burglary","location_type":"Force","location":{"latitude":"51.434393","street":{"id":936469,"name":"On or near Ermington Road"},"longitude":"0.075878"},"context":"","outcome_status":{"category":"Under investigation","date":"2018-04"},"persistent_id":"557fe6073a2706c658c11f4671028e3e6e9b9c01f52a09a0564fb3056970da08","id":64329759,"location_subtype":"","month":"2018-04"},{"category":"burglary","location_type":"Force","location":{"latitude":"51.437813","street":{"id":940678,"name":"On or near Footscray Road"},"longitude":"0.071184"},"context":"","outcome_status":{"category":"Awaiting court outcome","date":"2018-05"},"persistent_id":"a7714a5d06272ea092e0769f0bc40b9770df84b146410c81d175175b81ee7538","id":64339915,"location_subtype":"","month":"2018-04"},{"category":"burglary","location_type":"Force","location":{"latitude":"51.434842","street":{"id":936453,"name":"On or near Petrol Station"},"longitude":"0.062662"},"context":"","outcome_status":{"category":"Under investigation","date":"2018-04"},"persistent_id":"e0a4fa84eea4b1a05d738b227e3f0e1990752ec18355ea77078b6344dc4eb500","id":64340269,"location_subtype":"","month":"2018-04"},{"category":"burglary","location_type":"Force","location":{"latitude":"51.438923","street":{"id":940604,"name":"On or near Petrol Station"},"longitude":"0.051521"},"context":"","outcome_status":{"category":"Under investigation","date":"2018-04"},"persistent_id":"3b3838e3caf0875c41128a06f98746da2c72bd8627df1916078675e74c9898e1","id":64328393,"location_subtype":"","month":"2018-04"},{"category":"burglary","location_type":"Force","location":{"latitude":"51.427597","street":{"id":936444,"name":"On or near Milverton Way"},"longitude":"0.062004"},"context":"","outcome_status":{"category":"Under investigation","date":"2018-04"},"persistent_id":"9f728a3b81421d45d8a4c7a665c578605c0f1b42d6c6534e1dc0a92af91a1fa3","id":64347993,"location_subtype":"","month":"2018-04"},{"category":"burglary","location_type":"Force","location":{"latitude":"51.432919","street":{"id":936452,"name":"On or near Charldane Road"},"longitude":"0.067193"},"context":"","outcome_status":{"category":"Under investigation","date":"2018-04"},"persistent_id":"76b72808b6f9afc04b0545060bbfd412564cf2a99639c5f0a6ed144446de4576","id":64349412,"location_subtype":"","month":"2018-04"},{"category":"burglary","location_type":"Force","location":{"latitude":"51.432166","street":{"id":936572,"name":"On or near Haven Close"},"longitude":"0.049636"},"context":"","outcome_status":{"category":"Under investigation","date":"2018-04"},"persistent_id":"1c297ecbfdad26ca78254848a0de8303ff609a4ac95802085dc952548f2f1b15","id":64364102,"location_subtype":"","month":"2018-04"},{"category":"criminal-damage-arson","location_type":"Force","location":{"latitude":"51.429108","street":{"id":936573,"name":"On or near Great Harry Drive"},"longitude":"0.059411"},"context":"","outcome_status":{"category":"Under investigation","date":"2018-04"},"persistent_id":"64cc311c862b41586bcb3a466a6467815a23592e9adf37956000ec0258052c3a","id":64389376,"location_subtype":"","month":"2018-04"},{"category":"criminal-damage-arson","location_type":"Force","location":{"latitude":"51.430442","street":{"id":936567,"name":"On or near Longcroft"},"longitude":"0.055687"},"context":"","outcome_status":{"category":"Under investigation","date":"2018-04"},"persistent_id":"efb436b3e7247948e9f4b9cd11e3c36fb1796f9070a5f694ec25e45a9c391491","id":64338884,"location_subtype":"","month":"2018-04"},{"category":"criminal-damage-arson","location_type":"BTP","location":{"latitude":"51.440300","street":{"id":1487997,"name":"Mottingham (station)"},"longitude":"0.050072"},"context":"","outcome_status":{"category":"Under investigation","date":"2018-04"},"persistent_id":"","id":66352147,"location_subtype":"STATION","month":"2018-04"},{"category":"criminal-damage-arson","location_type":"Force","location":{"latitude":"51.436903","street":{"id":940586,"name":"On or near Porcupine Close"},"longitude":"0.044639"},"context":"","outcome_status":{"category":"Under investigation","date":"2018-04"},"persistent_id":"311004d4eabaa57b7c7f4f60f637b6d26cf1805fa683d80ee81ee3043b31cb5d","id":64371397,"location_subtype":"","month":"2018-04"},{"category":"criminal-damage-arson","location_type":"Force","location":{"latitude":"51.426313","street":{"id":936510,"name":"On or near Crockham Way"},"longitude":"0.061371"},"context":"","outcome_status":{"category":"Under investigation","date":"2018-04"},"persistent_id":"e811541075c1cbf7a298cadaa59b76cdd0aabd321a4536ff984f591e615693c7","id":64360917,"location_subtype":"","month":"2018-04"},{"category":"criminal-damage-arson","location_type":"Force","location":{"latitude":"51.431719","street":{"id":936575,"name":"On or near Bromhedge"},"longitude":"0.052090"},"context":"","outcome_status":{"category":"Under investigation","date":"2018-04"},"persistent_id":"623694e98a206e17c628e263e22e7f0bb597e253400acb4372de604fd5aea7d1","id":64324864,"location_subtype":"","month":"2018-04"},{"category":"criminal-damage-arson","location_type":"Force","location":{"latitude":"51.438923","street":{"id":940604,"name":"On or near Petrol Station"},"longitude":"0.051521"},"context":"","outcome_status":{"category":"Under investigation","date":"2018-04"},"persistent_id":"8b80d4f54def1795d1ef0e4cccb8fad2558fe8a5b0c6acb869ab15dda514df26","id":64324904,"location_subtype":"","month":"2018-04"},{"category":"drugs","location_type":"Force","location":{"latitude":"51.439410","street":{"id":940588,"name":"On or near Luxfield Road"},"longitude":"0.045269"},"context":"","outcome_status":{"category":"Offender given a drugs possession warning","date":"2018-04"},"persistent_id":"e82c700da0c807e8b2f5e243674a551fd506ef431ce0b08c8bb4d9301e236d9a","id":64342886,"location_subtype":"","month":"2018-04"},{"category":"other-theft","location_type":"Force","location":{"latitude":"51.434842","street":{"id":936453,"name":"On or near Petrol Station"},"longitude":"0.062662"},"context":"","outcome_status":{"category":"Under investigation","date":"2018-04"},"persistent_id":"b90c69dd7c358bc7491096b778a273a13fc266cd58d8639991d03fc62b730bcd","id":64358586,"location_subtype":"","month":"2018-04"},{"category":"other-theft","location_type":"Force","location":{"latitude":"51.434842","street":{"id":936453,"name":"On or near Petrol Station"},"longitude":"0.062662"},"context":"","outcome_status":{"category":"Investigation complete; no suspect identified","date":"2018-04"},"persistent_id":"e857121f44fd026c8f91cc90e57fbb45c56cd8b58cfa6c7304a8649c4583d26f","id":64357998,"location_subtype":"","month":"2018-04"},{"category":"other-theft","location_type":"Force","location":{"latitude":"51.432186","street":{"id":936447,"name":"On or near Green Lane"},"longitude":"0.063909"},"context":"","outcome_status":{"category":"Under investigation","date":"2018-04"},"persistent_id":"4e4c2ee189eb7098c24c607aca95b58b725a38eaaa83120af6f6b32dbeddc97e","id":64356866,"location_subtype":"","month":"2018-04"},{"category":"other-theft","location_type":"Force","location":{"latitude":"51.439585","street":{"id":940592,"name":"On or near West Hallowes"},"longitude":"0.042932"},"context":"","outcome_status":{"category":"Under investigation","date":"2018-04"},"persistent_id":"55e7c54fde4d4b30aed3bd9116c98166fb32546e46e0aae116c2dd79883af380","id":64380644,"location_subtype":"","month":"2018-04"},{"category":"other-theft","location_type":"Force","location":{"latitude":"51.437839","street":{"id":940591,"name":"On or near Petrol Station"},"longitude":"0.043055"},"context":"","outcome_status":{"category":"Under investigation","date":"2018-04"},"persistent_id":"3b6f74dd9c0ddf048b79ee1412dbd27e45c1e7b4a2411e51d0e1d906dd79fae3","id":64346490,"location_subtype":"","month":"2018-04"},{"category":"other-theft","location_type":"Force","location":{"latitude":"51.437839","street":{"id":940591,"name":"On or near Petrol Station"},"longitude":"0.043055"},"context":"","outcome_status":{"category":"Under investigation","date":"2018-04"},"persistent_id":"ef1ab63c15b94a6e97637b85df8076d0d58fd2709c40f361d3b2c05299d14c7f","id":64346253,"location_subtype":"","month":"2018-04"},{"category":"other-theft","location_type":"Force","location":{"latitude":"51.438923","street":{"id":940604,"name":"On or near Petrol Station"},"longitude":"0.051521"},"context":"","outcome_status":{"category":"Under investigation","date":"2018-04"},"persistent_id":"35e652dea4e12f42dcab5f8f87701bdf87eae8953eba75cd0c63d22283791018","id":64377215,"location_subtype":"","month":"2018-04"},{"category":"other-theft","location_type":"Force","location":{"latitude":"51.437839","street":{"id":940591,"name":"On or near Petrol Station"},"longitude":"0.043055"},"context":"","outcome_status":{"category":"Under investigation","date":"2018-04"},"persistent_id":"3bdd7500f614b19497f93dfb737ff0e3ccc88a67abc87fe3522d1a0fc33e6ab3","id":64356522,"location_subtype":"","month":"2018-04"},{"category":"other-theft","location_type":"Force","location":{"latitude":"51.435874","street":{"id":940677,"name":"On or near Footscray Road"},"longitude":"0.074003"},"context":"","outcome_status":{"category":"Under investigation","date":"2018-04"},"persistent_id":"5f682714f2c5d827cb34289ef3ab8bcc92e8a63ad86d1432672c33f2facab826","id":64341349,"location_subtype":"","month":"2018-04"},{"category":"other-theft","location_type":"Force","location":{"latitude":"51.429365","street":{"id":936558,"name":"On or near Spekehill"},"longitude":"0.054488"},"context":"","outcome_status":{"category":"Under investigation","date":"2018-04"},"persistent_id":"9be4370e6e9561be03a5bd042ae72c39070a186e9555d8d9699c1b7e7a0458ff","id":64371066,"location_subtype":"","month":"2018-04"},{"category":"other-theft","location_type":"Force","location":{"latitude":"51.430631","street":{"id":936560,"name":"On or near Sandling Rise"},"longitude":"0.056689"},"context":"","outcome_status":{"category":"Under investigation","date":"2018-04"},"persistent_id":"a4f205e29256c4dbdab594d20e81d04e0ef77aa9c53efe02fc365661d2278c88","id":64324309,"location_subtype":"","month":"2018-04"},{"category":"other-theft","location_type":"Force","location":{"latitude":"51.437839","street":{"id":940591,"name":"On or near Petrol Station"},"longitude":"0.043055"},"context":"","outcome_status":{"category":"Investigation complete; no suspect identified","date":"2018-05"},"persistent_id":"9234a96b15a34899e8dcbda283f8f24fc5391525e6c2d048163927209215a481","id":64325980,"location_subtype":"","month":"2018-04"},{"category":"other-theft","location_type":"Force","location":{"latitude":"51.437839","street":{"id":940591,"name":"On or near Petrol Station"},"longitude":"0.043055"},"context":"","outcome_status":{"category":"Under investigation","date":"2018-04"},"persistent_id":"05cae2170be87861c299759d9a667ab8db9ff94591f61fe4037f066dfbb414c9","id":64336188,"location_subtype":"","month":"2018-04"},{"category":"other-theft","location_type":"Force","location":{"latitude":"51.434393","street":{"id":936469,"name":"On or near Ermington Road"},"longitude":"0.075878"},"context":"","outcome_status":{"category":"Under investigation","date":"2018-04"},"persistent_id":"91f13c9a1c90af17270611b4d1ea56f10cfcfa37314ddea456b0f3aead43727b","id":64386051,"location_subtype":"","month":"2018-04"},{"category":"public-order","location_type":"Force","location":{"latitude":"51.431166","street":{"id":936571,"name":"On or near Kingsley Wood Drive"},"longitude":"0.054914"},"context":"","outcome_status":{"category":"Under investigation","date":"2018-04"},"persistent_id":"ffe9e38095b3ff4b3b489e33c0391aa0fe7f9064c285e326eb21eb72bfe84c6d","id":64324203,"location_subtype":"","month":"2018-04"},{"category":"public-order","location_type":"Force","location":{"latitude":"51.430863","street":{"id":936553,"name":"On or near William Barefoot Drive"},"longitude":"0.057778"},"context":"","outcome_status":{"category":"Under investigation","date":"2018-04"},"persistent_id":"a95419ed9ca54e706bad69617369028693a4f1362af0b70bea0a8477ed23498d","id":64332221,"location_subtype":"","month":"2018-04"},{"category":"public-order","location_type":"Force","location":{"latitude":"51.430863","street":{"id":936553,"name":"On or near William Barefoot Drive"},"longitude":"0.057778"},"context":"","outcome_status":{"category":"Investigation complete; no suspect identified","date":"2018-04"},"persistent_id":"a42f157020cb201b052701890255a07d7addebbcbe9a38c851319f39a1e20f12","id":64369764,"location_subtype":"","month":"2018-04"},{"category":"public-order","location_type":"Force","location":{"latitude":"51.436903","street":{"id":940586,"name":"On or near Porcupine Close"},"longitude":"0.044639"},"context":"","outcome_status":{"category":"Investigation complete; no suspect identified","date":"2018-05"},"persistent_id":"905e1b0482d53a402c1d3d8d1f6818cd432b0245dc37dfdc01b6098f0cbae303","id":64339010,"location_subtype":"","month":"2018-04"},{"category":"public-order","location_type":"Force","location":{"latitude":"51.438923","street":{"id":940604,"name":"On or near Petrol Station"},"longitude":"0.051521"},"context":"","outcome_status":{"category":"Under investigation","date":"2018-04"},"persistent_id":"e476edf138e7dfda6fa42c93e1ff8353ead97b19021e92c8479efb66ed6467b1","id":64332615,"location_subtype":"","month":"2018-04"},{"category":"robbery","location_type":"Force","location":{"latitude":"51.431166","street":{"id":936571,"name":"On or near Kingsley Wood Drive"},"longitude":"0.054914"},"context":"","outcome_status":{"category":"Under investigation","date":"2018-04"},"persistent_id":"c28cee0927d085a628e531d5469cd9dc97ec53172b7bd6d6dedb48062ab25a41","id":64330582,"location_subtype":"","month":"2018-04"},{"category":"robbery","location_type":"Force","location":{"latitude":"51.436903","street":{"id":940586,"name":"On or near Porcupine Close"},"longitude":"0.044639"},"context":"","outcome_status":{"category":"Under investigation","date":"2018-04"},"persistent_id":"8bd4b6f01d0e7ebe6785f1045706a90fdb4dfbea8ef5b78995272297a6fb57a3","id":64331614,"location_subtype":"","month":"2018-04"},{"category":"shoplifting","location_type":"Force","location":{"latitude":"51.430631","street":{"id":936560,"name":"On or near Sandling Rise"},"longitude":"0.056689"},"context":"","outcome_status":{"category":"Under investigation","date":"2018-04"},"persistent_id":"ad47d7f61c18d2a3e5a9adc6a9e18f528eb2e506f1d244b41b34b8c9873f860c","id":64383909,"location_subtype":"","month":"2018-04"},{"category":"shoplifting","location_type":"Force","location":{"latitude":"51.435874","street":{"id":940677,"name":"On or near Footscray Road"},"longitude":"0.074003"},"context":"","outcome_status":{"category":"Under investigation","date":"2018-04"},"persistent_id":"5e344b6bc7baafb2c7a83791c181d423bf5fe95f169109edd607525f91dc7233","id":64368842,"location_subtype":"","month":"2018-04"},{"category":"vehicle-crime","location_type":"Force","location":{"latitude":"51.438923","street":{"id":940604,"name":"On or near Petrol Station"},"longitude":"0.051521"},"context":"","outcome_status":{"category":"Under investigation","date":"2018-04"},"persistent_id":"52e095162a91b221256edfff46bc327a1be9ba95492d3a506154904a7c6077a3","id":64369979,"location_subtype":"","month":"2018-04"},{"category":"vehicle-crime","location_type":"Force","location":{"latitude":"51.431719","street":{"id":936575,"name":"On or near Bromhedge"},"longitude":"0.052090"},"context":"","outcome_status":{"category":"Under investigation","date":"2018-04"},"persistent_id":"894184319fff956847dd8bf6c98f98d544a4c343c904b7ce865bfbe38ae08720","id":64370135,"location_subtype":"","month":"2018-04"},{"category":"vehicle-crime","location_type":"Force","location":{"latitude":"51.424010","street":{"id":936502,"name":"On or near Hillview Road"},"longitude":"0.061397"},"context":"","outcome_status":{"category":"Under investigation","date":"2018-04"},"persistent_id":"5a78c7ea18cbf4a21307ac6c634dc1a612bfaf92bca8fba1108cfb9ee7848c7e","id":64371388,"location_subtype":"","month":"2018-04"},{"category":"vehicle-crime","location_type":"Force","location":{"latitude":"51.434254","street":{"id":936570,"name":"On or near Lavidge Road"},"longitude":"0.049068"},"context":"","outcome_status":{"category":"Under investigation","date":"2018-04"},"persistent_id":"a460b08fb81f0cb3739bf3c53381db88fb7fa0fa1cb4c0a1d0a12233b30194f7","id":64344901,"location_subtype":"","month":"2018-04"},{"category":"vehicle-crime","location_type":"Force","location":{"latitude":"51.435890","street":{"id":940683,"name":"On or near Bishops Close"},"longitude":"0.072119"},"context":"","outcome_status":{"category":"Under investigation","date":"2018-04"},"persistent_id":"ef6f3d5936a49aa14a72b56053decaddde5d6f7a88a123923fb55a0d475cbdfc","id":64373116,"location_subtype":"","month":"2018-04"},{"category":"vehicle-crime","location_type":"Force","location":{"latitude":"51.427597","street":{"id":936444,"name":"On or near Milverton Way"},"longitude":"0.062004"},"context":"","outcome_status":{"category":"Investigation complete; no suspect identified","date":"2018-05"},"persistent_id":"73f65564a08a9a47c7406fd77eb65ef85f6604ed73da663f2939bee685d911d6","id":64381853,"location_subtype":"","month":"2018-04"},{"category":"vehicle-crime","location_type":"Force","location":{"latitude":"51.436056","street":{"id":936578,"name":"On or near Bill Hamling Close"},"longitude":"0.051940"},"context":"","outcome_status":{"category":"Under investigation","date":"2018-04"},"persistent_id":"c80e8f0697e8577fbd563c5b964c4457ea8a06cc770b633c4563eadc426c1879","id":64352449,"location_subtype":"","month":"2018-04"},{"category":"vehicle-crime","location_type":"Force","location":{"latitude":"51.430529","street":{"id":936487,"name":"On or near High Point"},"longitude":"0.068610"},"context":"","outcome_status":{"category":"Under investigation","date":"2018-04"},"persistent_id":"dab3eac6ff07387473ee7d6fef8cb4f6908d7d972f2cde9857dc9dd2cf420685","id":64352935,"location_subtype":"","month":"2018-04"},{"category":"vehicle-crime","location_type":"Force","location":{"latitude":"51.429108","street":{"id":936573,"name":"On or near Great Harry Drive"},"longitude":"0.059411"},"context":"","outcome_status":{"category":"Under investigation","date":"2018-04"},"persistent_id":"f7bd961e330fdaebe23254e6392de6c9598b16ad3ce2913804ef6ce6333a19e0","id":64346823,"location_subtype":"","month":"2018-04"},{"category":"vehicle-crime","location_type":"Force","location":{"latitude":"51.429583","street":{"id":936559,"name":"On or near Southold Rise"},"longitude":"0.055419"},"context":"","outcome_status":{"category":"Under investigation","date":"2018-04"},"persistent_id":"6a63c34eb3694aa297f80de29cbe8fe92dfd7468bc4ca917e1ab2908d20cb27f","id":64381548,"location_subtype":"","month":"2018-04"},{"category":"vehicle-crime","location_type":"Force","location":{"latitude":"51.432919","street":{"id":936452,"name":"On or near Charldane Road"},"longitude":"0.067193"},"context":"","outcome_status":{"category":"Under investigation","date":"2018-04"},"persistent_id":"b37cfa80ba2612c876990855e6008de609088b5ef339d320f04b2e2ba9454d75","id":64326539,"location_subtype":"","month":"2018-04"},{"category":"vehicle-crime","location_type":"Force","location":{"latitude":"51.437113","street":{"id":940600,"name":"On or near Downleys Close"},"longitude":"0.049080"},"context":"","outcome_status":{"category":"Under investigation","date":"2018-04"},"persistent_id":"f275e1303ddba4b4ece2c72b0fb17edcf176e04751df31a4982229a015e678b1","id":64359620,"location_subtype":"","month":"2018-04"},{"category":"vehicle-crime","location_type":"Force","location":{"latitude":"51.433033","street":{"id":936552,"name":"On or near Witherston Way"},"longitude":"0.058134"},"context":"","outcome_status":{"category":"Under investigation","date":"2018-04"},"persistent_id":"a7146fc8294e19f43976c0b7974ffd817aa188044a6f06a14689a2d346c727d7","id":64333762,"location_subtype":"","month":"2018-04"},{"category":"violent-crime","location_type":"Force","location":{"latitude":"51.430863","street":{"id":936553,"name":"On or near William Barefoot Drive"},"longitude":"0.057778"},"context":"","outcome_status":{"category":"Investigation complete; no suspect identified","date":"2018-05"},"persistent_id":"44c45718be20638dc5d8494d799cd2ec7c0b5b27bb9db8763125c61b668221a9","id":64361088,"location_subtype":"","month":"2018-04"},{"category":"violent-crime","location_type":"Force","location":{"latitude":"51.429108","street":{"id":936573,"name":"On or near Great Harry Drive"},"longitude":"0.059411"},"context":"","outcome_status":{"category":"Investigation complete; no suspect identified","date":"2018-05"},"persistent_id":"cce91a615773293b5d385e503bbb30c2432632515bb8dddf9e25577793267ed2","id":64371675,"location_subtype":"","month":"2018-04"},{"category":"violent-crime","location_type":"Force","location":{"latitude":"51.437113","street":{"id":940600,"name":"On or near Downleys Close"},"longitude":"0.049080"},"context":"","outcome_status":{"category":"Investigation complete; no suspect identified","date":"2018-05"},"persistent_id":"7f4d98c9d61d302fe738dab60b863a92b18dbe5aa1dd0b8ad0d70f827d8f155e","id":64374106,"location_subtype":"","month":"2018-04"},{"category":"violent-crime","location_type":"Force","location":{"latitude":"51.437318","street":{"id":940679,"name":"On or near Ellis Close"},"longitude":"0.073234"},"context":"","outcome_status":{"category":"Investigation complete; no suspect identified","date":"2018-05"},"persistent_id":"430809a23ce7328c2c58844983e7e566e3ca431184f886eabd44cf3d57cbae97","id":64376559,"location_subtype":"","month":"2018-04"},{"category":"violent-crime","location_type":"Force","location":{"latitude":"51.434974","street":{"id":936450,"name":"On or near Colyer Close"},"longitude":"0.067430"},"context":"","outcome_status":{"category":"Under investigation","date":"2018-04"},"persistent_id":"c747583128c7e08bc37ecabb0e30bd1ec952fa3dcd61745b9080fbd4de51d674","id":64379256,"location_subtype":"","month":"2018-04"},{"category":"violent-crime","location_type":"Force","location":{"latitude":"51.434974","street":{"id":936450,"name":"On or near Colyer Close"},"longitude":"0.067430"},"context":"","outcome_status":{"category":"Investigation complete; no suspect identified","date":"2018-05"},"persistent_id":"c747583128c7e08bc37ecabb0e30bd1ec952fa3dcd61745b9080fbd4de51d674","id":64379257,"location_subtype":"","month":"2018-04"},{"category":"violent-crime","location_type":"Force","location":{"latitude":"51.430631","street":{"id":936560,"name":"On or near Sandling Rise"},"longitude":"0.056689"},"context":"","outcome_status":{"category":"Investigation complete; no suspect identified","date":"2018-06"},"persistent_id":"ad47d7f61c18d2a3e5a9adc6a9e18f528eb2e506f1d244b41b34b8c9873f860c","id":64385744,"location_subtype":"","month":"2018-04"},{"category":"violent-crime","location_type":"Force","location":{"latitude":"51.436921","street":{"id":940587,"name":"On or near Mottingham Road"},"longitude":"0.044122"},"context":"","outcome_status":{"category":"Under investigation","date":"2018-04"},"persistent_id":"1dabf6aeb27a53f1fe10e81b6e8088237de289932e941172d1968f16939a62c3","id":64387610,"location_subtype":"","month":"2018-04"},{"category":"violent-crime","location_type":"Force","location":{"latitude":"51.433796","street":{"id":936556,"name":"On or near The Underwood"},"longitude":"0.055190"},"context":"","outcome_status":{"category":"Investigation complete; no suspect identified","date":"2018-04"},"persistent_id":"4d2261a65fcf438573ac4141bcf53da40658bd87bb237896c2a524e38f1c96f5","id":64354714,"location_subtype":"","month":"2018-04"},{"category":"violent-crime","location_type":"Force","location":{"latitude":"51.432166","street":{"id":936572,"name":"On or near Haven Close"},"longitude":"0.049636"},"context":"","outcome_status":{"category":"Under investigation","date":"2018-04"},"persistent_id":"92988d83facb308d8b0bc8e46b72fccd16906233439fcd33f52db8802496abef","id":64388388,"location_subtype":"","month":"2018-04"},{"category":"violent-crime","location_type":"Force","location":{"latitude":"51.433796","street":{"id":936556,"name":"On or near The Underwood"},"longitude":"0.055190"},"context":"","outcome_status":{"category":"Under investigation","date":"2018-04"},"persistent_id":"f82a24914e951d80002012fb64b82bb47ad12dba1756100cfeb97dbc45e4566c","id":64332803,"location_subtype":"","month":"2018-04"},{"category":"violent-crime","location_type":"Force","location":{"latitude":"51.429583","street":{"id":936559,"name":"On or near Southold Rise"},"longitude":"0.055419"},"context":"","outcome_status":{"category":"Under investigation","date":"2018-04"},"persistent_id":"ffe01e8e18b2ad7b7815438f768c13bea838fa1c11fd4638d045918e5ad9bb10","id":64340392,"location_subtype":"","month":"2018-04"},{"category":"violent-crime","location_type":"Force","location":{"latitude":"51.437113","street":{"id":940600,"name":"On or near Downleys Close"},"longitude":"0.049080"},"context":"","outcome_status":{"category":"Under investigation","date":"2018-04"},"persistent_id":"6931677d877885416de99e2098db03f99959bf04cee6f6d99cfa5c199b089055","id":64343302,"location_subtype":"","month":"2018-04"},{"category":"violent-crime","location_type":"Force","location":{"latitude":"51.432186","street":{"id":936447,"name":"On or near Green Lane"},"longitude":"0.063909"},"context":"","outcome_status":{"category":"Under investigation","date":"2018-04"},"persistent_id":"ba8e5c8ba8fdc07608245348fc1041a8a83495b0f7e4e54687b151d2ac82adac","id":64331094,"location_subtype":"","month":"2018-04"},{"category":"violent-crime","location_type":"Force","location":{"latitude":"51.432186","street":{"id":936447,"name":"On or near Green Lane"},"longitude":"0.063909"},"context":"","outcome_status":{"category":"Under investigation","date":"2018-04"},"persistent_id":"ba8e5c8ba8fdc07608245348fc1041a8a83495b0f7e4e54687b151d2ac82adac","id":64331093,"location_subtype":"","month":"2018-04"},{"category":"violent-crime","location_type":"Force","location":{"latitude":"51.436921","street":{"id":940587,"name":"On or near Mottingham Road"},"longitude":"0.044122"},"context":"","outcome_status":{"category":"Under investigation","date":"2018-04"},"persistent_id":"3b6e510cfa46663aa1a6c8b0b050e991a18faa6279f6748f11a4a31fda96a145","id":64344535,"location_subtype":"","month":"2018-04"},{"category":"violent-crime","location_type":"Force","location":{"latitude":"51.437113","street":{"id":940600,"name":"On or near Downleys Close"},"longitude":"0.049080"},"context":"","outcome_status":{"category":"Under investigation","date":"2018-04"},"persistent_id":"6931677d877885416de99e2098db03f99959bf04cee6f6d99cfa5c199b089055","id":64345549,"location_subtype":"","month":"2018-04"},{"category":"violent-crime","location_type":"Force","location":{"latitude":"51.437113","street":{"id":940600,"name":"On or near Downleys Close"},"longitude":"0.049080"},"context":"","outcome_status":{"category":"Under investigation","date":"2018-04"},"persistent_id":"2c02ab13be7d30b1fff6244f0ec63a7e2a125c7cedcd270c928f80a2c6516335","id":64325162,"location_subtype":"","month":"2018-04"},{"category":"violent-crime","location_type":"Force","location":{"latitude":"51.437113","street":{"id":940600,"name":"On or near Downleys Close"},"longitude":"0.049080"},"context":"","outcome_status":{"category":"Investigation complete; no suspect identified","date":"2018-05"},"persistent_id":"8dab0ee6fc309d0755f13272d464b81eaff400d4070bf52e1df70b0c2081e5d9","id":64324985,"location_subtype":"","month":"2018-04"},{"category":"violent-crime","location_type":"Force","location":{"latitude":"51.427000","street":{"id":936602,"name":"On or near Lambarde Avenue"},"longitude":"0.060165"},"context":"","outcome_status":{"category":"Under investigation","date":"2018-04"},"persistent_id":"69510317fe15e0d1a444e9d94acd615c827dc70a5690d9bcc50690553b214c0b","id":64348293,"location_subtype":"","month":"2018-04"},{"category":"violent-crime","location_type":"Force","location":{"latitude":"51.437839","street":{"id":940591,"name":"On or near Petrol Station"},"longitude":"0.043055"},"context":"","outcome_status":{"category":"Under investigation","date":"2018-04"},"persistent_id":"2a05d3a04915c7532e08188568ec8751b1267d4ccca4efbcd8492ab8de1e4281","id":64359441,"location_subtype":"","month":"2018-04"},{"category":"violent-crime","location_type":"Force","location":{"latitude":"51.437839","street":{"id":940591,"name":"On or near Petrol Station"},"longitude":"0.043055"},"context":"","outcome_status":{"category":"Under investigation","date":"2018-04"},"persistent_id":"2a05d3a04915c7532e08188568ec8751b1267d4ccca4efbcd8492ab8de1e4281","id":64359442,"location_subtype":"","month":"2018-04"},{"category":"violent-crime","location_type":"Force","location":{"latitude":"51.430863","street":{"id":936553,"name":"On or near William Barefoot Drive"},"longitude":"0.057778"},"context":"","outcome_status":{"category":"Under investigation","date":"2018-04"},"persistent_id":"671479c0c588b74ac82029aa767217e074008b529c1ecbdfa4f38d913a015c99","id":64339686,"location_subtype":"","month":"2018-04"},{"category":"other-crime","location_type":"Force","location":{"latitude":"51.424010","street":{"id":936502,"name":"On or near Hillview Road"},"longitude":"0.061397"},"context":"","outcome_status":{"category":"Under investigation","date":"2018-04"},"persistent_id":"ce6baa1a6bb11c53caff2c457206929eff2cae91ce3a40407c5769407a3b05c0","id":64331248,"location_subtype":"","month":"2018-04"}]