[{"category":"anti-social-behaviour","location_type":"Force","location":{"latitude":"51.475086","street":{"id":946417,"name":"On or near Nettleton Road"},"longitude":"-0.043338"},"context":"","outcome_status":null,"persistent_id":"","id":64306821,"location_subtype":"","month":"2018-04"},{"category":"anti-social-behaviour","location_type":"Force","location":{"latitude":"51.478120","street":{"id":948778,"name":"On or near Creekside"},"longitude":"-0.021031"},"context":"","outcome_status":null,"persistent_id":"","id":64323608,"location_subtype":"","month":"2018-04"},{"category":"anti-social-behaviour","location_type":"Force","location":{"latitude":"51.478171","street":{"id":949033,"name":"On or near Robert Lowe Close"},"longitude":"-0.043408"},"context":"","outcome_status":null,"persistent_id":"","id":64306822,"location_subtype":"","month":"2018-04"},{"category":"anti-social-behaviour","location_type":"Force","location":{"latitude":"51.477053","street":{"id":946435,"name":"On or near Egmont Street"},"longitude":"-0.044824"},"context":"","outcome_status":null,"persistent_id":"","id":64306825,"location_subtype":"","month":"2018-04"},{"category":"anti-social-behaviour","location_type":"Force","location":{"latitude":"51.476552","street":{"id":946594,"name":"On or near Mornington Road"},"longitude":"-0.030473"},"context":"","outcome_status":null,"persistent_id":"","id":64305551,"location_subtype":"","month":"2018-04"},{"category":"anti-social-behaviour","location_type":"Force","location":{"latitude":"51.475783","street":{"id":946415,"name":"On or near New Cross Road"},"longitude":"-0.047398"},"context":"","outcome_status":null,"persistent_id":"","id":64306855,"location_subtype":"","month":"2018-04"},{"category":"anti-social-behaviour","location_type":"Force","location":{"latitude":"51.475809","street":{"id":946634,"name":"On or near Baildon Street"},"longitude":"-0.028561"},"context":"","outcome_status":null,"persistent_id":"","id":64305529,"location_subtype":"","month":"2018-04"},{"category":"anti-social-behaviour","location_type":"Force","location":{"latitude":"51.478732","street":{"id":948909,"name":"On or near Adolphus Street"},"longitude":"-0.029616"},"context":"","outcome_status":null,"persistent_id":"","id":64305539,"location_subtype":"","month":"2018-04"},{"category":"anti-social-behaviour","location_type":"Force","location":{"latitude":"51.474755","street":{"id":946677,"name":"On or near Petrol Station"},"longitude":"-0.041855"},"context":"","outcome_status":null,"persistent_id":"","id":64306807,"location_subtype":"","month":"2018-04"},{"category":"anti-social-behaviour","location_type":"Force","location":{"latitude":"51.474755","street":{"id":946677,"name":"On or near Petrol Station"},"longitude":"-0.041855"},"context":"","outcome_status":null,"persistent_id":"","id":64306808,"location_subtype":"","month":"2018-04"},{"category":"anti-social-behaviour","location_type":"Force","location":{"latitude":"51.479885","street":{"id":948931,"name":"On or near Desmond Street"},"longitude":"-0.037776"},"context":"","outcome_status":null,"persistent_id":"","id":64306767,"location_subtype":"","month":"2018-04"},{"category":"anti-social-behaviour","location_type":"Force","location":{"latitude":"51.482941","street":{"id":949006,"name":"On or near Juno Way"},"longitude":"-0.045220"},"context":"","outcome_status":null,"persistent_id":"","id":64306838,"location_subtype":"","month":"2018-04"},{"category":"anti-social-behaviour","location_type":"Force","location":{"latitude":"51.482941","street":{"id":949006,"name":"On or near Juno Way"},"longitude":"-0.045220"},"context":"","outcome_status":null,"persistent_id":"","id":64306839,"location_subtype":"","month":"2018-04"},{"category":"anti-social-behaviour","location_type":"Force","location":{"latitude":"51.482941","street":{"id":949006,"name":"On or near Juno Way"},"longitude":"-0.045220"},"context":"","outcome_status":null,"persistent_id":"","id":64306840,"location_subtype":"","month":"2018-04"},{"category":"anti-social-behaviour","location_type":"Force","location":{"latitude":"51.475004","street":{"id":946429,"name":"On or near Hatcham Park Mews"},"longitude":"-0.045473"},"context":"","outcome_status":null,"persistent_id":"","id":64306848,"location_subtype":"","month":"2018-04"},{"category":"anti-social-behaviour","location_type":"Force","location":{"latitude":"51.475004","street":{"id":946429,"name":"On or near Hatcham Park Mews"},"longitude":"-0.045473"},"context":"","outcome_status":null,"persistent_id":"","id":64306849,"location_subtype":"","month":"2018-04"},{"category":"anti-social-behaviour","location_type":"Force","location":{"latitude":"51.475004","street":{"id":946429,"name":"On or near Hatcham Park Mews"},"longitude":"-0.045473"},"context":"","outcome_status":null,"persistent_id":"","id":64306850,"location_subtype":"","month":"2018-04"},{"category":"anti-social-behaviour","location_type":"Force","location":{"latitude":"51.475004","street":{"id":946429,"name":"On or near Hatcham Park Mews"},"longitude":"-0.045473"},"context":"","outcome_status":null,"persistent_id":"","id":64306851,"location_subtype":"","month":"2018-04"},{"category":"anti-social-behaviour","location_type":"Force","location":{"latitude":"51.474990","street":{"id":946416,"name":"On or near New Cross Road"},"longitude":"-0.046784"},"context":"","outcome_status":null,"persistent_id":"","id":64306854,"location_subtype":"","month":"2018-04"},{"category":"anti-social-behaviour","location_type":"Force","location":{"latitude":"51.476830","street":{"id":946612,"name":"On or near Exeter Way"},"longitude":"-0.033673"},"context":"","outcome_status":null,"persistent_id":"","id":64305580,"location_subtype":"","month":"2018-04"},{"category":"anti-social-behaviour","location_type":"Force","location":{"latitude":"51.478212","street":{"id":948883,"name":"On or near Railway Grove"},"longitude":"-0.034549"},"context":"","outcome_status":null,"persistent_id":"","id":64305584,"location_subtype":"","month":"2018-04"},{"category":"anti-social-behaviour","location_type":"Force","location":{"latitude":"51.478529","street":{"id":948882,"name":"On or near Resolution Way"},"longitude":"-0.024527"},"context":"","outcome_status":null,"persistent_id":"","id":64305458,"location_subtype":"","month":"2018-04"},{"category":"anti-social-behaviour","location_type":"Force","location":{"latitude":"51.478529","street":{"id":948882,"name":"On or near Resolution Way"},"longitude":"-0.024527"},"context":"","outcome_status":null,"persistent_id":"","id":64305459,"location_subtype":"","month":"2018-04"},{"category":"anti-social-behaviour","location_type":"Force","location":{"latitude":"51.477139","street":{"id":946616,"name":"On or near Deptford Church Street"},"longitude":"-0.022628"},"context":"","outcome_status":null,"persistent_id":"","id":64323606,"location_subtype":"","month":"2018-04"},{"category":"anti-social-behaviour","location_type":"Force","location":{"latitude":"51.478529","street":{"id":948882,"name":"On or near Resolution Way"},"longitude":"-0.024527"},"context":"","outcome_status":null,"persistent_id":"","id":64305460,"location_subtype":"","month":"2018-04"},{"category":"anti-social-behaviour","location_type":"Force","location":{"latitude":"51.478529","street":{"id":948882,"name":"On or near Resolution Way"},"longitude":"-0.024527"},"context":"","outcome_status":null,"persistent_id":"","id":64305461,"location_subtype":"","month":"2018-04"},{"category":"anti-social-behaviour","location_type":"Force","location":{"latitude":"51.478120","street":{"id":948778,"name":"On or near Creekside"},"longitude":"-0.021031"},"context":"","outcome_status":null,"persistent_id":"","id":64323609,"location_subtype":"","month":"2018-04"},{"category":"anti-social-behaviour","location_type":"Force","location":{"latitude":"51.477139","street":{"id":946616,"name":"On or near Deptford Church Street"},"longitude":"-0.022628"},"context":"","outcome_status":null,"persistent_id":"","id":64323605,"location_subtype":"","month":"2018-04"},{"category":"anti-social-behaviour","location_type":"Force","location":{"latitude":"51.478529","street":{"id":948882,"name":"On or near Resolution Way"},"longitude":"-0.024527"},"context":"","outcome_status":null,"persistent_id":"","id":64305462,"location_subtype":"","month":"2018-04"},{"category":"anti-social-behaviour","location_type":"Force","location":{"latitude":"51.476665","street":{"id":946606,"name":"On or near Hales Street"},"longitude":"-0.025443"},"context":"","outcome_status":null,"persistent_id":"","id":64305482,"location_subtype":"","month":"2018-04"},{"category":"anti-social-behaviour","location_type":"Force","location":{"latitude":"51.474791","street":{"id":946618,"name":"On or near Deptford Broadway"},"longitude":"-0.025221"},"context":"","outcome_status":null,"persistent_id":"","id":64305486,"location_subtype":"","month":"2018-04"},{"category":"anti-social-behaviour","location_type":"Force","location":{"latitude":"51.474791","street":{"id":946618,"name":"On or near Deptford Broadway"},"longitude":"-0.025221"},"context":"","outcome_status":null,"persistent_id":"","id":64305484,"location_subtype":"","month":"2018-04"},{"category":"anti-social-behaviour","location_type":"Force","location":{"latitude":"51.478838","street":{"id":948925,"name":"On or near Primrose Walk"},"longitude":"-0.037014"},"context":"","outcome_status":null,"persistent_id":"","id":64306766,"location_subtype":"","month":"2018-04"},{"category":"anti-social-behaviour","location_type":"Force","location":{"latitude":"51.474791","street":{"id":946618,"name":"On or near Deptford Broadway"},"longitude":"-0.025221"},"context":"","outcome_status":null,"persistent_id":"","id":64305485,"location_subtype":"","month":"2018-04"},{"category":"anti-social-behaviour","location_type":"Force","location":{"latitude":"51.474791","street":{"id":946618,"name":"On or near Deptford Broadway"},"longitude":"-0.025221"},"context":"","outcome_status":null,"persistent_id":"","id":64305487,"location_subtype":"","month":"2018-04"},{"category":"anti-social-behaviour","location_type":"Force","location":{"latitude":"51.474791","street":{"id":946618,"name":"On or near Deptford Broadway"},"longitude":"-0.025221"},"context":"","outcome_status":null,"persistent_id":"","id":64305488,"location_subtype":"","month":"2018-04"},{"category":"anti-social-behaviour","location_type":"Force","location":{"latitude":"51.474791","street":{"id":946618,"name":"On or near Deptford Broadway"},"longitude":"-0.025221"},"context":"","outcome_status":null,"persistent_id":"","id":64305489,"location_subtype":"","month":"2018-04"},{"category":"anti-social-behaviour","location_type":"Force","location":{"latitude":"51.478092","street":{"id":948911,"name":"On or near Supermarket"},"longitude":"-0.025784"},"context":"","outcome_status":null,"persistent_id":"","id":64305490,"location_subtype":"","month":"2018-04"},{"category":"anti-social-behaviour","location_type":"Force","location":{"latitude":"51.478092","street":{"id":948911,"name":"On or near Supermarket"},"longitude":"-0.025784"},"context":"","outcome_status":null,"persistent_id":"","id":64305491,"location_subtype":"","month":"2018-04"},{"category":"anti-social-behaviour","location_type":"Force","location":{"latitude":"51.478092","street":{"id":948911,"name":"On or near Supermarket"},"longitude":"-0.025784"},"context":"","outcome_status":null,"persistent_id":"","id":64305492,"location_subtype":"","month":"2018-04"},{"category":"anti-social-behaviour","location_type":"Force","location":{"latitude":"51.478092","street":{"id":948911,"name":"On or near Supermarket"},"longitude":"-0.025784"},"context":"","outcome_status":null,"persistent_id":"","id":64305493,"location_subtype":"","month":"2018-04"},{"category":"anti-social-behaviour","location_type":"Force","location":{"latitude":"51.478120","street":{"id":948778,"name":"On or near Creekside"},"longitude":"-0.021031"},"context":"","outcome_status":null,"persistent_id":"","id":64323607,"location_subtype":"","month":"2018-04"},{"category":"anti-social-behaviour","location_type":"Force","location":{"latitude":"51.475004","street":{"id":946429,"name":"On or near Hatcham Park Mews"},"longitude":"-0.045473"},"context":"","outcome_status":null,"persistent_id":"","id":64311195,"location_subtype":"","month":"2018-04"},{"category":"anti-social-behaviour","location_type":"Force","location":{"latitude":"51.479914","street":{"id":949029,"name":"On or near Water Lane"},"longitude":"-0.051960"},"context":"","outcome_status":null,"persistent_id":"","id":64306876,"location_subtype":"","month":"2018-04"},{"category":"anti-social-behaviour","location_type":"Force","location":{"latitude":"51.475656","street":{"id":946591,"name":"On or near New Cross Road"},"longitude":"-0.030685"},"context":"","outcome_status":null,"persistent_id":"","id":64305543,"location_subtype":"","month":"2018-04"},{"category":"anti-social-behaviour","location_type":"Force","location":{"latitude":"51.478092","street":{"id":948911,"name":"On or near Supermarket"},"longitude":"-0.025784"},"context":"","outcome_status":null,"persistent_id":"","id":64305494,"location_subtype":"","month":"2018-04"},{"category":"anti-social-behaviour","location_type":"Force","location":{"latitude":"51.483528","street":{"id":948992,"name":"On or near Rollins Street"},"longitude":"-0.051302"},"context":"","outcome_status":null,"persistent_id":"","id":64306874,"location_subtype":"","month":"2018-04"},{"category":"anti-social-behaviour","location_type":"Force","location":{"latitude":"51.478882","street":{"id":949049,"name":"On or near Avonley Road"},"longitude":"-0.050434"},"context":"","outcome_status":null,"persistent_id":"","id":64306871,"location_subtype":"","month":"2018-04"},{"category":"anti-social-behaviour","location_type":"Force","location":{"latitude":"51.478092","street":{"id":948911,"name":"On or near Supermarket"},"longitude":"-0.025784"},"context":"","outcome_status":null,"persistent_id":"","id":64305495,"location_subtype":"","month":"2018-04"},{"category":"anti-social-behaviour","location_type":"Force","location":{"latitude":"51.477877","street":{"id":948910,"name":"On or near Theatre\/concert Hall"},"longitude":"-0.027450"},"context":"","outcome_status":null,"persistent_id":"","id":64305502,"location_subtype":"","month":"2018-04"},{"category":"anti-social-behaviour","location_type":"Force","location":{"latitude":"51.477877","street":{"id":948910,"name":"On or near Theatre\/concert Hall"},"longitude":"-0.027450"},"context":"","outcome_status":null,"persistent_id":"","id":64305503,"location_subtype":"","month":"2018-04"},{"category":"anti-social-behaviour","location_type":"Force","location":{"latitude":"51.478626","street":{"id":949038,"name":"On or near Monson Road"},"longitude":"-0.047478"},"context":"","outcome_status":null,"persistent_id":"","id":64306860,"location_subtype":"","month":"2018-04"},{"category":"anti-social-behaviour","location_type":"Force","location":{"latitude":"51.477877","street":{"id":948910,"name":"On or near Theatre\/concert Hall"},"longitude":"-0.027450"},"context":"","outcome_status":null,"persistent_id":"","id":64305504,"location_subtype":"","month":"2018-04"},{"category":"anti-social-behaviour","location_type":"Force","location":{"latitude":"51.477877","street":{"id":948910,"name":"On or near Theatre\/concert Hall"},"longitude":"-0.027450"},"context":"","outcome_status":null,"persistent_id":"","id":64305505,"location_subtype":"","month":"2018-04"},{"category":"anti-social-behaviour","location_type":"Force","location":{"latitude":"51.477877","street":{"id":948910,"name":"On or near Theatre\/concert Hall"},"longitude":"-0.027450"},"context":"","outcome_status":null,"persistent_id":"","id":64305506,"location_subtype":"","month":"2018-04"},{"category":"anti-social-behaviour","location_type":"Force","location":{"latitude":"51.480402","street":{"id":948933,"name":"On or near Chipley Street"},"longitude":"-0.039669"},"context":"","outcome_status":null,"persistent_id":"","id":64306787,"location_subtype":"","month":"2018-04"},{"category":"anti-social-behaviour","location_type":"Force","location":{"latitude":"51.477877","street":{"id":948910,"name":"On or near Theatre\/concert Hall"},"longitude":"-0.027450"},"context":"","outcome_status":null,"persistent_id":"","id":64305507,"location_subtype":"","month":"2018-04"},{"category":"anti-social-behaviour","location_type":"Force","location":{"latitude":"51.475995","street":{"id":946625,"name":"On or near Comet Street"},"longitude":"-0.027272"},"context":"","outcome_status":null,"persistent_id":"","id":64305521,"location_subtype":"","month":"2018-04"},{"category":"anti-social-behaviour","location_type":"Force","location":{"latitude":"51.480903","street":{"id":948782,"name":"On or near Liardet Street"},"longitude":"-0.037919"},"context":"","outcome_status":null,"persistent_id":"","id":64306775,"location_subtype":"","month":"2018-04"},{"category":"bicycle-theft","location_type":"Force","location":{"latitude":"51.478171","street":{"id":949033,"name":"On or near Robert Lowe Close"},"longitude":"-0.043408"},"context":"","outcome_status":{"category":"Under investigation","date":"2018-04"},"persistent_id":"6736f9ec58544d4144335e4c0671322f090af901cbaba56866cddbe84c5c5663","id":64351757,"location_subtype":"","month":"2018-04"},{"category":"bicycle-theft","location_type":"Force","location":{"latitude":"51.478171","street":{"id":949033,"name":"On or near Robert Lowe Close"},"longitude":"-0.043408"},"context":"","outcome_status":{"category":"Under investigation","date":"2018-04"},"persistent_id":"50218704d126c2a57c398b5ee938fd1621d9ae8711bde374a205d60ea3bbc8fa","id":64368170,"location_subtype":"","month":"2018-04"},{"category":"bicycle-theft","location_type":"Force","location":{"latitude":"51.474990","street":{"id":946416,"name":"On or near New Cross Road"},"longitude":"-0.046784"},"context":"","outcome_status":{"category":"Under investigation","date":"2018-04"},"persistent_id":"4ac4b50408de1d3ab729326b5ee3e46b5f10077c14052f8d5dfbc18dda10d28d","id":64382281,"location_subtype":"","month":"2018-04"},{"category":"bicycle-theft","location_type":"Force","location":{"latitude":"51.476519","street":{"id":946673,"name":"On or near Goodwood Road"},"longitude":"-0.039749"},"context":"","outcome_status":{"category":"Investigation complete; no suspect identified","date":"2018-05"},"persistent_id":"5efb2d5dc964ec2a7ec28715d2cebb79fd5a565887257fb4ae8f8f530c6d48cd","id":64389094,"location_subtype":"","month":"2018-04"},{"category":"bicycle-theft","location_type":"Force","location":{"latitude":"51.477871","street":{"id":948920,"name":"On or near Southerngate Way"},"longitude":"-0.039979"},"context":"","outcome_status":{"category":"Under investigation","date":"2018-04"},"persistent_id":"092dc71cbe4468b8d28815665598a16eb10389d16b9fde276988ed99b4db18dc","id":64353646,"location_subtype":"","month":"2018-04"},{"category":"burglary","location_type":"Force","location":{"latitude":"51.475783","street":{"id":946415,"name":"On or near New Cross Road"},"longitude":"-0.047398"},"context":"","outcome_status":{"category":"Under investigation","date":"2018-04"},"persistent_id":"cef7866b42e9475b418b59f52340dd5c1b122804570273e38323e7f0142ec453","id":64348251,"location_subtype":"","month":"2018-04"},{"category":"burglary","location_type":"Force","location":{"latitude":"51.477942","street":{"id":949034,"name":"On or near Reaston Street"},"longitude":"-0.049639"},"context":"","outcome_status":{"category":"Under investigation","date":"2018-04"},"persistent_id":"cb8c1d63ec73ce04758193b0ecce54e02f6a3a1f58571da9e196041379d239e3","id":64349315,"location_subtype":"","month":"2018-04"},{"category":"burglary","location_type":"Force","location":{"latitude":"51.476373","street":{"id":946564,"name":"On or near Shopping Area"},"longitude":"-0.026247"},"context":"","outcome_status":{"category":"Under investigation","date":"2018-04"},"persistent_id":"82a419b826850b02789f0f11fe5724274b061abe7e959707e5a89d5d2cf5d7ad","id":64361330,"location_subtype":"","month":"2018-04"},{"category":"burglary","location_type":"Force","location":{"latitude":"51.475840","street":{"id":946581,"name":"On or near Speedwell Street"},"longitude":"-0.027178"},"context":"","outcome_status":{"category":"Under investigation","date":"2018-04"},"persistent_id":"a7ce7e7b3bc064c7ea5334cd1edcf398b6b4845a43151302d2499b08d0656657","id":64358989,"location_subtype":"","month":"2018-04"},{"category":"burglary","location_type":"Force","location":{"latitude":"51.475840","street":{"id":946581,"name":"On or near Speedwell Street"},"longitude":"-0.027178"},"context":"","outcome_status":{"category":"Under investigation","date":"2018-04"},"persistent_id":"a7ce7e7b3bc064c7ea5334cd1edcf398b6b4845a43151302d2499b08d0656657","id":64358988,"location_subtype":"","month":"2018-04"},{"category":"burglary","location_type":"Force","location":{"latitude":"51.474791","street":{"id":946618,"name":"On or near Deptford Broadway"},"longitude":"-0.025221"},"context":"","outcome_status":{"category":"Under investigation","date":"2018-04"},"persistent_id":"4bf70b736f45a7a98778a2ce9d7c44d60169ace359d6886c2136823c8ae54414","id":64358288,"location_subtype":"","month":"2018-04"},{"category":"burglary","location_type":"Force","location":{"latitude":"51.477618","street":{"id":948926,"name":"On or near Pear Close"},"longitude":"-0.039356"},"context":"","outcome_status":{"category":"Under investigation","date":"2018-04"},"persistent_id":"e912f9794c081a7ff164b8210cfa0df9fb430212ab2e6d7a68c819f5323db856","id":64347744,"location_subtype":"","month":"2018-04"},{"category":"burglary","location_type":"Force","location":{"latitude":"51.479914","street":{"id":949029,"name":"On or near Water Lane"},"longitude":"-0.051960"},"context":"","outcome_status":{"category":"Under investigation","date":"2018-04"},"persistent_id":"223490ab5991cb3cc5751fc58b40b5be8b4542dd77746d86be2c03ce8fa6cc63","id":64348244,"location_subtype":"","month":"2018-04"},{"category":"burglary","location_type":"Force","location":{"latitude":"51.478626","street":{"id":949038,"name":"On or near Monson Road"},"longitude":"-0.047478"},"context":"","outcome_status":{"category":"Under investigation","date":"2018-04"},"persistent_id":"207b263f081dba70e4de6f53cc85105633aca64edc83b617f2e8ed9da18b0a9a","id":64384883,"location_subtype":"","month":"2018-04"},{"category":"burglary","location_type":"Force","location":{"latitude":"51.476917","street":{"id":946578,"name":"On or near Stanley Street"},"longitude":"-0.031351"},"context":"","outcome_status":{"category":"Under investigation","date":"2018-04"},"persistent_id":"d048a00da81a3c7eec54d90d0d38c4b3434c49375e104d3a4c4ee7c0ba413047","id":64385167,"location_subtype":"","month":"2018-04"},{"category":"burglary","location_type":"Force","location":{"latitude":"51.476665","street":{"id":946606,"name":"On or near Hales Street"},"longitude":"-0.025443"},"context":"","outcome_status":{"category":"Under investigation","date":"2018-04"},"persistent_id":"c4f06d32730994ceb2dc84a6f1232fabde56a3381d4bbc4902b46d0becc81028","id":64388456,"location_subtype":"","month":"2018-04"},{"category":"burglary","location_type":"Force","location":{"latitude":"51.477608","street":{"id":948892,"name":"On or near Giffin Street"},"longitude":"-0.024308"},"context":"","outcome_status":{"category":"Under investigation","date":"2018-04"},"persistent_id":"5bf7e6a35dc8b6c23708cee7c184581d53d5cff2e1c09d9a4db75a36f07341f3","id":64327143,"location_subtype":"","month":"2018-04"},{"category":"burglary","location_type":"Force","location":{"latitude":"51.476917","street":{"id":946578,"name":"On or near Stanley Street"},"longitude":"-0.031351"},"context":"","outcome_status":{"category":"Under investigation","date":"2018-04"},"persistent_id":"c4c59362fb4efaed1836705f57ebead2eb3e6a9dcaec02c9eb8c5743882c5ac6","id":64379379,"location_subtype":"","month":"2018-04"},{"category":"burglary","location_type":"Force","location":{"latitude":"51.479636","street":{"id":948897,"name":"On or near Edward Place"},"longitude":"-0.028843"},"context":"","outcome_status":{"category":"Under investigation","date":"2018-04"},"persistent_id":"f16597fa101275960dafc2116aa2c2b5b15e69f80f5d19e63b199dcdabbdbc92","id":64379251,"location_subtype":"","month":"2018-04"},{"category":"burglary","location_type":"Force","location":{"latitude":"51.475086","street":{"id":946417,"name":"On or near Nettleton Road"},"longitude":"-0.043338"},"context":"","outcome_status":{"category":"Investigation complete; no suspect identified","date":"2018-05"},"persistent_id":"8a8d1a7ea4f7d3f1d5bf1207adeeec94b376634272a95db1b1527f52712a58f0","id":64378406,"location_subtype":"","month":"2018-04"},{"category":"burglary","location_type":"Force","location":{"latitude":"51.477618","street":{"id":948926,"name":"On or near Pear Close"},"longitude":"-0.039356"},"context":"","outcome_status":{"category":"Under investigation","date":"2018-04"},"persistent_id":"04ffb782b4f5284a3bec3131f162b7bf5f9e8e5bfb01221f974cfbce032787e8","id":64371772,"location_subtype":"","month":"2018-04"},{"category":"burglary","location_type":"Force","location":{"latitude":"51.479636","street":{"id":948897,"name":"On or near Edward Place"},"longitude":"-0.028843"},"context":"","outcome_status":{"category":"Under investigation","date":"2018-04"},"persistent_id":"f1e70a4da8d8c35c2eaa201381eda7b50fc863fcfea8dd8af4f21c083c7646d7","id":64369769,"location_subtype":"","month":"2018-04"},{"category":"burglary","location_type":"Force","location":{"latitude":"51.478092","street":{"id":948911,"name":"On or near Supermarket"},"longitude":"-0.025784"},"context":"","outcome_status":{"category":"Under investigation","date":"2018-04"},"persistent_id":"772c44def80cd4ccc72299451aa97f594d363f8f5ba288024d8817381102e112","id":64369163,"location_subtype":"","month":"2018-04"},{"category":"burglary","location_type":"Force","location":{"latitude":"51.479080","street":{"id":948918,"name":"On or near Tarragon Close"},"longitude":"-0.041252"},"context":"","outcome_status":{"category":"Under investigation","date":"2018-04"},"persistent_id":"ddd2915b95d4f5c9dabca1d138bb3e76bcd955a7ce225283651bc332bb1d9706","id":64338264,"location_subtype":"","month":"2018-04"},{"category":"burglary","location_type":"Force","location":{"latitude":"51.475840","street":{"id":946581,"name":"On or near Speedwell Street"},"longitude":"-0.027178"},"context":"","outcome_status":{"category":"Under investigation","date":"2018-04"},"persistent_id":"7579347a85401d53776ddc5a3f0095eb6ee2ae75fae148d5627b795870511e17","id":64326108,"location_subtype":"","month":"2018-04"},{"category":"burglary","location_type":"Force","location":{"latitude":"51.479960","street":{"id":948927,"name":"On or near Nynehead Street"},"longitude":"-0.039616"},"context":"","outcome_status":{"category":"Under investigation","date":"2018-04"},"persistent_id":"a667dc18d2085c570222e62d2f9c2f6f37659f1abe1431df42184c6ea9ca27c8","id":64367981,"location_subtype":"","month":"2018-04"},{"category":"burglary","location_type":"Force","location":{"latitude":"51.477360","street":{"id":948780,"name":"On or near Shopping Area"},"longitude":"-0.019724"},"context":"","outcome_status":{"category":"Under investigation","date":"2018-04"},"persistent_id":"710141fdd1f3569247223b2a0f26d176f6e82e154612c67e17fa62cf152bff1f","id":64333835,"location_subtype":"","month":"2018-04"},{"category":"burglary","location_type":"Force","location":{"latitude":"51.476880","street":{"id":946614,"name":"On or near Deptford High Street"},"longitude":"-0.025894"},"context":"","outcome_status":{"category":"Under investigation","date":"2018-04"},"persistent_id":"855426dd66932dd18859fcd9d0d039cb6febb5226f20182e8f9cdcbc5a3710ca","id":64334985,"location_subtype":"","month":"2018-04"},{"category":"burglary","location_type":"Force","location":{"latitude":"51.475004","street":{"id":946429,"name":"On or near Hatcham Park Mews"},"longitude":"-0.045473"},"context":"","outcome_status":{"category":"Under investigation","date":"2018-04"},"persistent_id":"961ed25dd191c40b2981ba739cd32696840779e82fc7bd10d431308ea99d4d93","id":64335694,"location_subtype":"","month":"2018-04"},{"category":"burglary","location_type":"Force","location":{"latitude":"51.477942","street":{"id":949034,"name":"On or near Reaston Street"},"longitude":"-0.049639"},"context":"","outcome_status":{"category":"Under investigation","date":"2018-04"},"persistent_id":"6443535b7bb42dd70be07184092ee78e3a59fc1fefb2bb98afc4fd88466ef102","id":64346358,"location_subtype":"","month":"2018-04"},{"category":"burglary","location_type":"Force","location":{"latitude":"51.475783","street":{"id":946415,"name":"On or near New Cross Road"},"longitude":"-0.047398"},"context":"","outcome_status":{"category":"Under investigation","date":"2018-04"},"persistent_id":"cef7866b42e9475b418b59f52340dd5c1b122804570273e38323e7f0142ec453","id":64348250,"location_subtype":"","month":"2018-04"},{"category":"burglary","location_type":"Force","location":{"latitude":"51.475783","street":{"id":946415,"name":"On or near New Cross Road"},"longitude":"-0.047398"},"context":"","outcome_status":{"category":"Under investigation","date":"2018-04"},"persistent_id":"cef7866b42e9475b418b59f52340dd5c1b122804570273e38323e7f0142ec453","id":64348252,"location_subtype":"","month":"2018-04"},{"category":"criminal-damage-arson","location_type":"Force","location":{"latitude":"51.474755","street":{"id":946677,"name":"On or near Petrol Station"},"longitude":"-0.041855"},"context":"","outcome_status":{"category":"Under investigation","date":"2018-04"},"persistent_id":"24d9e71de889e07b373cc2684c1b82de3e0353a7dc9a98d242b0fb5249da00af","id":64369076,"location_subtype":"","month":"2018-04"},{"category":"criminal-damage-arson","location_type":"Force","location":{"latitude":"51.478838","street":{"id":948925,"name":"On or near Primrose Walk"},"longitude":"-0.037014"},"context":"","outcome_status":{"category":"Under investigation","date":"2018-04"},"persistent_id":"ab63223c7c27b37005ecf540acf6da2c220f1efb8a63d2dec6170cf9884495e0","id":64324251,"location_subtype":"","month":"2018-04"},{"category":"criminal-damage-arson","location_type":"Force","location":{"latitude":"51.475788","street":{"id":946584,"name":"On or near Reginald Square"},"longitude":"-0.025135"},"context":"","outcome_status":{"category":"Under investigation","date":"2018-04"},"persistent_id":"e5bd62d9fb4e7e51b1e9bab333b228e457029f225546e105af667f8abdc276ea","id":64340377,"location_subtype":"","month":"2018-04"},{"category":"criminal-damage-arson","location_type":"Force","location":{"latitude":"51.478120","street":{"id":948778,"name":"On or near Creekside"},"longitude":"-0.021031"},"context":"","outcome_status":{"category":"Under investigation","date":"2018-04"},"persistent_id":"930553daf2580562afed5d5334dce11874c2c15ab069f8058eaf9df06891dec6","id":64359223,"location_subtype":"","month":"2018-04"},{"category":"criminal-damage-arson","location_type":"BTP","location":{"latitude":"51.476200","street":{"id":1487999,"name":"New Cross (station)"},"longitude":"-0.032560"},"context":"","outcome_status":{"category":"Under investigation","date":"2018-04"},"persistent_id":"","id":66352162,"location_subtype":"STATION","month":"2018-04"},{"category":"criminal-damage-arson","location_type":"Force","location":{"latitude":"51.479636","street":{"id":948897,"name":"On or near Edward Place"},"longitude":"-0.028843"},"context":"","outcome_status":{"category":"Investigation complete; no suspect identified","date":"2018-05"},"persistent_id":"5ca080e911707c74a2413808f655b27c044d746cd4ca9464b6811bc7df23aeb7","id":64328282,"location_subtype":"","month":"2018-04"},{"category":"criminal-damage-arson","location_type":"Force","location":{"latitude":"51.478583","street":{"id":948876,"name":"On or near Parking Area"},"longitude":"-0.027203"},"context":"","outcome_status":{"category":"Under investigation","date":"2018-04"},"persistent_id":"f1be404c927e7d3492eadc8f9b2982022db25edb7a80328cc2c6dc934295427f","id":64388672,"location_subtype":"","month":"2018-04"},{"category":"criminal-damage-arson","location_type":"Force","location":{"latitude":"51.476513","street":{"id":946660,"name":"On or near Achilles Street"},"longitude":"-0.035674"},"context":"","outcome_status":{"category":"Under investigation","date":"2018-04"},"persistent_id":"2b04f9cbe1dd0f1bd14ae6394b738cb1afffb122a5705b00a5f99fdc63faa99e","id":64379247,"location_subtype":"","month":"2018-04"},{"category":"criminal-damage-arson","location_type":"Force","location":{"latitude":"51.474800","street":{"id":946617,"name":"On or near Deptford Broadway"},"longitude":"-0.024688"},"context":"","outcome_status":{"category":"Under investigation","date":"2018-04"},"persistent_id":"023d5206c943a9c63412c2e4a78f60f6bef532fade0a08aa098abec5870d843f","id":64379886,"location_subtype":"","month":"2018-04"},{"category":"criminal-damage-arson","location_type":"BTP","location":{"latitude":"51.476200","street":{"id":1487999,"name":"New Cross (station)"},"longitude":"-0.032560"},"context":"","outcome_status":{"category":"Under investigation","date":"2018-04"},"persistent_id":"","id":66352161,"location_subtype":"STATION","month":"2018-04"},{"category":"criminal-damage-arson","location_type":"Force","location":{"latitude":"51.479387","street":{"id":949045,"name":"On or near Edric Road"},"longitude":"-0.048901"},"context":"","outcome_status":{"category":"Under investigation","date":"2018-04"},"persistent_id":"752d6f089ab48e43ce2e09c5aaae832378bc2125551b51a79275bcfc9c30875c","id":64381844,"location_subtype":"","month":"2018-04"},{"category":"criminal-damage-arson","location_type":"Force","location":{"latitude":"51.478040","street":{"id":948907,"name":"On or near Amersham Vale"},"longitude":"-0.032325"},"context":"","outcome_status":{"category":"Under investigation","date":"2018-04"},"persistent_id":"cc37933e08c7680746ad99cba9ef0b0ce2ff1da02196ffc44c40913022828819","id":64382754,"location_subtype":"","month":"2018-04"},{"category":"criminal-damage-arson","location_type":"Force","location":{"latitude":"51.477618","street":{"id":948926,"name":"On or near Pear Close"},"longitude":"-0.039356"},"context":"","outcome_status":{"category":"Under investigation","date":"2018-04"},"persistent_id":"322a67f864f83d49b8151d78bd39e2fa2b9999e7489c0ea0737936867963800c","id":64384322,"location_subtype":"","month":"2018-04"},{"category":"criminal-damage-arson","location_type":"Force","location":{"latitude":"51.478583","street":{"id":948876,"name":"On or near Parking Area"},"longitude":"-0.027203"},"context":"","outcome_status":{"category":"Under investigation","date":"2018-04"},"persistent_id":"ebada787fd1ec1c9b0a128208d85b19948bf27d52cc79586074ca8383c94a855","id":64387331,"location_subtype":"","month":"2018-04"},{"category":"criminal-damage-arson","location_type":"Force","location":{"latitude":"51.475004","street":{"id":946429,"name":"On or near Hatcham Park Mews"},"longitude":"-0.045473"},"context":"","outcome_status":{"category":"Investigation complete; no suspect identified","date":"2018-04"},"persistent_id":"e79a380c2284a098c1b8130579b9863c382ea59a261ede5d89a087fe79cd70db","id":64360657,"location_subtype":"","month":"2018-04"},{"category":"criminal-damage-arson","location_type":"Force","location":{"latitude":"51.474990","street":{"id":946416,"name":"On or near New Cross Road"},"longitude":"-0.046784"},"context":"","outcome_status":{"category":"Under investigation","date":"2018-04"},"persistent_id":"11e34257daae29e80b14d6e5c970851ce7a615b112ca2f999ce6e2f75c83f84e","id":64335177,"location_subtype":"","month":"2018-04"},{"category":"criminal-damage-arson","location_type":"Force","location":{"latitude":"51.475840","street":{"id":946581,"name":"On or near Speedwell Street"},"longitude":"-0.027178"},"context":"","outcome_status":{"category":"Investigation complete; no suspect identified","date":"2018-05"},"persistent_id":"5e14154442624f87e8dedd0964849ad5b7893eda31d9a66cf9f246083611b54e","id":64373808,"location_subtype":"","month":"2018-04"},{"category":"criminal-damage-arson","location_type":"Force","location":{"latitude":"51.475788","street":{"id":946584,"name":"On or near Reginald Square"},"longitude":"-0.025135"},"context":"","outcome_status":{"category":"Under investigation","date":"2018-04"},"persistent_id":"3634351861c582ff2ce2331fb2c8cdae1911dfb35df3f1e04881d975b86ec6a3","id":64388283,"location_subtype":"","month":"2018-04"},{"category":"criminal-damage-arson","location_type":"Force","location":{"latitude":"51.475783","street":{"id":946415,"name":"On or near New Cross Road"},"longitude":"-0.047398"},"context":"","outcome_status":{"category":"Under investigation","date":"2018-04"},"persistent_id":"f2e27d52eb3dc2185fbec28c8520c3eead6fbe159b48b64e092043f38716b270","id":64358155,"location_subtype":"","month":"2018-04"},{"category":"drugs","location_type":"Force","location":{"latitude":"51.474592","street":{"id":946615,"name":"On or near Deptford Church Street"},"longitude":"-0.024107"},"context":"","outcome_status":{"category":"Offender given a drugs possession warning","date":"2018-04"},"persistent_id":"abcecfd3031efe49ff39fb2686e6fa0963b8eb3e047c7d847b2cb57ea492e9fc","id":64348730,"location_subtype":"","month":"2018-04"},{"category":"drugs","location_type":"Force","location":{"latitude":"51.482941","street":{"id":949006,"name":"On or near Juno Way"},"longitude":"-0.045220"},"context":"","outcome_status":{"category":"Offender fined","date":"2018-04"},"persistent_id":"2d9876c110f22fa4680357635a2d5cd726c29cdd765e124f04950dcc21865301","id":64355990,"location_subtype":"","month":"2018-04"},{"category":"drugs","location_type":"Force","location":{"latitude":"51.475783","street":{"id":946415,"name":"On or near New Cross Road"},"longitude":"-0.047398"},"context":"","outcome_status":{"category":"Offender deprived of property","date":"2018-04"},"persistent_id":"f2e27d52eb3dc2185fbec28c8520c3eead6fbe159b48b64e092043f38716b270","id":64359364,"location_subtype":"","month":"2018-04"},{"category":"drugs","location_type":"Force","location":{"latitude":"51.476519","street":{"id":946673,"name":"On or near Goodwood Road"},"longitude":"-0.039749"},"context":"","outcome_status":{"category":"Under investigation","date":"2018-04"},"persistent_id":"087b25c34472ce7b3a79a91b884c8665722fbd1ee9d46a404eaaab853ff64eb0","id":64388389,"location_subtype":"","month":"2018-04"},{"category":"drugs","location_type":"Force","location":{"latitude":"51.476797","street":{"id":946442,"name":"On or near Casella Road"},"longitude":"-0.047297"},"context":"","outcome_status":{"category":"Offender given a drugs possession warning","date":"2018-04"},"persistent_id":"4afb59cc1abc30cc0424fc79a0781f04952025dc54c8e63243d1da0845d4c7f2","id":64328312,"location_subtype":"","month":"2018-04"},{"category":"drugs","location_type":"Force","location":{"latitude":"51.478732","street":{"id":948909,"name":"On or near Adolphus Street"},"longitude":"-0.029616"},"context":"","outcome_status":{"category":"Awaiting court outcome","date":"2018-04"},"persistent_id":"6b43f3090b93966eefc7d2bc9665291c545f0523c509dfb0c641dbcb70dc067a","id":64382710,"location_subtype":"","month":"2018-04"},{"category":"drugs","location_type":"Force","location":{"latitude":"51.478727","street":{"id":948908,"name":"On or near Amersham Grove"},"longitude":"-0.033102"},"context":"","outcome_status":{"category":"Offender given a drugs possession warning","date":"2018-05"},"persistent_id":"8e85f0d78ceff81f70b8f9c5d0801b2248a957ed2440cbef865e1f4f56a21ef7","id":64388004,"location_subtype":"","month":"2018-04"},{"category":"drugs","location_type":"Force","location":{"latitude":"51.476917","street":{"id":946578,"name":"On or near Stanley Street"},"longitude":"-0.031351"},"context":"","outcome_status":{"category":"Offender given a drugs possession warning","date":"2018-05"},"persistent_id":"703b3334872834b9a4b726cec0aabc75bbdff0cef926353e3aea4d8f2ff9ab57","id":64387997,"location_subtype":"","month":"2018-04"},{"category":"drugs","location_type":"Force","location":{"latitude":"51.476917","street":{"id":946578,"name":"On or near Stanley Street"},"longitude":"-0.031351"},"context":"","outcome_status":{"category":"Offender given a drugs possession warning","date":"2018-05"},"persistent_id":"6365a88ebb4c5aa68b4938b2b9a224ff79c8b0f40ee7ee7e896f966024be3f5a","id":64387457,"location_subtype":"","month":"2018-04"},{"category":"drugs","location_type":"Force","location":{"latitude":"51.477139","street":{"id":946616,"name":"On or near Deptford Church Street"},"longitude":"-0.022628"},"context":"","outcome_status":{"category":"Under investigation","date":"2018-04"},"persistent_id":"1f44c8f101ac3ef33f2003ccab4f9c6d2943874e9372615b755b40992a55a3ee","id":64368972,"location_subtype":"","month":"2018-04"},{"category":"drugs","location_type":"Force","location":{"latitude":"51.478125","street":{"id":948875,"name":"On or near Parking Area"},"longitude":"-0.024544"},"context":"","outcome_status":{"category":"Offender given a drugs possession warning","date":"2018-04"},"persistent_id":"6de789cf7f16f6f91e991a65017bca2bb120724c481e767d032f33a243a31268","id":64347054,"location_subtype":"","month":"2018-04"},{"category":"drugs","location_type":"Force","location":{"latitude":"51.479000","street":{"id":949031,"name":"On or near Wagner Street"},"longitude":"-0.053741"},"context":"","outcome_status":{"category":"Offender given a drugs possession warning","date":"2018-04"},"persistent_id":"b69226281b9ed468a53bd8a0031df5f73b6b86f4acc69690e4119a421fe9814b","id":64324946,"location_subtype":"","month":"2018-04"},{"category":"drugs","location_type":"Force","location":{"latitude":"51.475938","street":{"id":946678,"name":"On or near Nightclub"},"longitude":"-0.036778"},"context":"","outcome_status":{"category":"Offender sent to prison","date":"2018-04"},"persistent_id":"f1112b6e14f7653d57f03ae1605754c6a049728aecb1fce66d196bab894bfdb7","id":64324962,"location_subtype":"","month":"2018-04"},{"category":"drugs","location_type":"Force","location":{"latitude":"51.476797","street":{"id":946442,"name":"On or near Casella Road"},"longitude":"-0.047297"},"context":"","outcome_status":{"category":"Awaiting court outcome","date":"2018-04"},"persistent_id":"f20dc4e4a160408a650d9e2e07dcf162f620f98a11fedde2110903c0effd8711","id":64326050,"location_subtype":"","month":"2018-04"},{"category":"drugs","location_type":"Force","location":{"latitude":"51.481850","street":{"id":948991,"name":"On or near Samuel Close"},"longitude":"-0.046693"},"context":"","outcome_status":{"category":"Offender given a drugs possession warning","date":"2018-04"},"persistent_id":"c53fd6b61842d95719ead62c2ba9fb30d1e69f65321838c84ade7bbf54fc3f9d","id":64329025,"location_subtype":"","month":"2018-04"},{"category":"other-theft","location_type":"Force","location":{"latitude":"51.477608","street":{"id":948892,"name":"On or near Giffin Street"},"longitude":"-0.024308"},"context":"","outcome_status":{"category":"Under investigation","date":"2018-04"},"persistent_id":"c1c4ff26bd9c34ba06a6f6335e5eddc666fd3ea7ae2f95adfa71dad627c71938","id":64361734,"location_subtype":"","month":"2018-04"},{"category":"other-theft","location_type":"Force","location":{"latitude":"51.477139","street":{"id":946616,"name":"On or near Deptford Church Street"},"longitude":"-0.022628"},"context":"","outcome_status":{"category":"Under investigation","date":"2018-04"},"persistent_id":"531d9a1a385d226c78d2482837c493a3ded2e6728750448fb05b7267a78f3d40","id":64344039,"location_subtype":"","month":"2018-04"},{"category":"other-theft","location_type":"Force","location":{"latitude":"51.478125","street":{"id":948875,"name":"On or near Parking Area"},"longitude":"-0.024544"},"context":"","outcome_status":{"category":"Investigation complete; no suspect identified","date":"2018-05"},"persistent_id":"3b9c7767fda918cfb431957d23e8eb555e1b5dead32fbb1e7c21117c05820fce","id":64346402,"location_subtype":"","month":"2018-04"},{"category":"other-theft","location_type":"Force","location":{"latitude":"51.476519","street":{"id":946673,"name":"On or near Goodwood Road"},"longitude":"-0.039749"},"context":"","outcome_status":{"category":"Investigation complete; no suspect identified","date":"2018-05"},"persistent_id":"d8644d28f15fdcb65aed48d96e75ca06e146359eac8051ce8713f87b986c7404","id":64389200,"location_subtype":"","month":"2018-04"},{"category":"other-theft","location_type":"Force","location":{"latitude":"51.478287","street":{"id":949039,"name":"On or near Leylang Road"},"longitude":"-0.045477"},"context":"","outcome_status":{"category":"Under investigation","date":"2018-04"},"persistent_id":"61ef70d4d944eebd92bb09ec370bd76212131b4a479ff20388811dd5d9dcd3d2","id":64342819,"location_subtype":"","month":"2018-04"},{"category":"other-theft","location_type":"Force","location":{"latitude":"51.484575","street":{"id":948977,"name":"On or near Parking Area"},"longitude":"-0.046691"},"context":"","outcome_status":{"category":"Under investigation","date":"2018-04"},"persistent_id":"b168b375bd3e41ca128006dea6fd2d13cf99832f8e0bf96ce896b5dedd03fb64","id":64342797,"location_subtype":"","month":"2018-04"},{"category":"other-theft","location_type":"Force","location":{"latitude":"51.474791","street":{"id":946618,"name":"On or near Deptford Broadway"},"longitude":"-0.025221"},"context":"","outcome_status":{"category":"Under investigation","date":"2018-04"},"persistent_id":"5e587ba6d81efad4a27368ba2c31a57df906e11b1498401e03a0d96e437c7e31","id":64342795,"location_subtype":"","month":"2018-04"},{"category":"other-theft","location_type":"Force","location":{"latitude":"51.474990","street":{"id":946416,"name":"On or near New Cross Road"},"longitude":"-0.046784"},"context":"","outcome_status":{"category":"Under investigation","date":"2018-04"},"persistent_id":"07430b6fe0c05a0279c6016de49c0d09556cda094c5236100a6cc14fd5fa0843","id":64365341,"location_subtype":"","month":"2018-04"},{"category":"other-theft","location_type":"Force","location":{"latitude":"51.478092","street":{"id":948911,"name":"On or near Supermarket"},"longitude":"-0.025784"},"context":"","outcome_status":{"category":"Under investigation","date":"2018-04"},"persistent_id":"1a724a0563c79e5ba57ab19e76ec13d6496b51a83f0d2ff91b995746ed447b1f","id":64337978,"location_subtype":"","month":"2018-04"},{"category":"other-theft","location_type":"Force","location":{"latitude":"51.477608","street":{"id":948892,"name":"On or near Giffin Street"},"longitude":"-0.024308"},"context":"","outcome_status":{"category":"Under investigation","date":"2018-04"},"persistent_id":"a47955abbbedf8e29441b6e2e24a9b62c04865bd8678e0cca668d43aea54af4c","id":64365342,"location_subtype":"","month":"2018-04"},{"category":"other-theft","location_type":"Force","location":{"latitude":"51.478006","street":{"id":948924,"name":"On or near Redstart Close"},"longitude":"-0.039973"},"context":"","outcome_status":{"category":"Under investigation","date":"2018-04"},"persistent_id":"2ce88f583922d0ed9478e5693bbf9b727864e93b9ed4b9acc03dc30b20488dd5","id":64325258,"location_subtype":"","month":"2018-04"},{"category":"other-theft","location_type":"Force","location":{"latitude":"51.478125","street":{"id":948875,"name":"On or near Parking Area"},"longitude":"-0.024544"},"context":"","outcome_status":{"category":"Under investigation","date":"2018-04"},"persistent_id":"1bbefc238b0ce564c3e08a7d62a8424b0a73e58ab4f9595dd176fcec8230b9fc","id":64325578,"location_subtype":"","month":"2018-04"},{"category":"other-theft","location_type":"Force","location":{"latitude":"51.478125","street":{"id":948875,"name":"On or near Parking Area"},"longitude":"-0.024544"},"context":"","outcome_status":{"category":"Under investigation","date":"2018-04"},"persistent_id":"39f0739dd37a4534255acbbd1d66bc7106d40626caded6878c2c7c678b8f3199","id":64333193,"location_subtype":"","month":"2018-04"},{"category":"other-theft","location_type":"Force","location":{"latitude":"51.476552","street":{"id":946594,"name":"On or near Mornington Road"},"longitude":"-0.030473"},"context":"","outcome_status":{"category":"Under investigation","date":"2018-04"},"persistent_id":"be6bc08b20bc182456ab57d29dfc130dbd65c027a3a680476c2ce2545b34fcca","id":64325489,"location_subtype":"","month":"2018-04"},{"category":"other-theft","location_type":"Force","location":{"latitude":"51.474755","street":{"id":946677,"name":"On or near Petrol Station"},"longitude":"-0.041855"},"context":"","outcome_status":{"category":"Under investigation","date":"2018-04"},"persistent_id":"5ea801273c3ce9eaa9d8563baed27ce1dff660d625f4258efd5e4550c964c8d0","id":64384107,"location_subtype":"","month":"2018-04"},{"category":"other-theft","location_type":"Force","location":{"latitude":"51.476373","street":{"id":946564,"name":"On or near Shopping Area"},"longitude":"-0.026247"},"context":"","outcome_status":{"category":"Under investigation","date":"2018-04"},"persistent_id":"cef4cda555a21e79dfc980c7c55f2143c4abb56886c696246a225abab9618968","id":64369280,"location_subtype":"","month":"2018-04"},{"category":"other-theft","location_type":"Force","location":{"latitude":"51.475840","street":{"id":946581,"name":"On or near Speedwell Street"},"longitude":"-0.027178"},"context":"","outcome_status":{"category":"Awaiting court outcome","date":"2018-05"},"persistent_id":"a049c2bed1025191e6d23584854f1ae03227bfaeac3d3a54d6b1219531757c28","id":64363622,"location_subtype":"","month":"2018-04"},{"category":"other-theft","location_type":"Force","location":{"latitude":"51.478125","street":{"id":948875,"name":"On or near Parking Area"},"longitude":"-0.024544"},"context":"","outcome_status":{"category":"Under investigation","date":"2018-04"},"persistent_id":"3c91a66498666f566325bed8619ad2f9d711afc4837e2d02d90b66eef2ee091d","id":64357123,"location_subtype":"","month":"2018-04"},{"category":"other-theft","location_type":"Force","location":{"latitude":"51.478583","street":{"id":948876,"name":"On or near Parking Area"},"longitude":"-0.027203"},"context":"","outcome_status":{"category":"Under investigation","date":"2018-04"},"persistent_id":"d33ee8394a840ea24a25caa7e693ccb8c3a1d06c3c1bd36fced326cf716921a6","id":64329043,"location_subtype":"","month":"2018-04"},{"category":"other-theft","location_type":"Force","location":{"latitude":"51.478212","street":{"id":948883,"name":"On or near Railway Grove"},"longitude":"-0.034549"},"context":"","outcome_status":{"category":"Under investigation","date":"2018-04"},"persistent_id":"7ae264e1f90064f86f3fa3e379f92221a078692680d91d8675f241a0f109a1a2","id":64369845,"location_subtype":"","month":"2018-04"},{"category":"other-theft","location_type":"Force","location":{"latitude":"51.477608","street":{"id":948892,"name":"On or near Giffin Street"},"longitude":"-0.024308"},"context":"","outcome_status":{"category":"Under investigation","date":"2018-04"},"persistent_id":"c1c4ff26bd9c34ba06a6f6335e5eddc666fd3ea7ae2f95adfa71dad627c71938","id":64361733,"location_subtype":"","month":"2018-04"},{"category":"other-theft","location_type":"Force","location":{"latitude":"51.481850","street":{"id":948991,"name":"On or near Samuel Close"},"longitude":"-0.046693"},"context":"","outcome_status":{"category":"Investigation complete; no suspect identified","date":"2018-05"},"persistent_id":"34302deb9ebc1e9bb69dad29d66639bc0555ee4f0ffaf660dae205deb647d3ef","id":64351003,"location_subtype":"","month":"2018-04"},{"category":"other-theft","location_type":"Force","location":{"latitude":"51.476364","street":{"id":946613,"name":"On or near Elgar Close"},"longitude":"-0.027299"},"context":"","outcome_status":{"category":"Under investigation","date":"2018-04"},"persistent_id":"3b0b6fa5e1d232baad1928d9fc1186748dd5cede269394b141b033a46637c621","id":64328260,"location_subtype":"","month":"2018-04"},{"category":"other-theft","location_type":"Force","location":{"latitude":"51.486662","street":{"id":949024,"name":"On or near Sports\/recreation Area"},"longitude":"-0.051067"},"context":"","outcome_status":{"category":"Under investigation","date":"2018-04"},"persistent_id":"ffe84756943c84378ecee9c64a044f535d8f3dc99e67c5de739b2bcee4c4e165","id":64325996,"location_subtype":"","month":"2018-04"},{"category":"other-theft","location_type":"BTP","location":{"latitude":"51.479100","street":{"id":1487948,"name":"Deptford (station)"},"longitude":"-0.026990"},"context":"","outcome_status":{"category":"Under investigation","date":"2018-04"},"persistent_id":"","id":66354065,"location_subtype":"STATION","month":"2018-04"},{"category":"other-theft","location_type":"Force","location":{"latitude":"51.482285","street":{"id":949001,"name":"On or near Lovelinch Close"},"longitude":"-0.051182"},"context":"","outcome_status":{"category":"Under investigation","date":"2018-04"},"persistent_id":"6fe4c0008dc626b3e512ba45b822040b0410fc199a77a522173391d559342f0d","id":64331645,"location_subtype":"","month":"2018-04"},{"category":"other-theft","location_type":"Force","location":{"latitude":"51.477942","street":{"id":949034,"name":"On or near Reaston Street"},"longitude":"-0.049639"},"context":"","outcome_status":{"category":"Under investigation","date":"2018-04"},"persistent_id":"f5acdd43cb849bed2e4bc0c31d65216c221c2f23d4da1f1736a00294c9485e80","id":64380321,"location_subtype":"","month":"2018-04"},{"category":"other-theft","location_type":"Force","location":{"latitude":"51.476003","street":{"id":946592,"name":"On or near New Butt Lane"},"longitude":"-0.024564"},"context":"","outcome_status":{"category":"Under investigation","date":"2018-04"},"persistent_id":"d6d85d1f7cbcec9ba69893ec37e53d7baa2ab506412e421c9d9042f2eb49b656","id":64382312,"location_subtype":"","month":"2018-04"},{"category":"other-theft","location_type":"BTP","location":{"latitude":"51.476200","street":{"id":1487999,"name":"New Cross (station)"},"longitude":"-0.032560"},"context":"","outcome_status":{"category":"Under investigation","date":"2018-04"},"persistent_id":"","id":66352163,"location_subtype":"STATION","month":"2018-04"},{"category":"other-theft","location_type":"Force","location":{"latitude":"51.477608","street":{"id":948892,"name":"On or near Giffin Street"},"longitude":"-0.024308"},"context":"","outcome_status":{"category":"Under investigation","date":"2018-04"},"persistent_id":"c1c4ff26bd9c34ba06a6f6335e5eddc666fd3ea7ae2f95adfa71dad627c71938","id":64361735,"location_subtype":"","month":"2018-04"},{"category":"other-theft","location_type":"Force","location":{"latitude":"51.475783","street":{"id":946415,"name":"On or near New Cross Road"},"longitude":"-0.047398"},"context":"","outcome_status":{"category":"Under investigation","date":"2018-04"},"persistent_id":"fb08d95dc9d7e8a1ab66d487618f15d0f893966334139310fce05649358099ce","id":64362560,"location_subtype":"","month":"2018-04"},{"category":"other-theft","location_type":"Force","location":{"latitude":"51.475840","street":{"id":946581,"name":"On or near Speedwell Street"},"longitude":"-0.027178"},"context":"","outcome_status":{"category":"Under investigation","date":"2018-04"},"persistent_id":"a049c2bed1025191e6d23584854f1ae03227bfaeac3d3a54d6b1219531757c28","id":64363621,"location_subtype":"","month":"2018-04"},{"category":"other-theft","location_type":"Force","location":{"latitude":"51.477608","street":{"id":948892,"name":"On or near Giffin Street"},"longitude":"-0.024308"},"context":"","outcome_status":{"category":"Under investigation","date":"2018-04"},"persistent_id":"79bc156ef33d8bc12c75f249b8a4ee7b133ebfa038c043b28ca4bafe03d95f0f","id":64347102,"location_subtype":"","month":"2018-04"},{"category":"other-theft","location_type":"Force","location":{"latitude":"51.475840","street":{"id":946581,"name":"On or near Speedwell Street"},"longitude":"-0.027178"},"context":"","outcome_status":{"category":"Under investigation","date":"2018-04"},"persistent_id":"670018e570dbc66b3371aa0ae1784c2495e136d4151373676d0044dfdfe4b263","id":64381142,"location_subtype":"","month":"2018-04"},{"category":"other-theft","location_type":"Force","location":{"latitude":"51.486839","street":{"id":949020,"name":"On or near Bolina Road"},"longitude":"-0.052486"},"context":"","outcome_status":{"category":"Under investigation","date":"2018-04"},"persistent_id":"4bab64b33c34c34e179d22a825ff8ef74a8b934ba1ec254ddb9548509594bf77","id":64351384,"location_subtype":"","month":"2018-04"},{"category":"other-theft","location_type":"Force","location":{"latitude":"51.474990","street":{"id":946416,"name":"On or near New Cross Road"},"longitude":"-0.046784"},"context":"","outcome_status":{"category":"Under investigation","date":"2018-04"},"persistent_id":"be5df0e42e621d0675948408d0960cb33cbe36e098fc6d5abfe8d9ab46c8b9a6","id":64370341,"location_subtype":"","month":"2018-04"},{"category":"other-theft","location_type":"Force","location":{"latitude":"51.475783","street":{"id":946415,"name":"On or near New Cross Road"},"longitude":"-0.047398"},"context":"","outcome_status":{"category":"Investigation complete; no suspect identified","date":"2018-04"},"persistent_id":"e5748e3ccbfc6435281e57c129789421b0bb5f92fd2dd1eb2aa523942de382e3","id":64332403,"location_subtype":"","month":"2018-04"},{"category":"possession-of-weapons","location_type":"Force","location":{"latitude":"51.476797","street":{"id":946442,"name":"On or near Casella Road"},"longitude":"-0.047297"},"context":"","outcome_status":{"category":"Awaiting court outcome","date":"2018-04"},"persistent_id":"423dfa1f5d91aec9160562e80091f6c2ef65622d3d9756e7be91c310cbf410dd","id":64324848,"location_subtype":"","month":"2018-04"},{"category":"possession-of-weapons","location_type":"Force","location":{"latitude":"51.475938","street":{"id":946678,"name":"On or near Nightclub"},"longitude":"-0.036778"},"context":"","outcome_status":{"category":"Under investigation","date":"2018-04"},"persistent_id":"f1112b6e14f7653d57f03ae1605754c6a049728aecb1fce66d196bab894bfdb7","id":64324890,"location_subtype":"","month":"2018-04"},{"category":"possession-of-weapons","location_type":"Force","location":{"latitude":"51.476373","street":{"id":946564,"name":"On or near Shopping Area"},"longitude":"-0.026247"},"context":"","outcome_status":{"category":"Awaiting court outcome","date":"2018-04"},"persistent_id":"aa9811c3c50604629cdbd5b6a6d2332b40be8f7d01b831fb80bcda7be4d9bb31","id":64344920,"location_subtype":"","month":"2018-04"},{"category":"possession-of-weapons","location_type":"Force","location":{"latitude":"51.474791","street":{"id":946618,"name":"On or near Deptford Broadway"},"longitude":"-0.025221"},"context":"","outcome_status":{"category":"Under investigation","date":"2018-04"},"persistent_id":"c830a78810ee678b5f0179105999469e524119417a3aa6f476ca3f82b515689d","id":64331648,"location_subtype":"","month":"2018-04"},{"category":"possession-of-weapons","location_type":"Force","location":{"latitude":"51.475783","street":{"id":946415,"name":"On or near New Cross Road"},"longitude":"-0.047398"},"context":"","outcome_status":{"category":"Under investigation","date":"2018-04"},"persistent_id":"f2e27d52eb3dc2185fbec28c8520c3eead6fbe159b48b64e092043f38716b270","id":64358357,"location_subtype":"","month":"2018-04"},{"category":"possession-of-weapons","location_type":"Force","location":{"latitude":"51.475809","street":{"id":946634,"name":"On or near Baildon Street"},"longitude":"-0.028561"},"context":"","outcome_status":{"category":"Under investigation","date":"2018-04"},"persistent_id":"54e0baca0611fc14238a2d6475ce0b3a0ef5b390baebc0589b8161ea120c557e","id":64334115,"location_subtype":"","month":"2018-04"},{"category":"public-order","location_type":"Force","location":{"latitude":"51.475086","street":{"id":946417,"name":"On or near Nettleton Road"},"longitude":"-0.043338"},"context":"","outcome_status":{"category":"Under investigation","date":"2018-04"},"persistent_id":"4a600a6c8829b64ee324721fa559bea1b9f311009b60c4029f706e2f40998e8f","id":64339291,"location_subtype":"","month":"2018-04"},{"category":"public-order","location_type":"Force","location":{"latitude":"51.475086","street":{"id":946417,"name":"On or near Nettleton Road"},"longitude":"-0.043338"},"context":"","outcome_status":{"category":"Under investigation","date":"2018-04"},"persistent_id":"2547e441a038e6bf0145e32de4502a2f9cbb2badbd99963742a3f8f31af618b0","id":64371524,"location_subtype":"","month":"2018-04"},{"category":"public-order","location_type":"Force","location":{"latitude":"51.475004","street":{"id":946429,"name":"On or near Hatcham Park Mews"},"longitude":"-0.045473"},"context":"","outcome_status":{"category":"Under investigation","date":"2018-04"},"persistent_id":"e24dc284f1a0de41a1aaec0e92e2f54097a752f57d5179c105c042579004f9e4","id":64369927,"location_subtype":"","month":"2018-04"},{"category":"public-order","location_type":"Force","location":{"latitude":"51.475938","street":{"id":946678,"name":"On or near Nightclub"},"longitude":"-0.036778"},"context":"","outcome_status":{"category":"Court case unable to proceed","date":"2018-04"},"persistent_id":"3f29f5d421364a085eab0c2e7374c18302b8b6b5b582e77611708cbccb967a30","id":64361867,"location_subtype":"","month":"2018-04"},{"category":"public-order","location_type":"Force","location":{"latitude":"51.478030","street":{"id":949037,"name":"On or near New Cross Road"},"longitude":"-0.052760"},"context":"","outcome_status":{"category":"Investigation complete; no suspect identified","date":"2018-05"},"persistent_id":"9d0acd35cf9b0f9f5f5bf90a2b4e05cdc06f36b662b152e50d25aae9590b8550","id":64384451,"location_subtype":"","month":"2018-04"},{"category":"public-order","location_type":"Force","location":{"latitude":"51.479080","street":{"id":948918,"name":"On or near Tarragon Close"},"longitude":"-0.041252"},"context":"","outcome_status":{"category":"Awaiting court outcome","date":"2018-04"},"persistent_id":"a05025e1360c945537db68da67fa18b7071e0597d60ff3be038f25f6a7a9b040","id":64374268,"location_subtype":"","month":"2018-04"},{"category":"public-order","location_type":"Force","location":{"latitude":"51.475809","street":{"id":946634,"name":"On or near Baildon Street"},"longitude":"-0.028561"},"context":"","outcome_status":{"category":"Offender given penalty notice","date":"2018-04"},"persistent_id":"9347f819c97c23d2b11d19a6f50460abb66b8f5c2a000584d64d581c6a7f3e5a","id":64384104,"location_subtype":"","month":"2018-04"},{"category":"public-order","location_type":"Force","location":{"latitude":"51.477942","street":{"id":949034,"name":"On or near Reaston Street"},"longitude":"-0.049639"},"context":"","outcome_status":{"category":"Under investigation","date":"2018-04"},"persistent_id":"0436190bb35ef29cc93407916ef9dbb8cca279cb9b1ea185f6c722442ca5d4d5","id":64334747,"location_subtype":"","month":"2018-04"},{"category":"robbery","location_type":"Force","location":{"latitude":"51.476270","street":{"id":946585,"name":"On or near Reginald Road"},"longitude":"-0.024409"},"context":"","outcome_status":{"category":"Under investigation","date":"2018-04"},"persistent_id":"69c8218bbc4512f51ce17f62ab7544b9787913d104a54fbffafe645d411207b7","id":64345929,"location_subtype":"","month":"2018-04"},{"category":"robbery","location_type":"Force","location":{"latitude":"51.475783","street":{"id":946415,"name":"On or near New Cross Road"},"longitude":"-0.047398"},"context":"","outcome_status":{"category":"Under investigation","date":"2018-04"},"persistent_id":"ba6254aaaf73c978da0f4bfe12fe684ce9ada8945425fa58be5e44ff1863f376","id":64374492,"location_subtype":"","month":"2018-04"},{"category":"robbery","location_type":"Force","location":{"latitude":"51.475783","street":{"id":946415,"name":"On or near New Cross Road"},"longitude":"-0.047398"},"context":"","outcome_status":{"category":"Investigation complete; no suspect identified","date":"2018-05"},"persistent_id":"ba6254aaaf73c978da0f4bfe12fe684ce9ada8945425fa58be5e44ff1863f376","id":64374493,"location_subtype":"","month":"2018-04"},{"category":"robbery","location_type":"Force","location":{"latitude":"51.479695","street":{"id":949040,"name":"On or near Joseph Hardcastle Close"},"longitude":"-0.045244"},"context":"","outcome_status":{"category":"Investigation complete; no suspect identified","date":"2018-05"},"persistent_id":"14b1bdcd1ec909164752340ac7ee8dea18e75ed0b44ae3bf37dfe4bbffe12c24","id":64378314,"location_subtype":"","month":"2018-04"},{"category":"robbery","location_type":"Force","location":{"latitude":"51.479885","street":{"id":948931,"name":"On or near Desmond Street"},"longitude":"-0.037776"},"context":"","outcome_status":{"category":"Under investigation","date":"2018-04"},"persistent_id":"90d0f82c852ca68ef09a0ca7ec2d6f9ec559c5d082985f6b93bf1b672ec7a6f8","id":64379266,"location_subtype":"","month":"2018-04"},{"category":"robbery","location_type":"Force","location":{"latitude":"51.476880","street":{"id":946614,"name":"On or near Deptford High Street"},"longitude":"-0.025894"},"context":"","outcome_status":{"category":"Under investigation","date":"2018-04"},"persistent_id":"d15275f310a98f24c4d38287e3a9b29914ad57f131581be67ef84986bd4e4844","id":64345840,"location_subtype":"","month":"2018-04"},{"category":"robbery","location_type":"Force","location":{"latitude":"51.476797","street":{"id":946442,"name":"On or near Casella Road"},"longitude":"-0.047297"},"context":"","outcome_status":{"category":"Under investigation","date":"2018-04"},"persistent_id":"30452cd3ec73762d57e00829246f3f5df7f213ad98d6dcb2c5e292653a6d2bc6","id":64331489,"location_subtype":"","month":"2018-04"},{"category":"robbery","location_type":"Force","location":{"latitude":"51.475783","street":{"id":946415,"name":"On or near New Cross Road"},"longitude":"-0.047398"},"context":"","outcome_status":{"category":"Under investigation","date":"2018-04"},"persistent_id":"7130c1e231bd6e601c812d4d558f281d3ad6125f566cd9fd0d6f48f81acf6ed8","id":64331164,"location_subtype":"","month":"2018-04"},{"category":"robbery","location_type":"Force","location":{"latitude":"51.477053","street":{"id":946435,"name":"On or near Egmont Street"},"longitude":"-0.044824"},"context":"","outcome_status":{"category":"Under investigation","date":"2018-04"},"persistent_id":"66d92e64daccc269fd42ad5b145fd0d99df9829657946e078a51d04bed3ff345","id":64383680,"location_subtype":"","month":"2018-04"},{"category":"robbery","location_type":"Force","location":{"latitude":"51.476797","street":{"id":946442,"name":"On or near Casella Road"},"longitude":"-0.047297"},"context":"","outcome_status":{"category":"Under investigation","date":"2018-04"},"persistent_id":"bbf41e739d8b133f27b00d8ef03f7a156f5774358b692a052d981a590409269f","id":64328654,"location_subtype":"","month":"2018-04"},{"category":"robbery","location_type":"Force","location":{"latitude":"51.476519","street":{"id":946673,"name":"On or near Goodwood Road"},"longitude":"-0.039749"},"context":"","outcome_status":{"category":"Under investigation","date":"2018-04"},"persistent_id":"311e49f56286c0f1665bb943019dc604a98de8d9f04c538f4ab478be3219f0af","id":64328998,"location_subtype":"","month":"2018-04"},{"category":"robbery","location_type":"Force","location":{"latitude":"51.478092","street":{"id":948911,"name":"On or near Supermarket"},"longitude":"-0.025784"},"context":"","outcome_status":{"category":"Investigation complete; no suspect identified","date":"2018-05"},"persistent_id":"3db64eb128359ff7f4341da79efc2fa9ea723b2982661935ae9c213edb3e48e3","id":64358272,"location_subtype":"","month":"2018-04"},{"category":"shoplifting","location_type":"Force","location":{"latitude":"51.478092","street":{"id":948911,"name":"On or near Supermarket"},"longitude":"-0.025784"},"context":"","outcome_status":{"category":"Under investigation","date":"2018-04"},"persistent_id":"876d8f2fca52f9934e43efbfeac36d77226c85b8baad6ece0a6e023527250b9a","id":64380322,"location_subtype":"","month":"2018-04"},{"category":"shoplifting","location_type":"Force","location":{"latitude":"51.477877","street":{"id":948910,"name":"On or near Theatre\/concert Hall"},"longitude":"-0.027450"},"context":"","outcome_status":{"category":"Under investigation","date":"2018-04"},"persistent_id":"db49c7ed65575d343c211f732a4506293d46defc225a52b7384e2dcfbe894b1d","id":64362762,"location_subtype":"","month":"2018-04"},{"category":"shoplifting","location_type":"Force","location":{"latitude":"51.478030","street":{"id":949037,"name":"On or near New Cross Road"},"longitude":"-0.052760"},"context":"","outcome_status":{"category":"Under investigation","date":"2018-04"},"persistent_id":"f099238bfb0a9bfb24428347cc03d7f0dbbf6d072cfd93639fdde43ea14999d8","id":64369647,"location_subtype":"","month":"2018-04"},{"category":"theft-from-the-person","location_type":"Force","location":{"latitude":"51.477877","street":{"id":948910,"name":"On or near Theatre\/concert Hall"},"longitude":"-0.027450"},"context":"","outcome_status":{"category":"Under investigation","date":"2018-04"},"persistent_id":"e2bdcef1104d493ccf63f6902c049a081236d13494c1fd88b858fcf1be8cad80","id":64373270,"location_subtype":"","month":"2018-04"},{"category":"theft-from-the-person","location_type":"Force","location":{"latitude":"51.479984","street":{"id":949042,"name":"On or near Hunsdon Road"},"longitude":"-0.048011"},"context":"","outcome_status":{"category":"Under investigation","date":"2018-04"},"persistent_id":"60e8e5e4213cc100db7d47e76c5676852698c499b3f3453ac6bc0e7a9a3f240d","id":64350014,"location_subtype":"","month":"2018-04"},{"category":"theft-from-the-person","location_type":"Force","location":{"latitude":"51.477139","street":{"id":946616,"name":"On or near Deptford Church Street"},"longitude":"-0.022628"},"context":"","outcome_status":{"category":"Under investigation","date":"2018-04"},"persistent_id":"e7f4189fcc671de1fdaf0e36fcd045eb93aa70b27b0854c89f0354c9a2623bd1","id":64367649,"location_subtype":"","month":"2018-04"},{"category":"theft-from-the-person","location_type":"Force","location":{"latitude":"51.476519","street":{"id":946673,"name":"On or near Goodwood Road"},"longitude":"-0.039749"},"context":"","outcome_status":{"category":"Under investigation","date":"2018-04"},"persistent_id":"d197f5b5152a1bf0add035db9cede022430f564a1072fb035cede9ee53fe0b7e","id":64332945,"location_subtype":"","month":"2018-04"},{"category":"vehicle-crime","location_type":"Force","location":{"latitude":"51.477608","street":{"id":948892,"name":"On or near Giffin Street"},"longitude":"-0.024308"},"context":"","outcome_status":{"category":"Under investigation","date":"2018-04"},"persistent_id":"9167f7dd871f094ab6f855518d71c7270a953f68d61da7fb3e7a45dea69461eb","id":64359314,"location_subtype":"","month":"2018-04"},{"category":"vehicle-crime","location_type":"Force","location":{"latitude":"51.478529","street":{"id":948882,"name":"On or near Resolution Way"},"longitude":"-0.024527"},"context":"","outcome_status":{"category":"Under investigation","date":"2018-04"},"persistent_id":"01cfef0db3ead005a5bf4ac6ccbd0f427f474b494fa33c68a80cb2ac555a9e0c","id":64352804,"location_subtype":"","month":"2018-04"},{"category":"vehicle-crime","location_type":"Force","location":{"latitude":"51.478529","street":{"id":948882,"name":"On or near Resolution Way"},"longitude":"-0.024527"},"context":"","outcome_status":{"category":"Under investigation","date":"2018-04"},"persistent_id":"ee09032da5f1d628e0a543f67f03c001636b73f74f87759a4dc0cea1b693eee0","id":64348475,"location_subtype":"","month":"2018-04"},{"category":"vehicle-crime","location_type":"Force","location":{"latitude":"51.477139","street":{"id":946616,"name":"On or near Deptford Church Street"},"longitude":"-0.022628"},"context":"","outcome_status":{"category":"Under investigation","date":"2018-04"},"persistent_id":"9f3cc128d0514a42e5840ec8e6f00d5f02c5cebae2e8bef082725189327a1a24","id":64347230,"location_subtype":"","month":"2018-04"},{"category":"vehicle-crime","location_type":"Force","location":{"latitude":"51.476373","street":{"id":946564,"name":"On or near Shopping Area"},"longitude":"-0.026247"},"context":"","outcome_status":{"category":"Under investigation","date":"2018-04"},"persistent_id":"381423606cbfcfff57382b9c8531a0a82936bf7baefb2048345bcaa1f563f075","id":64346905,"location_subtype":"","month":"2018-04"},{"category":"vehicle-crime","location_type":"Force","location":{"latitude":"51.482079","street":{"id":948801,"name":"On or near Archer Square"},"longitude":"-0.040490"},"context":"","outcome_status":{"category":"Under investigation","date":"2018-04"},"persistent_id":"82251b75c0ba4fb574b4f00d241f00c8e934030b18fa44d67523691dc2a9fc08","id":64344234,"location_subtype":"","month":"2018-04"},{"category":"vehicle-crime","location_type":"Force","location":{"latitude":"51.477618","street":{"id":948926,"name":"On or near Pear Close"},"longitude":"-0.039356"},"context":"","outcome_status":{"category":"Under investigation","date":"2018-04"},"persistent_id":"37c7e54087e16173fec7d79ec5dad976bd0f48b1c3594f39718d5a9cfe13318e","id":64334782,"location_subtype":"","month":"2018-04"},{"category":"vehicle-crime","location_type":"Force","location":{"latitude":"51.480012","street":{"id":948934,"name":"On or near Bowerman Avenue"},"longitude":"-0.036762"},"context":"","outcome_status":{"category":"Under investigation","date":"2018-04"},"persistent_id":"acef40bf14104ea63be010176d7b56b8f47374ec4273ff50a3dd3766686f608b","id":64331032,"location_subtype":"","month":"2018-04"},{"category":"vehicle-crime","location_type":"Force","location":{"latitude":"51.482285","street":{"id":949001,"name":"On or near Lovelinch Close"},"longitude":"-0.051182"},"context":"","outcome_status":{"category":"Under investigation","date":"2018-04"},"persistent_id":"405097d3bbce1d475bc54ddd1d3eb4b789ee67f6cd0b06b4e5b378c2ca3e2de5","id":64328281,"location_subtype":"","month":"2018-04"},{"category":"vehicle-crime","location_type":"Force","location":{"latitude":"51.480402","street":{"id":948933,"name":"On or near Chipley Street"},"longitude":"-0.039669"},"context":"","outcome_status":{"category":"Under investigation","date":"2018-04"},"persistent_id":"ab125edf59d89815f87978d8031a1b98a9031ae1d264d69b2ce989857b80d692","id":64368905,"location_subtype":"","month":"2018-04"},{"category":"vehicle-crime","location_type":"Force","location":{"latitude":"51.475656","street":{"id":946591,"name":"On or near New Cross Road"},"longitude":"-0.030685"},"context":"","outcome_status":{"category":"Under investigation","date":"2018-04"},"persistent_id":"9e716d16ca6938a55860a2e33fe08686b60889e0ff642332c2525fdf30819892","id":64324854,"location_subtype":"","month":"2018-04"},{"category":"vehicle-crime","location_type":"Force","location":{"latitude":"51.476364","street":{"id":946613,"name":"On or near Elgar Close"},"longitude":"-0.027299"},"context":"","outcome_status":{"category":"Under investigation","date":"2018-04"},"persistent_id":"f3c7a6bd1ef144c4ff1520d6e4c80dadf659297cfd3c79a1331e016df455c742","id":64324285,"location_subtype":"","month":"2018-04"},{"category":"vehicle-crime","location_type":"Force","location":{"latitude":"51.481263","street":{"id":948783,"name":"On or near Whitcher Close"},"longitude":"-0.040078"},"context":"","outcome_status":{"category":"Under investigation","date":"2018-04"},"persistent_id":"9a44976b032a922dbb318c31e5a33d40c9331a67ab0209207bb65d797e63e9ae","id":64369346,"location_subtype":"","month":"2018-04"},{"category":"vehicle-crime","location_type":"Force","location":{"latitude":"51.474755","street":{"id":946677,"name":"On or near Petrol Station"},"longitude":"-0.041855"},"context":"","outcome_status":{"category":"Under investigation","date":"2018-04"},"persistent_id":"4f4bb36b639cd1d5959eb7d0f9daa9d36b4b05bc0dbf58f78b526162fba303bd","id":64374884,"location_subtype":"","month":"2018-04"},{"category":"vehicle-crime","location_type":"Force","location":{"latitude":"51.480903","street":{"id":948782,"name":"On or near Liardet Street"},"longitude":"-0.037919"},"context":"","outcome_status":{"category":"Under investigation","date":"2018-04"},"persistent_id":"cf4e8f15f1397dd979dd0e6db978c092147580a535173b86dc36aeb8de969626","id":64375863,"location_subtype":"","month":"2018-04"},{"category":"vehicle-crime","location_type":"Force","location":{"latitude":"51.478287","street":{"id":949039,"name":"On or near Leylang Road"},"longitude":"-0.045477"},"context":"","outcome_status":{"category":"Under investigation","date":"2018-04"},"persistent_id":"267afdce5f3a572e171d10a98a3bca006dd9c1afcd32943a2aa689d84104df3b","id":64376833,"location_subtype":"","month":"2018-04"},{"category":"vehicle-crime","location_type":"Force","location":{"latitude":"51.482979","street":{"id":948997,"name":"On or near Myers Lane"},"longitude":"-0.047509"},"context":"","outcome_status":{"category":"Under investigation","date":"2018-04"},"persistent_id":"0519938d0c1663df2fd2e9b8a3848cd79b5fa98b5a79c3216df158419d0b2a2a","id":64379008,"location_subtype":"","month":"2018-04"},{"category":"vehicle-crime","location_type":"Force","location":{"latitude":"51.474755","street":{"id":946677,"name":"On or near Petrol Station"},"longitude":"-0.041855"},"context":"","outcome_status":{"category":"Under investigation","date":"2018-04"},"persistent_id":"5ee7d146092b40e2fd61d78f5c4db59ca4f1ec92eeecef4252678c8538a2656e","id":64379935,"location_subtype":"","month":"2018-04"},{"category":"vehicle-crime","location_type":"Force","location":{"latitude":"51.476806","street":{"id":946607,"name":"On or near Glenville Grove"},"longitude":"-0.029526"},"context":"","outcome_status":{"category":"Under investigation","date":"2018-04"},"persistent_id":"2d09bd887d1a81cd00c39408142f6ed5a7039f51056ddbea839f512b03ddcd6a","id":64380243,"location_subtype":"","month":"2018-04"},{"category":"vehicle-crime","location_type":"Force","location":{"latitude":"51.477583","street":{"id":948899,"name":"On or near Douglas Way"},"longitude":"-0.031869"},"context":"","outcome_status":{"category":"Under investigation","date":"2018-04"},"persistent_id":"dfcf1cda0da1396900c42697aec2882236cb7595b31c3ebdd2635c1c0376f27d","id":64382595,"location_subtype":"","month":"2018-04"},{"category":"vehicle-crime","location_type":"Force","location":{"latitude":"51.480012","street":{"id":948934,"name":"On or near Bowerman Avenue"},"longitude":"-0.036762"},"context":"","outcome_status":{"category":"Under investigation","date":"2018-04"},"persistent_id":"7458caa8c76e8cdabbbdbe522b7fb1e456dcfd36a5e5cfec4dfeb0ffed3cd63b","id":64387477,"location_subtype":"","month":"2018-04"},{"category":"vehicle-crime","location_type":"Force","location":{"latitude":"51.478125","street":{"id":948875,"name":"On or near Parking Area"},"longitude":"-0.024544"},"context":"","outcome_status":{"category":"Under investigation","date":"2018-04"},"persistent_id":"08115e1b2f2a1590c30099f3a64a23b5cf47e610482ed891149dceedb8619f27","id":64389165,"location_subtype":"","month":"2018-04"},{"category":"vehicle-crime","location_type":"Force","location":{"latitude":"51.477618","street":{"id":948926,"name":"On or near Pear Close"},"longitude":"-0.039356"},"context":"","outcome_status":{"category":"Investigation complete; no suspect identified","date":"2018-04"},"persistent_id":"f8b3e0613d3a16c8f689d558e0e5ee1640f3682474cc6db12f7b99790fbffd58","id":64349287,"location_subtype":"","month":"2018-04"},{"category":"vehicle-crime","location_type":"Force","location":{"latitude":"51.475004","street":{"id":946429,"name":"On or near Hatcham Park Mews"},"longitude":"-0.045473"},"context":"","outcome_status":{"category":"Under investigation","date":"2018-04"},"persistent_id":"2b3e1606e71704f2e57d4eec4d5b0fd03f7ca4c4604a3f199bed4d3486d93088","id":64353537,"location_subtype":"","month":"2018-04"},{"category":"vehicle-crime","location_type":"Force","location":{"latitude":"51.480012","street":{"id":948934,"name":"On or near Bowerman Avenue"},"longitude":"-0.036762"},"context":"","outcome_status":{"category":"Under investigation","date":"2018-04"},"persistent_id":"1f97da60d9ab553295b72672b12732c3b1e82006474ab9086f3ad4437fc36af7","id":64352966,"location_subtype":"","month":"2018-04"},{"category":"vehicle-crime","location_type":"Force","location":{"latitude":"51.480012","street":{"id":948934,"name":"On or near Bowerman Avenue"},"longitude":"-0.036762"},"context":"","outcome_status":{"category":"Under investigation","date":"2018-04"},"persistent_id":"bbdfe163ff7e8421257157e1c6f39a8fadbeaed390ede9881ff2b36bbb87d97e","id":64331571,"location_subtype":"","month":"2018-04"},{"category":"violent-crime","location_type":"Force","location":{"latitude":"51.476830","street":{"id":946612,"name":"On or near Exeter Way"},"longitude":"-0.033673"},"context":"","outcome_status":{"category":"Under investigation","date":"2018-04"},"persistent_id":"1e619455f020f63b3aefaea86969cc6c887bfe80a9246c0a012fe74bddf9d44d","id":64361927,"location_subtype":"","month":"2018-04"},{"category":"violent-crime","location_type":"Force","location":{"latitude":"51.477053","street":{"id":946435,"name":"On or near Egmont Street"},"longitude":"-0.044824"},"context":"","outcome_status":{"category":"Under investigation","date":"2018-04"},"persistent_id":"61dee99b71d745067260400250c1cbe58a1efa1ecf0881eb782a79f3dbe8e3ca","id":64331647,"location_subtype":"","month":"2018-04"},{"category":"violent-crime","location_type":"Force","location":{"latitude":"51.480402","street":{"id":948933,"name":"On or near Chipley Street"},"longitude":"-0.039669"},"context":"","outcome_status":{"category":"Investigation complete; no suspect identified","date":"2018-05"},"persistent_id":"68b7eb50cb806e5fa23c3a0ba6172a2c646188b545592adc244cbd13ecbf72be","id":64332620,"location_subtype":"","month":"2018-04"},{"category":"violent-crime","location_type":"Force","location":{"latitude":"51.478030","street":{"id":949037,"name":"On or near New Cross Road"},"longitude":"-0.052760"},"context":"","outcome_status":{"category":"Investigation complete; no suspect identified","date":"2018-05"},"persistent_id":"f4e833d3846afcb74d2b4753c30c306aeb6b0fe9706171e4acbe6442a21c85de","id":64368210,"location_subtype":"","month":"2018-04"},{"category":"violent-crime","location_type":"Force","location":{"latitude":"51.475840","street":{"id":946581,"name":"On or near Speedwell Street"},"longitude":"-0.027178"},"context":"","outcome_status":{"category":"Investigation complete; no suspect identified","date":"2018-05"},"persistent_id":"e5172a2a5c93259baae1290d2f8198c4243c42b16fcd7a5bc0a76060558c085f","id":64386068,"location_subtype":"","month":"2018-04"},{"category":"violent-crime","location_type":"Force","location":{"latitude":"51.476830","street":{"id":946612,"name":"On or near Exeter Way"},"longitude":"-0.033673"},"context":"","outcome_status":{"category":"Under investigation","date":"2018-04"},"persistent_id":"45bc09191205ecb6b62dd5d7def051944878de017c8c9867ee818bab57169ea2","id":64386704,"location_subtype":"","month":"2018-04"},{"category":"violent-crime","location_type":"Force","location":{"latitude":"51.474791","street":{"id":946618,"name":"On or near Deptford Broadway"},"longitude":"-0.025221"},"context":"","outcome_status":{"category":"Under investigation","date":"2018-04"},"persistent_id":"3063026459ae0add38def13d66dfa28ce25326b471f4f5bd22b85628db5b1c04","id":64350358,"location_subtype":"","month":"2018-04"},{"category":"violent-crime","location_type":"Force","location":{"latitude":"51.475938","street":{"id":946678,"name":"On or near Nightclub"},"longitude":"-0.036778"},"context":"","outcome_status":{"category":"Under investigation","date":"2018-04"},"persistent_id":"5c6ceb18cf301aa1fc4796ce0ec87a7a27d12d278fa2771ed09b1aa5caee8497","id":64330957,"location_subtype":"","month":"2018-04"},{"category":"violent-crime","location_type":"Force","location":{"latitude":"51.474791","street":{"id":946618,"name":"On or near Deptford Broadway"},"longitude":"-0.025221"},"context":"","outcome_status":{"category":"Under investigation","date":"2018-04"},"persistent_id":"3063026459ae0add38def13d66dfa28ce25326b471f4f5bd22b85628db5b1c04","id":64350359,"location_subtype":"","month":"2018-04"},{"category":"violent-crime","location_type":"Force","location":{"latitude":"51.475938","street":{"id":946678,"name":"On or near Nightclub"},"longitude":"-0.036778"},"context":"","outcome_status":{"category":"Investigation complete; no suspect identified","date":"2018-04"},"persistent_id":"490bde94b26617c788e298fad69d50079654d3c56e20f1f112f2dfe9087db27b","id":64367302,"location_subtype":"","month":"2018-04"},{"category":"violent-crime","location_type":"Force","location":{"latitude":"51.482979","street":{"id":948997,"name":"On or near Myers Lane"},"longitude":"-0.047509"},"context":"","outcome_status":{"category":"Under investigation","date":"2018-04"},"persistent_id":"e6e807897a1e93e41bfb6c1febb4a291d525fbaf7d28519c961ffe4b3d5db2cd","id":64365890,"location_subtype":"","month":"2018-04"},{"category":"violent-crime","location_type":"Force","location":{"latitude":"51.476665","street":{"id":946606,"name":"On or near Hales Street"},"longitude":"-0.025443"},"context":"","outcome_status":{"category":"Under investigation","date":"2018-04"},"persistent_id":"b1e74e2aa6047db80162043c364ecf301883bfc5ccd8ca17e45139855df744fe","id":64358841,"location_subtype":"","month":"2018-04"},{"category":"violent-crime","location_type":"Force","location":{"latitude":"51.478838","street":{"id":948925,"name":"On or near Primrose Walk"},"longitude":"-0.037014"},"context":"","outcome_status":{"category":"Awaiting court outcome","date":"2018-04"},"persistent_id":"ae324ea38a7bdea805d4d2dc4dfdd2f6af0915c69a2900e7f2ae336883bb1bdf","id":64377485,"location_subtype":"","month":"2018-04"},{"category":"violent-crime","location_type":"Force","location":{"latitude":"51.483528","street":{"id":948992,"name":"On or near Rollins Street"},"longitude":"-0.051302"},"context":"","outcome_status":{"category":"Under investigation","date":"2018-04"},"persistent_id":"1b3c026d7768b4cc0ae907d677800fad21dc123aa7e820abebc4535d696d969a","id":64335351,"location_subtype":"","month":"2018-04"},{"category":"violent-crime","location_type":"Force","location":{"latitude":"51.474755","street":{"id":946677,"name":"On or near Petrol Station"},"longitude":"-0.041855"},"context":"","outcome_status":{"category":"Investigation complete; no suspect identified","date":"2018-04"},"persistent_id":"0f3e52011bd41a002f9fa53bde95ad08aa0c9b8b498b3e936fdfca5695c4b114","id":64347913,"location_subtype":"","month":"2018-04"},{"category":"violent-crime","location_type":"Force","location":{"latitude":"51.476519","street":{"id":946673,"name":"On or near Goodwood Road"},"longitude":"-0.039749"},"context":"","outcome_status":{"category":"Investigation complete; no suspect identified","date":"2018-04"},"persistent_id":"407ad57ac0d85597c61c74f5c921b5c3aad6f07e0cae866a84c014374c0e7040","id":64332688,"location_subtype":"","month":"2018-04"},{"category":"violent-crime","location_type":"Force","location":{"latitude":"51.475086","street":{"id":946417,"name":"On or near Nettleton Road"},"longitude":"-0.043338"},"context":"","outcome_status":{"category":"Under investigation","date":"2018-04"},"persistent_id":"03bb117bd7cdcb39a9b3310a34d8442f7ed27c9192a89a14e9c9022359e386b0","id":64338337,"location_subtype":"","month":"2018-04"},{"category":"violent-crime","location_type":"Force","location":{"latitude":"51.478092","street":{"id":948911,"name":"On or near Supermarket"},"longitude":"-0.025784"},"context":"","outcome_status":{"category":"Under investigation","date":"2018-04"},"persistent_id":"9c0d03aa700e574d6acc9b91f68aa1583fea1514091465341c6d6b238251ba2e","id":64344233,"location_subtype":"","month":"2018-04"},{"category":"violent-crime","location_type":"Force","location":{"latitude":"51.477942","street":{"id":949034,"name":"On or near Reaston Street"},"longitude":"-0.049639"},"context":"","outcome_status":{"category":"Under investigation","date":"2018-04"},"persistent_id":"a1069cdd9a1dd8b9d34eeae530987f1165d5f4b914549bfbd8b9745716603e12","id":64345972,"location_subtype":"","month":"2018-04"},{"category":"violent-crime","location_type":"Force","location":{"latitude":"51.475656","street":{"id":946591,"name":"On or near New Cross Road"},"longitude":"-0.030685"},"context":"","outcome_status":{"category":"Investigation complete; no suspect identified","date":"2018-04"},"persistent_id":"c69f0f5ced654f235640d8b40117c79e4a3a51b48704dacc1e52dfb34d032cdc","id":64369571,"location_subtype":"","month":"2018-04"},{"category":"violent-crime","location_type":"Force","location":{"latitude":"51.475938","street":{"id":946678,"name":"On or near Nightclub"},"longitude":"-0.036778"},"context":"","outcome_status":{"category":"Under investigation","date":"2018-04"},"persistent_id":"2597f99cc689287e70193f0e0483788243f3c5dd7f73423d5e08e1e1ca91d600","id":64359436,"location_subtype":"","month":"2018-04"},{"category":"violent-crime","location_type":"Force","location":{"latitude":"51.478626","street":{"id":949038,"name":"On or near Monson Road"},"longitude":"-0.047478"},"context":"","outcome_status":{"category":"Under investigation","date":"2018-04"},"persistent_id":"fdef6279acf427b16ebd2319a6ba73b2f2bf986cc12936cd024628784449953c","id":64360069,"location_subtype":"","month":"2018-04"},{"category":"violent-crime","location_type":"Force","location":{"latitude":"51.476880","street":{"id":946614,"name":"On or near Deptford High Street"},"longitude":"-0.025894"},"context":"","outcome_status":{"category":"Under investigation","date":"2018-04"},"persistent_id":"865a3d6499e2d1ddd03ed10169563fa7018b518246f316ec3991f0d5a6462bf0","id":64351622,"location_subtype":"","month":"2018-04"},{"category":"violent-crime","location_type":"Force","location":{"latitude":"51.477942","street":{"id":949034,"name":"On or near Reaston Street"},"longitude":"-0.049639"},"context":"","outcome_status":{"category":"Under investigation","date":"2018-04"},"persistent_id":"016f73c84c16ea3fe923ed7e97bb1ff5fad1d353b5a864dda30730d24daee871","id":64364207,"location_subtype":"","month":"2018-04"},{"category":"violent-crime","location_type":"Force","location":{"latitude":"51.476917","street":{"id":946578,"name":"On or near Stanley Street"},"longitude":"-0.031351"},"context":"","outcome_status":{"category":"Under investigation","date":"2018-04"},"persistent_id":"1b930ad8e28f8900a4a97435dc48add7cd7d215b847efd672b928e39613a1161","id":64348052,"location_subtype":"","month":"2018-04"},{"category":"violent-crime","location_type":"Force","location":{"latitude":"51.475783","street":{"id":946415,"name":"On or near New Cross Road"},"longitude":"-0.047398"},"context":"","outcome_status":{"category":"Awaiting court outcome","date":"2018-06"},"persistent_id":"540a9384c8944aa74e0ccf2153e3f8b2e924ed65ee42f89c142e508494f94b1f","id":64364282,"location_subtype":"","month":"2018-04"},{"category":"violent-crime","location_type":"Force","location":{"latitude":"51.484368","street":{"id":948984,"name":"On or near Surrey Canal Road"},"longitude":"-0.048285"},"context":"","outcome_status":{"category":"Investigation complete; no suspect identified","date":"2018-06"},"persistent_id":"c17116a5dc65b5d534fff1cb7224726e06f4502448db18cea02ae091a19d7669","id":64358075,"location_subtype":"","month":"2018-04"},{"category":"violent-crime","location_type":"Force","location":{"latitude":"51.477608","street":{"id":948892,"name":"On or near Giffin Street"},"longitude":"-0.024308"},"context":"","outcome_status":{"category":"Investigation complete; no suspect identified","date":"2018-04"},"persistent_id":"50ca695a80230e8a0d2f991ab05a0716a34ad6a62d6ec8df4dec644140552a1f","id":64358634,"location_subtype":"","month":"2018-04"},{"category":"violent-crime","location_type":"Force","location":{"latitude":"51.475938","street":{"id":946678,"name":"On or near Nightclub"},"longitude":"-0.036778"},"context":"","outcome_status":{"category":"Under investigation","date":"2018-04"},"persistent_id":"2597f99cc689287e70193f0e0483788243f3c5dd7f73423d5e08e1e1ca91d600","id":64354279,"location_subtype":"","month":"2018-04"},{"category":"violent-crime","location_type":"Force","location":{"latitude":"51.475004","street":{"id":946429,"name":"On or near Hatcham Park Mews"},"longitude":"-0.045473"},"context":"","outcome_status":{"category":"Investigation complete; no suspect identified","date":"2018-05"},"persistent_id":"523133df39f448e1eb20dad9f948bc7a989ea79bfdaca91fbcdc1f850b251504","id":64331746,"location_subtype":"","month":"2018-04"},{"category":"violent-crime","location_type":"Force","location":{"latitude":"51.476830","street":{"id":946612,"name":"On or near Exeter Way"},"longitude":"-0.033673"},"context":"","outcome_status":{"category":"Awaiting court outcome","date":"2018-04"},"persistent_id":"0604c3eb693f15fc4708b7fde12d58b59e38803bb606b1392a0e7f97470d5091","id":64372031,"location_subtype":"","month":"2018-04"},{"category":"violent-crime","location_type":"Force","location":{"latitude":"51.475656","street":{"id":946591,"name":"On or near New Cross Road"},"longitude":"-0.030685"},"context":"","outcome_status":{"category":"Under investigation","date":"2018-04"},"persistent_id":"9b1c52f9c41274d89f9ba3c409430358e3c244707e856bbb205413b9bdd9a0a0","id":64347745,"location_subtype":"","month":"2018-04"},{"category":"violent-crime","location_type":"Force","location":{"latitude":"51.476830","street":{"id":946612,"name":"On or near Exeter Way"},"longitude":"-0.033673"},"context":"","outcome_status":{"category":"Under investigation","date":"2018-04"},"persistent_id":"1e619455f020f63b3aefaea86969cc6c887bfe80a9246c0a012fe74bddf9d44d","id":64361928,"location_subtype":"","month":"2018-04"},{"category":"violent-crime","location_type":"Force","location":{"latitude":"51.475783","street":{"id":946415,"name":"On or near New Cross Road"},"longitude":"-0.047398"},"context":"","outcome_status":{"category":"Investigation complete; no suspect identified","date":"2018-04"},"persistent_id":"a5215aedbfdba1720999074e9708da54414762a5ddaceae747d92d15a2a1d034","id":64338090,"location_subtype":"","month":"2018-04"},{"category":"violent-crime","location_type":"Force","location":{"latitude":"51.480402","street":{"id":948933,"name":"On or near Chipley Street"},"longitude":"-0.039669"},"context":"","outcome_status":{"category":"Investigation complete; no suspect identified","date":"2018-04"},"persistent_id":"f1f031e0c7e97976e7599c150f5b00400e51f54774b9829dd5357e3dd8c8a1dd","id":64343408,"location_subtype":"","month":"2018-04"},{"category":"violent-crime","location_type":"Force","location":{"latitude":"51.478732","street":{"id":948909,"name":"On or near Adolphus Street"},"longitude":"-0.029616"},"context":"","outcome_status":{"category":"Investigation complete; no suspect identified","date":"2018-04"},"persistent_id":"0bc76a72044fd4a0e705675626df083aa208b7bfaa30ba327c2c76600c65639c","id":64351472,"location_subtype":"","month":"2018-04"},{"category":"violent-crime","location_type":"Force","location":{"latitude":"51.479695","street":{"id":949040,"name":"On or near Joseph Hardcastle Close"},"longitude":"-0.045244"},"context":"","outcome_status":{"category":"Under investigation","date":"2018-04"},"persistent_id":"1fc75aef62f95f535357f5e3f070536831cb2e08dceea99c9b8f33cf63511989","id":64348477,"location_subtype":"","month":"2018-04"},{"category":"violent-crime","location_type":"Force","location":{"latitude":"51.478838","street":{"id":948925,"name":"On or near Primrose Walk"},"longitude":"-0.037014"},"context":"","outcome_status":{"category":"Under investigation","date":"2018-04"},"persistent_id":"ae324ea38a7bdea805d4d2dc4dfdd2f6af0915c69a2900e7f2ae336883bb1bdf","id":64377484,"location_subtype":"","month":"2018-04"},{"category":"violent-crime","location_type":"Force","location":{"latitude":"51.478030","street":{"id":949037,"name":"On or near New Cross Road"},"longitude":"-0.052760"},"context":"","outcome_status":{"category":"Under investigation","date":"2018-04"},"persistent_id":"0bbefe59b1a7019fdb97a7fb5ad3db0476eba0b82438f083119e5cd5dc592510","id":64377079,"location_subtype":"","month":"2018-04"},{"category":"violent-crime","location_type":"Force","location":{"latitude":"51.486662","street":{"id":949024,"name":"On or near Sports\/recreation Area"},"longitude":"-0.051067"},"context":"","outcome_status":{"category":"Investigation complete; no suspect identified","date":"2018-05"},"persistent_id":"43bb6c915726cedd89b311f74f43965083a683cd06d599af50fc8be78fae572f","id":64347789,"location_subtype":"","month":"2018-04"},{"category":"violent-crime","location_type":"Force","location":{"latitude":"51.477942","street":{"id":949034,"name":"On or near Reaston Street"},"longitude":"-0.049639"},"context":"","outcome_status":{"category":"Under investigation","date":"2018-04"},"persistent_id":"a1069cdd9a1dd8b9d34eeae530987f1165d5f4b914549bfbd8b9745716603e12","id":64348871,"location_subtype":"","month":"2018-04"},{"category":"violent-crime","location_type":"Force","location":{"latitude":"51.477877","street":{"id":948910,"name":"On or near Theatre\/concert Hall"},"longitude":"-0.027450"},"context":"","outcome_status":{"category":"Awaiting court outcome","date":"2018-04"},"persistent_id":"810fb3e65f4bb212f2a1f0ba560ed240b1694957c4fabad7c9233407dc6ec5a2","id":64349244,"location_subtype":"","month":"2018-04"},{"category":"violent-crime","location_type":"Force","location":{"latitude":"51.474755","street":{"id":946677,"name":"On or near Petrol Station"},"longitude":"-0.041855"},"context":"","outcome_status":{"category":"Investigation complete; no suspect identified","date":"2018-05"},"persistent_id":"4f4bb36b639cd1d5959eb7d0f9daa9d36b4b05bc0dbf58f78b526162fba303bd","id":64376488,"location_subtype":"","month":"2018-04"},{"category":"violent-crime","location_type":"Force","location":{"latitude":"51.476797","street":{"id":946442,"name":"On or near Casella Road"},"longitude":"-0.047297"},"context":"","outcome_status":{"category":"Under investigation","date":"2018-04"},"persistent_id":"7ed0e12aba2c2a92b7bf9b4ff59c32614558396feede0b8d4fa611149737f49e","id":64375609,"location_subtype":"","month":"2018-04"},{"category":"violent-crime","location_type":"Force","location":{"latitude":"51.478626","street":{"id":949038,"name":"On or near Monson Road"},"longitude":"-0.047478"},"context":"","outcome_status":{"category":"Investigation complete; no suspect identified","date":"2018-05"},"persistent_id":"20dd529ebd4c71eb79139853498e6d009176043fd46f5282d2219ac48805aec5","id":64370886,"location_subtype":"","month":"2018-04"},{"category":"violent-crime","location_type":"Force","location":{"latitude":"51.479636","street":{"id":948897,"name":"On or near Edward Place"},"longitude":"-0.028843"},"context":"","outcome_status":{"category":"Under investigation","date":"2018-04"},"persistent_id":"a6cae1daa37f91415a71340018d6e81ea721d49abe189d73ef16afb8e301e95d","id":64370180,"location_subtype":"","month":"2018-04"},{"category":"other-crime","location_type":"Force","location":{"latitude":"51.478092","street":{"id":948911,"name":"On or near Supermarket"},"longitude":"-0.025784"},"context":"","outcome_status":{"category":"Under investigation","date":"2018-04"},"persistent_id":"bbd669343a0c3e980dcc52a6066cee729029bd565011d2ed6522c4cfb378bcd8","id":64388483,"location_subtype":"","month":"2018-04"}]