[{"category":"anti-social-behaviour","location_type":"Force","location":{"latitude":"51.536996","street":{"id":965563,"name":"On or near Park Parade"},"longitude":"-0.243091"},"context":"","outcome_status":null,"persistent_id":"","id":64310771,"location_subtype":"","month":"2018-04"},{"category":"anti-social-behaviour","location_type":"Force","location":{"latitude":"51.535041","street":{"id":965655,"name":"On or near Rucklidge Avenue"},"longitude":"-0.242201"},"context":"","outcome_status":null,"persistent_id":"","id":64310772,"location_subtype":"","month":"2018-04"},{"category":"anti-social-behaviour","location_type":"Force","location":{"latitude":"51.536702","street":{"id":965635,"name":"On or near Cardinal Hinsley Close"},"longitude":"-0.239671"},"context":"","outcome_status":null,"persistent_id":"","id":64310739,"location_subtype":"","month":"2018-04"},{"category":"anti-social-behaviour","location_type":"Force","location":{"latitude":"51.534948","street":{"id":965659,"name":"On or near High Street Harlesden"},"longitude":"-0.243214"},"context":"","outcome_status":null,"persistent_id":"","id":64310785,"location_subtype":"","month":"2018-04"},{"category":"anti-social-behaviour","location_type":"Force","location":{"latitude":"51.532927","street":{"id":959819,"name":"On or near Clifton Road"},"longitude":"-0.241576"},"context":"","outcome_status":null,"persistent_id":"","id":64310754,"location_subtype":"","month":"2018-04"},{"category":"anti-social-behaviour","location_type":"Force","location":{"latitude":"51.536996","street":{"id":965563,"name":"On or near Park Parade"},"longitude":"-0.243091"},"context":"","outcome_status":null,"persistent_id":"","id":64310781,"location_subtype":"","month":"2018-04"},{"category":"anti-social-behaviour","location_type":"Force","location":{"latitude":"51.532927","street":{"id":959819,"name":"On or near Clifton Road"},"longitude":"-0.241576"},"context":"","outcome_status":null,"persistent_id":"","id":64310755,"location_subtype":"","month":"2018-04"},{"category":"anti-social-behaviour","location_type":"Force","location":{"latitude":"51.536996","street":{"id":965563,"name":"On or near Park Parade"},"longitude":"-0.243091"},"context":"","outcome_status":null,"persistent_id":"","id":64310780,"location_subtype":"","month":"2018-04"},{"category":"anti-social-behaviour","location_type":"Force","location":{"latitude":"51.532927","street":{"id":959819,"name":"On or near Clifton Road"},"longitude":"-0.241576"},"context":"","outcome_status":null,"persistent_id":"","id":64310757,"location_subtype":"","month":"2018-04"},{"category":"anti-social-behaviour","location_type":"Force","location":{"latitude":"51.535041","street":{"id":965655,"name":"On or near Rucklidge Avenue"},"longitude":"-0.242201"},"context":"","outcome_status":null,"persistent_id":"","id":64310775,"location_subtype":"","month":"2018-04"},{"category":"anti-social-behaviour","location_type":"Force","location":{"latitude":"51.535041","street":{"id":965655,"name":"On or near Rucklidge Avenue"},"longitude":"-0.242201"},"context":"","outcome_status":null,"persistent_id":"","id":64310774,"location_subtype":"","month":"2018-04"},{"category":"anti-social-behaviour","location_type":"Force","location":{"latitude":"51.537847","street":{"id":965558,"name":"On or near Springwell Avenue"},"longitude":"-0.242222"},"context":"","outcome_status":null,"persistent_id":"","id":64310760,"location_subtype":"","month":"2018-04"},{"category":"anti-social-behaviour","location_type":"Force","location":{"latitude":"51.537847","street":{"id":965558,"name":"On or near Springwell Avenue"},"longitude":"-0.242222"},"context":"","outcome_status":null,"persistent_id":"","id":64310761,"location_subtype":"","month":"2018-04"},{"category":"anti-social-behaviour","location_type":"Force","location":{"latitude":"51.532927","street":{"id":959819,"name":"On or near Clifton Road"},"longitude":"-0.241576"},"context":"","outcome_status":null,"persistent_id":"","id":64310763,"location_subtype":"","month":"2018-04"},{"category":"anti-social-behaviour","location_type":"Force","location":{"latitude":"51.535041","street":{"id":965655,"name":"On or near Rucklidge Avenue"},"longitude":"-0.242201"},"context":"","outcome_status":null,"persistent_id":"","id":64310769,"location_subtype":"","month":"2018-04"},{"category":"anti-social-behaviour","location_type":"Force","location":{"latitude":"51.535041","street":{"id":965655,"name":"On or near Rucklidge Avenue"},"longitude":"-0.242201"},"context":"","outcome_status":null,"persistent_id":"","id":64310773,"location_subtype":"","month":"2018-04"},{"category":"anti-social-behaviour","location_type":"Force","location":{"latitude":"51.536996","street":{"id":965563,"name":"On or near Park Parade"},"longitude":"-0.243091"},"context":"","outcome_status":null,"persistent_id":"","id":64310770,"location_subtype":"","month":"2018-04"},{"category":"anti-social-behaviour","location_type":"Force","location":{"latitude":"51.533098","street":{"id":959810,"name":"On or near Tubbs Road"},"longitude":"-0.243977"},"context":"","outcome_status":null,"persistent_id":"","id":64323520,"location_subtype":"","month":"2018-04"},{"category":"anti-social-behaviour","location_type":"Force","location":{"latitude":"51.531939","street":{"id":959803,"name":"On or near Harrow Road"},"longitude":"-0.232689"},"context":"","outcome_status":null,"persistent_id":"","id":64310702,"location_subtype":"","month":"2018-04"},{"category":"anti-social-behaviour","location_type":"Force","location":{"latitude":"51.535227","street":{"id":965650,"name":"On or near All Souls Avenue"},"longitude":"-0.231898"},"context":"","outcome_status":null,"persistent_id":"","id":64310700,"location_subtype":"","month":"2018-04"},{"category":"anti-social-behaviour","location_type":"Force","location":{"latitude":"51.534747","street":{"id":965664,"name":"On or near Sports\/recreation Area"},"longitude":"-0.244202"},"context":"","outcome_status":null,"persistent_id":"","id":64310799,"location_subtype":"","month":"2018-04"},{"category":"anti-social-behaviour","location_type":"Force","location":{"latitude":"51.533098","street":{"id":959810,"name":"On or near Tubbs Road"},"longitude":"-0.243977"},"context":"","outcome_status":null,"persistent_id":"","id":64310794,"location_subtype":"","month":"2018-04"},{"category":"anti-social-behaviour","location_type":"Force","location":{"latitude":"51.533098","street":{"id":959810,"name":"On or near Tubbs Road"},"longitude":"-0.243977"},"context":"","outcome_status":null,"persistent_id":"","id":64310793,"location_subtype":"","month":"2018-04"},{"category":"anti-social-behaviour","location_type":"Force","location":{"latitude":"51.533098","street":{"id":959810,"name":"On or near Tubbs Road"},"longitude":"-0.243977"},"context":"","outcome_status":null,"persistent_id":"","id":64310792,"location_subtype":"","month":"2018-04"},{"category":"anti-social-behaviour","location_type":"Force","location":{"latitude":"51.534948","street":{"id":965659,"name":"On or near High Street Harlesden"},"longitude":"-0.243214"},"context":"","outcome_status":null,"persistent_id":"","id":64310791,"location_subtype":"","month":"2018-04"},{"category":"anti-social-behaviour","location_type":"Force","location":{"latitude":"51.533696","street":{"id":965541,"name":"On or near College Road"},"longitude":"-0.225787"},"context":"","outcome_status":null,"persistent_id":"","id":64309847,"location_subtype":"","month":"2018-04"},{"category":"anti-social-behaviour","location_type":"Force","location":{"latitude":"51.533696","street":{"id":965541,"name":"On or near College Road"},"longitude":"-0.225787"},"context":"","outcome_status":null,"persistent_id":"","id":64309848,"location_subtype":"","month":"2018-04"},{"category":"anti-social-behaviour","location_type":"Force","location":{"latitude":"51.533098","street":{"id":959810,"name":"On or near Tubbs Road"},"longitude":"-0.243977"},"context":"","outcome_status":null,"persistent_id":"","id":64323519,"location_subtype":"","month":"2018-04"},{"category":"anti-social-behaviour","location_type":"Force","location":{"latitude":"51.534948","street":{"id":965659,"name":"On or near High Street Harlesden"},"longitude":"-0.243214"},"context":"","outcome_status":null,"persistent_id":"","id":64310790,"location_subtype":"","month":"2018-04"},{"category":"anti-social-behaviour","location_type":"Force","location":{"latitude":"51.534948","street":{"id":965659,"name":"On or near High Street Harlesden"},"longitude":"-0.243214"},"context":"","outcome_status":null,"persistent_id":"","id":64310789,"location_subtype":"","month":"2018-04"},{"category":"anti-social-behaviour","location_type":"Force","location":{"latitude":"51.534948","street":{"id":965659,"name":"On or near High Street Harlesden"},"longitude":"-0.243214"},"context":"","outcome_status":null,"persistent_id":"","id":64310788,"location_subtype":"","month":"2018-04"},{"category":"anti-social-behaviour","location_type":"Force","location":{"latitude":"51.533696","street":{"id":965541,"name":"On or near College Road"},"longitude":"-0.225787"},"context":"","outcome_status":null,"persistent_id":"","id":64309849,"location_subtype":"","month":"2018-04"},{"category":"anti-social-behaviour","location_type":"Force","location":{"latitude":"51.533696","street":{"id":965541,"name":"On or near College Road"},"longitude":"-0.225787"},"context":"","outcome_status":null,"persistent_id":"","id":64309850,"location_subtype":"","month":"2018-04"},{"category":"anti-social-behaviour","location_type":"Force","location":{"latitude":"51.537541","street":{"id":965631,"name":"On or near Doyle Gardens"},"longitude":"-0.232645"},"context":"","outcome_status":null,"persistent_id":"","id":64309879,"location_subtype":"","month":"2018-04"},{"category":"anti-social-behaviour","location_type":"Force","location":{"latitude":"51.533098","street":{"id":959810,"name":"On or near Tubbs Road"},"longitude":"-0.243977"},"context":"","outcome_status":null,"persistent_id":"","id":64310801,"location_subtype":"","month":"2018-04"},{"category":"anti-social-behaviour","location_type":"Force","location":{"latitude":"51.533098","street":{"id":959810,"name":"On or near Tubbs Road"},"longitude":"-0.243977"},"context":"","outcome_status":null,"persistent_id":"","id":64310802,"location_subtype":"","month":"2018-04"},{"category":"anti-social-behaviour","location_type":"Force","location":{"latitude":"51.533718","street":{"id":965658,"name":"On or near Honeywood Road"},"longitude":"-0.246332"},"context":"","outcome_status":null,"persistent_id":"","id":64310809,"location_subtype":"","month":"2018-04"},{"category":"anti-social-behaviour","location_type":"Force","location":{"latitude":"51.534948","street":{"id":965659,"name":"On or near High Street Harlesden"},"longitude":"-0.243214"},"context":"","outcome_status":null,"persistent_id":"","id":64310787,"location_subtype":"","month":"2018-04"},{"category":"anti-social-behaviour","location_type":"Force","location":{"latitude":"51.534207","street":{"id":965654,"name":"On or near Station Road"},"longitude":"-0.247813"},"context":"","outcome_status":null,"persistent_id":"","id":64310819,"location_subtype":"","month":"2018-04"},{"category":"anti-social-behaviour","location_type":"Force","location":{"latitude":"51.534207","street":{"id":965654,"name":"On or near Station Road"},"longitude":"-0.247813"},"context":"","outcome_status":null,"persistent_id":"","id":64310820,"location_subtype":"","month":"2018-04"},{"category":"anti-social-behaviour","location_type":"Force","location":{"latitude":"51.534948","street":{"id":965659,"name":"On or near High Street Harlesden"},"longitude":"-0.243214"},"context":"","outcome_status":null,"persistent_id":"","id":64310786,"location_subtype":"","month":"2018-04"},{"category":"anti-social-behaviour","location_type":"Force","location":{"latitude":"51.534063","street":{"id":965641,"name":"On or near Odessa Road"},"longitude":"-0.236990"},"context":"","outcome_status":null,"persistent_id":"","id":64310709,"location_subtype":"","month":"2018-04"},{"category":"anti-social-behaviour","location_type":"Force","location":{"latitude":"51.538822","street":{"id":965633,"name":"On or near Dairy Close"},"longitude":"-0.237729"},"context":"","outcome_status":null,"persistent_id":"","id":64310738,"location_subtype":"","month":"2018-04"},{"category":"bicycle-theft","location_type":"Force","location":{"latitude":"51.535041","street":{"id":965655,"name":"On or near Rucklidge Avenue"},"longitude":"-0.242201"},"context":"","outcome_status":{"category":"Investigation complete; no suspect identified","date":"2018-05"},"persistent_id":"c063c54e1ac6a78f510ccc8e9c1919f4e311117a97a6c9bfc4555cfb4f80a814","id":64357179,"location_subtype":"","month":"2018-04"},{"category":"bicycle-theft","location_type":"Force","location":{"latitude":"51.530741","street":{"id":959893,"name":"On or near Mortimer Road"},"longitude":"-0.225368"},"context":"","outcome_status":{"category":"Under investigation","date":"2018-04"},"persistent_id":"a7663ec159804713926ac6c3f2668d3a131da82a2c428852d41266d50533dbc9","id":64334119,"location_subtype":"","month":"2018-04"},{"category":"burglary","location_type":"Force","location":{"latitude":"51.532927","street":{"id":959819,"name":"On or near Clifton Road"},"longitude":"-0.241576"},"context":"","outcome_status":{"category":"Under investigation","date":"2018-04"},"persistent_id":"df42450037a21313c9105dd0c04cd585bc7776bf86bdced248b969ba23969212","id":64374368,"location_subtype":"","month":"2018-04"},{"category":"burglary","location_type":"Force","location":{"latitude":"51.535222","street":{"id":965672,"name":"On or near Buckingham Mews"},"longitude":"-0.244688"},"context":"","outcome_status":{"category":"Investigation complete; no suspect identified","date":"2018-05"},"persistent_id":"6512db3caf090e3ef7a53dc7d7bb3138aebcca8367626093a234fb0b5e68bebf","id":64340043,"location_subtype":"","month":"2018-04"},{"category":"burglary","location_type":"Force","location":{"latitude":"51.530631","street":{"id":959895,"name":"On or near Hazel Road"},"longitude":"-0.227059"},"context":"","outcome_status":{"category":"Awaiting court outcome","date":"2018-06"},"persistent_id":"af77dbfc590517e5281374755a50458dc0eea37b86fbd3160d7b00b105c61853","id":64335113,"location_subtype":"","month":"2018-04"},{"category":"burglary","location_type":"Force","location":{"latitude":"51.534948","street":{"id":965659,"name":"On or near High Street Harlesden"},"longitude":"-0.243214"},"context":"","outcome_status":{"category":"Under investigation","date":"2018-04"},"persistent_id":"5adec04d9e750073de7e7b41693844f0fe56787771fde602ad5b1f4192989223","id":64374750,"location_subtype":"","month":"2018-04"},{"category":"burglary","location_type":"Force","location":{"latitude":"51.533696","street":{"id":965541,"name":"On or near College Road"},"longitude":"-0.225787"},"context":"","outcome_status":{"category":"Investigation complete; no suspect identified","date":"2018-06"},"persistent_id":"e6ee4ab796259162ec5c0c15f933d98054fee24d82645aa85e050a9e1092163a","id":64330376,"location_subtype":"","month":"2018-04"},{"category":"burglary","location_type":"Force","location":{"latitude":"51.535857","street":{"id":965549,"name":"On or near Liddell Gardens"},"longitude":"-0.226553"},"context":"","outcome_status":{"category":"Investigation complete; no suspect identified","date":"2018-04"},"persistent_id":"4585a2b2c2bfbcaf622c32d5a8d3e471c93150e185b029d1861c72b5e8a64714","id":64334038,"location_subtype":"","month":"2018-04"},{"category":"burglary","location_type":"Force","location":{"latitude":"51.535857","street":{"id":965549,"name":"On or near Liddell Gardens"},"longitude":"-0.226553"},"context":"","outcome_status":{"category":"Under investigation","date":"2018-04"},"persistent_id":"66a94deab81a27f431d4bd4a338b9de11107a206505195e1e4dbcc945ac60a4c","id":64356359,"location_subtype":"","month":"2018-04"},{"category":"burglary","location_type":"Force","location":{"latitude":"51.531673","street":{"id":959894,"name":"On or near Hiley Road"},"longitude":"-0.226370"},"context":"","outcome_status":{"category":"Under investigation","date":"2018-04"},"persistent_id":"a574cb9a8e8034b425c9f7e590a8ff5c5091ff9e9f8e7cad6f7c446de618c3bf","id":64327167,"location_subtype":"","month":"2018-04"},{"category":"burglary","location_type":"Force","location":{"latitude":"51.536702","street":{"id":965635,"name":"On or near Cardinal Hinsley Close"},"longitude":"-0.239671"},"context":"","outcome_status":{"category":"Under investigation","date":"2018-04"},"persistent_id":"24cb69b83eec8a0a2535dfaf42223d827e693997b9f6cd5313b2bd92ada570ac","id":64360409,"location_subtype":"","month":"2018-04"},{"category":"burglary","location_type":"Force","location":{"latitude":"51.533595","street":{"id":965543,"name":"On or near Bathurst Gardens"},"longitude":"-0.229799"},"context":"","outcome_status":{"category":"Under investigation","date":"2018-04"},"persistent_id":"a90c15f5c401cdc2795ed833e67391f81164e0116af208a59f7196797a1d53b7","id":64383822,"location_subtype":"","month":"2018-04"},{"category":"burglary","location_type":"Force","location":{"latitude":"51.531673","street":{"id":959894,"name":"On or near Hiley Road"},"longitude":"-0.226370"},"context":"","outcome_status":{"category":"Awaiting court outcome","date":"2018-06"},"persistent_id":"c477ff7ee9eb5d8eea08650fb075721d78bf2d612bb629a63b12f3a1b3ce3c86","id":64344318,"location_subtype":"","month":"2018-04"},{"category":"burglary","location_type":"Force","location":{"latitude":"51.535007","street":{"id":965653,"name":"On or near Station Road"},"longitude":"-0.248402"},"context":"","outcome_status":{"category":"Investigation complete; no suspect identified","date":"2018-04"},"persistent_id":"f2173bf3aa45f5eb93f59d88e3e65fb096f709fe1bb96b2ace98429eb46dc1ac","id":64332215,"location_subtype":"","month":"2018-04"},{"category":"burglary","location_type":"Force","location":{"latitude":"51.532505","street":{"id":959787,"name":"On or near Victor Road"},"longitude":"-0.232033"},"context":"","outcome_status":{"category":"Under investigation","date":"2018-04"},"persistent_id":"1651fe21ca9d1d99df702a60a4474c992b19b3300158114039ea39853c081877","id":64355825,"location_subtype":"","month":"2018-04"},{"category":"criminal-damage-arson","location_type":"Force","location":{"latitude":"51.530741","street":{"id":959893,"name":"On or near Mortimer Road"},"longitude":"-0.225368"},"context":"","outcome_status":{"category":"Under investigation","date":"2018-04"},"persistent_id":"71d94760b16ae4563e0cdc6548f4a54cafe6948f38ff6382848c42028b65543e","id":64378486,"location_subtype":"","month":"2018-04"},{"category":"drugs","location_type":"Force","location":{"latitude":"51.534745","street":{"id":965652,"name":"On or near Wendover Road"},"longitude":"-0.245874"},"context":"","outcome_status":{"category":"Under investigation","date":"2018-04"},"persistent_id":"4325cd65ab151794a698dfd09cf8f33145aff0f8c08fa220f6413df6ade609a2","id":64325864,"location_subtype":"","month":"2018-04"},{"category":"drugs","location_type":"Force","location":{"latitude":"51.535007","street":{"id":965653,"name":"On or near Station Road"},"longitude":"-0.248402"},"context":"","outcome_status":{"category":"Awaiting court outcome","date":"2018-04"},"persistent_id":"25a30536873676ad9508a07c3225e7bd25f3a62cad757818eca7035a31e0c143","id":64359271,"location_subtype":"","month":"2018-04"},{"category":"drugs","location_type":"Force","location":{"latitude":"51.533718","street":{"id":965658,"name":"On or near Honeywood Road"},"longitude":"-0.246332"},"context":"","outcome_status":{"category":"Local resolution","date":"2018-04"},"persistent_id":"014a76406e526699eff65a00a6529323543799e797092ec3ac59ee0dd4fe1329","id":64357963,"location_subtype":"","month":"2018-04"},{"category":"drugs","location_type":"Force","location":{"latitude":"51.534948","street":{"id":965659,"name":"On or near High Street Harlesden"},"longitude":"-0.243214"},"context":"","outcome_status":{"category":"Under investigation","date":"2018-04"},"persistent_id":"65433097f944a77fbbd1e1f1a00f53f001598b1e784560f79b9f8807b0228025","id":64333323,"location_subtype":"","month":"2018-04"},{"category":"other-theft","location_type":"Force","location":{"latitude":"51.533595","street":{"id":965543,"name":"On or near Bathurst Gardens"},"longitude":"-0.229799"},"context":"","outcome_status":{"category":"Investigation complete; no suspect identified","date":"2018-04"},"persistent_id":"e10a0ec8283bdc7106082ffa20269944982abce2106c260bb090416cb69ee9f3","id":64336865,"location_subtype":"","month":"2018-04"},{"category":"other-theft","location_type":"Force","location":{"latitude":"51.538016","street":{"id":965624,"name":"On or near Haycroft Gardens"},"longitude":"-0.235554"},"context":"","outcome_status":{"category":"Under investigation","date":"2018-04"},"persistent_id":"bec313a4273ef39ce7bfc245fafba17243c7aaf5d6395469d3fcb931ad5cb37a","id":64326908,"location_subtype":"","month":"2018-04"},{"category":"other-theft","location_type":"Force","location":{"latitude":"51.536996","street":{"id":965563,"name":"On or near Park Parade"},"longitude":"-0.243091"},"context":"","outcome_status":{"category":"Under investigation","date":"2018-04"},"persistent_id":"4c3ddd439d92b4d73e7d247a55978e953655e62e556dceec1225c7846a740346","id":64370569,"location_subtype":"","month":"2018-04"},{"category":"other-theft","location_type":"Force","location":{"latitude":"51.533595","street":{"id":965543,"name":"On or near Bathurst Gardens"},"longitude":"-0.229799"},"context":"","outcome_status":{"category":"Under investigation","date":"2018-04"},"persistent_id":"265031526f81bf064ff586bc886fd537b9771708d1a87894719fa25a2ed0b81b","id":64344435,"location_subtype":"","month":"2018-04"},{"category":"other-theft","location_type":"Force","location":{"latitude":"51.536425","street":{"id":965591,"name":"On or near Cholmondeley Avenue"},"longitude":"-0.241556"},"context":"","outcome_status":{"category":"Under investigation","date":"2018-04"},"persistent_id":"f41468cfdd9fe6ff9296305790c192049111075738d9d4c6c6c1f127e9173cce","id":64383307,"location_subtype":"","month":"2018-04"},{"category":"other-theft","location_type":"Force","location":{"latitude":"51.531673","street":{"id":959894,"name":"On or near Hiley Road"},"longitude":"-0.226370"},"context":"","outcome_status":{"category":"Under investigation","date":"2018-04"},"persistent_id":"950dd53e1f63cf924d734982a380a808803f476a9dc4038ae4a094e0e37cea81","id":64383638,"location_subtype":"","month":"2018-04"},{"category":"other-theft","location_type":"Force","location":{"latitude":"51.536425","street":{"id":965591,"name":"On or near Cholmondeley Avenue"},"longitude":"-0.241556"},"context":"","outcome_status":{"category":"Under investigation","date":"2018-04"},"persistent_id":"71641cc54b4a1b13eed6876529bfb8e1528750edea681fcaa03fb87519e8a319","id":64384995,"location_subtype":"","month":"2018-04"},{"category":"other-theft","location_type":"Force","location":{"latitude":"51.535041","street":{"id":965655,"name":"On or near Rucklidge Avenue"},"longitude":"-0.242201"},"context":"","outcome_status":{"category":"Under investigation","date":"2018-04"},"persistent_id":"a07dfa71dd8c454ac6faedae6ffa3fa3a057ba7701c944f0620787d4de90e414","id":64362553,"location_subtype":"","month":"2018-04"},{"category":"other-theft","location_type":"Force","location":{"latitude":"51.533595","street":{"id":965543,"name":"On or near Bathurst Gardens"},"longitude":"-0.229799"},"context":"","outcome_status":{"category":"Under investigation","date":"2018-04"},"persistent_id":"e10a0ec8283bdc7106082ffa20269944982abce2106c260bb090416cb69ee9f3","id":64336864,"location_subtype":"","month":"2018-04"},{"category":"other-theft","location_type":"Force","location":{"latitude":"51.532595","street":{"id":959892,"name":"On or near Purves Road"},"longitude":"-0.227906"},"context":"","outcome_status":{"category":"Under investigation","date":"2018-04"},"persistent_id":"711899657bc8202d572d8d5747a8855d060809ebffd9faf600924e11de8be2e0","id":64336855,"location_subtype":"","month":"2018-04"},{"category":"other-theft","location_type":"Force","location":{"latitude":"51.530741","street":{"id":959893,"name":"On or near Mortimer Road"},"longitude":"-0.225368"},"context":"","outcome_status":{"category":"Investigation complete; no suspect identified","date":"2018-04"},"persistent_id":"c9130c929fdea902c2f8436a14b82ed825e8c9fc0fde933569afa4b447ec50cb","id":64359841,"location_subtype":"","month":"2018-04"},{"category":"other-theft","location_type":"Force","location":{"latitude":"51.531673","street":{"id":959894,"name":"On or near Hiley Road"},"longitude":"-0.226370"},"context":"","outcome_status":{"category":"Investigation complete; no suspect identified","date":"2018-04"},"persistent_id":"71012df658783502793263f940946c20385c82b897bf52f996872623c70b145a","id":64335091,"location_subtype":"","month":"2018-04"},{"category":"other-theft","location_type":"Force","location":{"latitude":"51.535572","street":{"id":965647,"name":"On or near Herbert Gardens"},"longitude":"-0.230905"},"context":"","outcome_status":{"category":"Investigation complete; no suspect identified","date":"2018-04"},"persistent_id":"8356c43b064015887b999360e1ea2a187e15cee5f1dbba75649bde2de9759a2f","id":64355028,"location_subtype":"","month":"2018-04"},{"category":"other-theft","location_type":"Force","location":{"latitude":"51.535222","street":{"id":965672,"name":"On or near Buckingham Mews"},"longitude":"-0.244688"},"context":"","outcome_status":{"category":"Under investigation","date":"2018-04"},"persistent_id":"d50b9be18ed9e46e7e61f8c21b0cca314cf3e066be28a090b0123157ec724259","id":64334774,"location_subtype":"","month":"2018-04"},{"category":"other-theft","location_type":"Force","location":{"latitude":"51.530631","street":{"id":959895,"name":"On or near Hazel Road"},"longitude":"-0.227059"},"context":"","outcome_status":{"category":"Under investigation","date":"2018-04"},"persistent_id":"9ce5f498c85e204d75cb8b610b1c2f777a97bbe917a3b4bd50bc28a4368cc295","id":64343194,"location_subtype":"","month":"2018-04"},{"category":"other-theft","location_type":"Force","location":{"latitude":"51.534207","street":{"id":965654,"name":"On or near Station Road"},"longitude":"-0.247813"},"context":"","outcome_status":{"category":"Under investigation","date":"2018-04"},"persistent_id":"119d670315a57b7b25d512072e40735a32b3199a85fc51d9e2d34692bf51ffe2","id":64365516,"location_subtype":"","month":"2018-04"},{"category":"possession-of-weapons","location_type":"Force","location":{"latitude":"51.535222","street":{"id":965672,"name":"On or near Buckingham Mews"},"longitude":"-0.244688"},"context":"","outcome_status":{"category":"Awaiting court outcome","date":"2018-05"},"persistent_id":"56421389b66e567311bcff11ad335be5eb4ecad29bab5b75edd18191fd9ae57c","id":64376233,"location_subtype":"","month":"2018-04"},{"category":"possession-of-weapons","location_type":"Force","location":{"latitude":"51.534745","street":{"id":965652,"name":"On or near Wendover Road"},"longitude":"-0.245874"},"context":"","outcome_status":{"category":"Awaiting court outcome","date":"2018-05"},"persistent_id":"4325cd65ab151794a698dfd09cf8f33145aff0f8c08fa220f6413df6ade609a2","id":64329627,"location_subtype":"","month":"2018-04"},{"category":"public-order","location_type":"Force","location":{"latitude":"51.537987","street":{"id":965577,"name":"On or near Harlesden Gardens"},"longitude":"-0.244409"},"context":"","outcome_status":{"category":"Under investigation","date":"2018-04"},"persistent_id":"1dd2456d3591a8f8b7f4c61777919cc986806e8a098cdabe76bf485ee55adb76","id":64361155,"location_subtype":"","month":"2018-04"},{"category":"public-order","location_type":"Force","location":{"latitude":"51.537248","street":{"id":965569,"name":"On or near Manor Park Road"},"longitude":"-0.246672"},"context":"","outcome_status":{"category":"Awaiting court outcome","date":"2018-04"},"persistent_id":"331602376e9d684bbcb2339236bc1e9c8de8c0acded65af32b2f2e2acfae3770","id":64382683,"location_subtype":"","month":"2018-04"},{"category":"public-order","location_type":"Force","location":{"latitude":"51.530741","street":{"id":959893,"name":"On or near Mortimer Road"},"longitude":"-0.225368"},"context":"","outcome_status":{"category":"Under investigation","date":"2018-04"},"persistent_id":"43c8184d764b5850ef90c7f1d0cc7980d4c2742d58d4a7dc3379e7cd286170a3","id":64332372,"location_subtype":"","month":"2018-04"},{"category":"public-order","location_type":"Force","location":{"latitude":"51.536996","street":{"id":965563,"name":"On or near Park Parade"},"longitude":"-0.243091"},"context":"","outcome_status":{"category":"Under investigation","date":"2018-04"},"persistent_id":"3a0143e4e2a41ec66a81b96761d54ad24e28e68c04f0fa7741b21d1aaa4eac4b","id":64349106,"location_subtype":"","month":"2018-04"},{"category":"public-order","location_type":"BTP","location":{"latitude":"51.530600","street":{"id":1486486,"name":"Kensal Green (lu Station)"},"longitude":"-0.224708"},"context":"","outcome_status":{"category":"Under investigation","date":"2018-04"},"persistent_id":"","id":66350955,"location_subtype":"STATION","month":"2018-04"},{"category":"public-order","location_type":"BTP","location":{"latitude":"51.532481","street":{"id":1490043,"name":"Willesden Junction (station)"},"longitude":"-0.244794"},"context":"","outcome_status":{"category":"Under investigation","date":"2018-04"},"persistent_id":"","id":66353046,"location_subtype":"STATION","month":"2018-04"},{"category":"public-order","location_type":"BTP","location":{"latitude":"51.530600","street":{"id":1486486,"name":"Kensal Green (lu Station)"},"longitude":"-0.224708"},"context":"","outcome_status":{"category":"Under investigation","date":"2018-04"},"persistent_id":"","id":66350954,"location_subtype":"STATION","month":"2018-04"},{"category":"robbery","location_type":"Force","location":{"latitude":"51.536996","street":{"id":965563,"name":"On or near Park Parade"},"longitude":"-0.243091"},"context":"","outcome_status":{"category":"Under investigation","date":"2018-04"},"persistent_id":"b9b2fb35e77ed21d3fdd5874a1f9bf8ffed2015d4b10b95a0752c924214c3256","id":64362435,"location_subtype":"","month":"2018-04"},{"category":"robbery","location_type":"Force","location":{"latitude":"51.535222","street":{"id":965672,"name":"On or near Buckingham Mews"},"longitude":"-0.244688"},"context":"","outcome_status":{"category":"Under investigation","date":"2018-04"},"persistent_id":"3255d51ebee27ee0fb530f69b0b7b2c7f8f36c0c42c973ddb769a6ec716c42dc","id":64354321,"location_subtype":"","month":"2018-04"},{"category":"robbery","location_type":"Force","location":{"latitude":"51.538770","street":{"id":923829,"name":"On or near Longstone Avenue"},"longitude":"-0.241422"},"context":"","outcome_status":{"category":"Under investigation","date":"2018-04"},"persistent_id":"d4d6836dbb5edc99bd891a21c2fa697fcd126ba170e6c1912a0d5c622e9a3db1","id":64363948,"location_subtype":"","month":"2018-04"},{"category":"robbery","location_type":"Force","location":{"latitude":"51.538770","street":{"id":923829,"name":"On or near Longstone Avenue"},"longitude":"-0.241422"},"context":"","outcome_status":{"category":"Under investigation","date":"2018-04"},"persistent_id":"648740d660abc9d55e0a74c3f72ad364879bc22c4e2468e881e1c0084f799dd5","id":64333001,"location_subtype":"","month":"2018-04"},{"category":"shoplifting","location_type":"Force","location":{"latitude":"51.537248","street":{"id":965569,"name":"On or near Manor Park Road"},"longitude":"-0.246672"},"context":"","outcome_status":{"category":"Investigation complete; no suspect identified","date":"2018-06"},"persistent_id":"8b834979ea3e8155a2a8b96a35355d869594dd9b9effc05a12e0dc6ea58638b1","id":64361140,"location_subtype":"","month":"2018-04"},{"category":"shoplifting","location_type":"Force","location":{"latitude":"51.534207","street":{"id":965654,"name":"On or near Station Road"},"longitude":"-0.247813"},"context":"","outcome_status":{"category":"Under investigation","date":"2018-04"},"persistent_id":"9fc0e41117136111fd2187298987123bdaec58e1d55122bb31406e11c499c157","id":64349488,"location_subtype":"","month":"2018-04"},{"category":"shoplifting","location_type":"Force","location":{"latitude":"51.537248","street":{"id":965569,"name":"On or near Manor Park Road"},"longitude":"-0.246672"},"context":"","outcome_status":{"category":"Under investigation","date":"2018-04"},"persistent_id":"c4665f3ec245a7f3ff8bad50bb79a96d517fc8651a11f52197d70931904adfd5","id":64384272,"location_subtype":"","month":"2018-04"},{"category":"shoplifting","location_type":"Force","location":{"latitude":"51.535222","street":{"id":965672,"name":"On or near Buckingham Mews"},"longitude":"-0.244688"},"context":"","outcome_status":{"category":"Investigation complete; no suspect identified","date":"2018-04"},"persistent_id":"ec960143d2bca998b6ca4f85c515e08d8be682a880c38899cc3cad7941be4eb7","id":64383627,"location_subtype":"","month":"2018-04"},{"category":"shoplifting","location_type":"Force","location":{"latitude":"51.534207","street":{"id":965654,"name":"On or near Station Road"},"longitude":"-0.247813"},"context":"","outcome_status":{"category":"Offender given penalty notice","date":"2018-04"},"persistent_id":"8305fdd2f4de34b70ad79e653be45264b7a8948e58ada4b59a2fa7e76d92f101","id":64337860,"location_subtype":"","month":"2018-04"},{"category":"theft-from-the-person","location_type":"Force","location":{"latitude":"51.530741","street":{"id":959893,"name":"On or near Mortimer Road"},"longitude":"-0.225368"},"context":"","outcome_status":{"category":"Under investigation","date":"2018-04"},"persistent_id":"b32d7f2faf54bd0d5874d0ce2391e5609b9f77ae32d7916c4bf70db269e27ab0","id":64369285,"location_subtype":"","month":"2018-04"},{"category":"theft-from-the-person","location_type":"Force","location":{"latitude":"51.534948","street":{"id":965659,"name":"On or near High Street Harlesden"},"longitude":"-0.243214"},"context":"","outcome_status":{"category":"Investigation complete; no suspect identified","date":"2018-06"},"persistent_id":"725952bca9072c70377ef50a003b7699127d42e36e038a07c28be8e2ea08f1e3","id":64387773,"location_subtype":"","month":"2018-04"},{"category":"theft-from-the-person","location_type":"Force","location":{"latitude":"51.534948","street":{"id":965659,"name":"On or near High Street Harlesden"},"longitude":"-0.243214"},"context":"","outcome_status":{"category":"Under investigation","date":"2018-04"},"persistent_id":"a12bc7a2878d9d30005ad95af73ca0aa0177e0c7a26fe15719fcb428d04c18e5","id":64363450,"location_subtype":"","month":"2018-04"},{"category":"theft-from-the-person","location_type":"Force","location":{"latitude":"51.536996","street":{"id":965563,"name":"On or near Park Parade"},"longitude":"-0.243091"},"context":"","outcome_status":{"category":"Investigation complete; no suspect identified","date":"2018-05"},"persistent_id":"c0003d8bc7fe37a28e86c81eb92ad32dec9d1bdb2ff2a2e92da978eef53a4671","id":64348120,"location_subtype":"","month":"2018-04"},{"category":"theft-from-the-person","location_type":"Force","location":{"latitude":"51.537248","street":{"id":965569,"name":"On or near Manor Park Road"},"longitude":"-0.246672"},"context":"","outcome_status":{"category":"Investigation complete; no suspect identified","date":"2018-04"},"persistent_id":"d399d02d7308b2e9d2e9a38bcae3e672fe95e5a7f358188096f921e09b147f49","id":64334414,"location_subtype":"","month":"2018-04"},{"category":"vehicle-crime","location_type":"Force","location":{"latitude":"51.537541","street":{"id":965631,"name":"On or near Doyle Gardens"},"longitude":"-0.232645"},"context":"","outcome_status":{"category":"Under investigation","date":"2018-04"},"persistent_id":"2eb5acb540917b968cf627faa40b5f9440abfc3d4a8371b92f28ae36f13164b8","id":64379244,"location_subtype":"","month":"2018-04"},{"category":"vehicle-crime","location_type":"Force","location":{"latitude":"51.535354","street":{"id":965649,"name":"On or near Ancona Road"},"longitude":"-0.239694"},"context":"","outcome_status":{"category":"Under investigation","date":"2018-04"},"persistent_id":"cad602ee16dd80a59e61e6f76cae99c0db51a7fc458f969b4fceba54c9a91a67","id":64381590,"location_subtype":"","month":"2018-04"},{"category":"vehicle-crime","location_type":"Force","location":{"latitude":"51.532123","street":{"id":959797,"name":"On or near Napier Road"},"longitude":"-0.231730"},"context":"","outcome_status":{"category":"Under investigation","date":"2018-04"},"persistent_id":"8d17e68366781e82fffe59377c3931a4a8858b2a3755340dd89c2e35737b243f","id":64382141,"location_subtype":"","month":"2018-04"},{"category":"vehicle-crime","location_type":"Force","location":{"latitude":"51.533098","street":{"id":959810,"name":"On or near Tubbs Road"},"longitude":"-0.243977"},"context":"","outcome_status":{"category":"Under investigation","date":"2018-04"},"persistent_id":"f0adf2362b7ef06ef8c52f3f374b29dd71ef676312ca5e4b6f22eb0746933ea7","id":64382551,"location_subtype":"","month":"2018-04"},{"category":"vehicle-crime","location_type":"Force","location":{"latitude":"51.531553","street":{"id":959896,"name":"On or near Greyhound Road"},"longitude":"-0.228566"},"context":"","outcome_status":{"category":"Under investigation","date":"2018-04"},"persistent_id":"4ca5ca5d45797c91a5c4d4f4f792f3c5901090b28038562e990b00c89dd6f142","id":64364826,"location_subtype":"","month":"2018-04"},{"category":"vehicle-crime","location_type":"Force","location":{"latitude":"51.536295","street":{"id":965615,"name":"On or near Ridley Road"},"longitude":"-0.237091"},"context":"","outcome_status":{"category":"Under investigation","date":"2018-04"},"persistent_id":"8703b5e279f03694dce601a98e148f022b1fab74e5eceb15572811a0a8b8a166","id":64366919,"location_subtype":"","month":"2018-04"},{"category":"vehicle-crime","location_type":"Force","location":{"latitude":"51.535388","street":{"id":965648,"name":"On or near Furness Road"},"longitude":"-0.236593"},"context":"","outcome_status":{"category":"Under investigation","date":"2018-04"},"persistent_id":"108752e1727b205c57d142c6957c397085332d498108a910c026501145d44fd9","id":64367191,"location_subtype":"","month":"2018-04"},{"category":"vehicle-crime","location_type":"Force","location":{"latitude":"51.537987","street":{"id":965577,"name":"On or near Harlesden Gardens"},"longitude":"-0.244409"},"context":"","outcome_status":{"category":"Under investigation","date":"2018-04"},"persistent_id":"b717a4db432a5625c03114eeed0d1a9f59edac204499f15bef57693ebe19728c","id":64362039,"location_subtype":"","month":"2018-04"},{"category":"vehicle-crime","location_type":"Force","location":{"latitude":"51.530631","street":{"id":959895,"name":"On or near Hazel Road"},"longitude":"-0.227059"},"context":"","outcome_status":{"category":"Under investigation","date":"2018-04"},"persistent_id":"1cb7ceaf1d2a93a0ec719cd6b4e1bd69d75e35ed6bcf5c2a39c079e7f1ea678e","id":64373992,"location_subtype":"","month":"2018-04"},{"category":"vehicle-crime","location_type":"Force","location":{"latitude":"51.535227","street":{"id":965650,"name":"On or near All Souls Avenue"},"longitude":"-0.231898"},"context":"","outcome_status":{"category":"Under investigation","date":"2018-04"},"persistent_id":"3c438f17234b81cccd895277a55fce2f7fbf326fbb2d5d03ae0f53768672d6da","id":64335536,"location_subtype":"","month":"2018-04"},{"category":"vehicle-crime","location_type":"Force","location":{"latitude":"51.534207","street":{"id":965654,"name":"On or near Station Road"},"longitude":"-0.247813"},"context":"","outcome_status":{"category":"Under investigation","date":"2018-04"},"persistent_id":"8e2f13d80791346b4ff416cb39b5dddc84fecf999204f14959c187a6ac8b8206","id":64375129,"location_subtype":"","month":"2018-04"},{"category":"vehicle-crime","location_type":"Force","location":{"latitude":"51.531610","street":{"id":959897,"name":"On or near Felixstowe Road"},"longitude":"-0.229342"},"context":"","outcome_status":{"category":"Under investigation","date":"2018-04"},"persistent_id":"e17d641827adbd5a4c267a16aee34b43e127fdd3b74d07c715c038c90bd8a688","id":64362258,"location_subtype":"","month":"2018-04"},{"category":"violent-crime","location_type":"Force","location":{"latitude":"51.535354","street":{"id":965649,"name":"On or near Ancona Road"},"longitude":"-0.239694"},"context":"","outcome_status":{"category":"Under investigation","date":"2018-04"},"persistent_id":"42f84440c9ba012ec7fe239418340b559f48c10b3e6e168c915332934bff8638","id":64339432,"location_subtype":"","month":"2018-04"},{"category":"violent-crime","location_type":"Force","location":{"latitude":"51.532666","street":{"id":959804,"name":"On or near Harrow Road"},"longitude":"-0.234362"},"context":"","outcome_status":{"category":"Under investigation","date":"2018-04"},"persistent_id":"73d8973a52d9ce56b3331308ccdf9816d039dfc95da7e95201a069071d6f8e20","id":64344106,"location_subtype":"","month":"2018-04"},{"category":"violent-crime","location_type":"Force","location":{"latitude":"51.534266","street":{"id":965542,"name":"On or near Buchanan Gardens"},"longitude":"-0.229571"},"context":"","outcome_status":{"category":"Investigation complete; no suspect identified","date":"2018-05"},"persistent_id":"fb2312e3ea03bd9d55933defc7b201f61e665f35a6dbfa6201a1331fabb487fb","id":64347973,"location_subtype":"","month":"2018-04"},{"category":"violent-crime","location_type":"Force","location":{"latitude":"51.531676","street":{"id":959891,"name":"On or near Ravensworth Road"},"longitude":"-0.230118"},"context":"","outcome_status":{"category":"Investigation complete; no suspect identified","date":"2018-04"},"persistent_id":"01a65c322bb408ef83eb5b04ef447f083d032e8f74fe72b28c6c3bd5ea236e94","id":64348152,"location_subtype":"","month":"2018-04"},{"category":"violent-crime","location_type":"Force","location":{"latitude":"51.535222","street":{"id":965672,"name":"On or near Buckingham Mews"},"longitude":"-0.244688"},"context":"","outcome_status":{"category":"Investigation complete; no suspect identified","date":"2018-05"},"persistent_id":"896bf4579872bbea71770a50aec2ce46ede98757cf3d748889df5a8710a7347d","id":64348960,"location_subtype":"","month":"2018-04"},{"category":"violent-crime","location_type":"Force","location":{"latitude":"51.534926","street":{"id":965661,"name":"On or near Buckingham Road"},"longitude":"-0.244757"},"context":"","outcome_status":{"category":"Under investigation","date":"2018-04"},"persistent_id":"1845aa4d24bed94d95151b885961d02f3960c180dde404f288bb5ed14e5e181e","id":64349801,"location_subtype":"","month":"2018-04"},{"category":"violent-crime","location_type":"Force","location":{"latitude":"51.532927","street":{"id":959819,"name":"On or near Clifton Road"},"longitude":"-0.241576"},"context":"","outcome_status":{"category":"Under investigation","date":"2018-04"},"persistent_id":"ba6be87ea68e998d0a6cbcfbc1390d90382dad0c70ea16484769418ca223edf2","id":64350268,"location_subtype":"","month":"2018-04"},{"category":"violent-crime","location_type":"Force","location":{"latitude":"51.536702","street":{"id":965635,"name":"On or near Cardinal Hinsley Close"},"longitude":"-0.239671"},"context":"","outcome_status":{"category":"Under investigation","date":"2018-04"},"persistent_id":"44a721c9a77e5b59b9be5114644982a75651ec94d224c175eea8e35e4f6a8b1e","id":64350287,"location_subtype":"","month":"2018-04"},{"category":"violent-crime","location_type":"Force","location":{"latitude":"51.532927","street":{"id":959819,"name":"On or near Clifton Road"},"longitude":"-0.241576"},"context":"","outcome_status":{"category":"Under investigation","date":"2018-04"},"persistent_id":"a399d7dc047b056be1e12b714df5fd4cc8b9d1779554a6308973980ae34ec2f6","id":64353742,"location_subtype":"","month":"2018-04"},{"category":"violent-crime","location_type":"Force","location":{"latitude":"51.534207","street":{"id":965654,"name":"On or near Station Road"},"longitude":"-0.247813"},"context":"","outcome_status":{"category":"Offender given a caution","date":"2018-04"},"persistent_id":"f8968469457ee8c92ec47edce0ffeef5000f628b2d67529445b7d414f5664130","id":64354690,"location_subtype":"","month":"2018-04"},{"category":"violent-crime","location_type":"Force","location":{"latitude":"51.537847","street":{"id":965558,"name":"On or near Springwell Avenue"},"longitude":"-0.242222"},"context":"","outcome_status":{"category":"Under investigation","date":"2018-04"},"persistent_id":"1152c07144cb89cd728c62c4b7db6b6de8dc4ab6c75c23f45882f4aa67b04142","id":64356815,"location_subtype":"","month":"2018-04"},{"category":"violent-crime","location_type":"Force","location":{"latitude":"51.535420","street":{"id":965665,"name":"On or near Parking Area"},"longitude":"-0.246526"},"context":"","outcome_status":{"category":"Investigation complete; no suspect identified","date":"2018-04"},"persistent_id":"bfc7f3878027658d3c1eb2b00a9b1d2f2cf7d4411725172c7f8d6f2bb8a5fef0","id":64357317,"location_subtype":"","month":"2018-04"},{"category":"violent-crime","location_type":"Force","location":{"latitude":"51.532927","street":{"id":959819,"name":"On or near Clifton Road"},"longitude":"-0.241576"},"context":"","outcome_status":{"category":"Under investigation","date":"2018-04"},"persistent_id":"4905e985c25292a4e9efb85299e7b9c55c3aff0be79c23f9ceda8757fe8ce912","id":64359768,"location_subtype":"","month":"2018-04"},{"category":"violent-crime","location_type":"Force","location":{"latitude":"51.538543","street":{"id":965608,"name":"On or near Parking Area"},"longitude":"-0.234106"},"context":"","outcome_status":{"category":"Local resolution","date":"2018-06"},"persistent_id":"ca7fee7a86deb424dd1c1e444ad52e49b95b0a599e3fce95ff229e45243347c0","id":64361001,"location_subtype":"","month":"2018-04"},{"category":"violent-crime","location_type":"Force","location":{"latitude":"51.532927","street":{"id":959819,"name":"On or near Clifton Road"},"longitude":"-0.241576"},"context":"","outcome_status":{"category":"Under investigation","date":"2018-04"},"persistent_id":"61ad50fb5f6cf5498b90f377f566b56425bb9ed2850e018d5589dd75d68ee4bf","id":64361696,"location_subtype":"","month":"2018-04"},{"category":"violent-crime","location_type":"Force","location":{"latitude":"51.530741","street":{"id":959893,"name":"On or near Mortimer Road"},"longitude":"-0.225368"},"context":"","outcome_status":{"category":"Under investigation","date":"2018-04"},"persistent_id":"1822a080a7d6b59ed55c5e828cd3643724a2ac01074762bd7495b62071af153c","id":64362667,"location_subtype":"","month":"2018-04"},{"category":"violent-crime","location_type":"Force","location":{"latitude":"51.538770","street":{"id":923829,"name":"On or near Longstone Avenue"},"longitude":"-0.241422"},"context":"","outcome_status":{"category":"Under investigation","date":"2018-04"},"persistent_id":"62cfc0c04dfdb3dfeea2b57757114bc4b0d9ece762066a44b2c20d100edbcd21","id":64363511,"location_subtype":"","month":"2018-04"},{"category":"violent-crime","location_type":"Force","location":{"latitude":"51.533696","street":{"id":965541,"name":"On or near College Road"},"longitude":"-0.225787"},"context":"","outcome_status":{"category":"Investigation complete; no suspect identified","date":"2018-06"},"persistent_id":"118570f16534529d9c5fc7014e102625b23cc72e95c09064f9aa935063726658","id":64326988,"location_subtype":"","month":"2018-04"},{"category":"violent-crime","location_type":"Force","location":{"latitude":"51.535388","street":{"id":965648,"name":"On or near Furness Road"},"longitude":"-0.236593"},"context":"","outcome_status":{"category":"Offender given a caution","date":"2018-05"},"persistent_id":"eb27b92ba3d591773438c6b1c93347a1a70264ceb5b511fed02ea4050829e28e","id":64375312,"location_subtype":"","month":"2018-04"},{"category":"violent-crime","location_type":"Force","location":{"latitude":"51.536795","street":{"id":965636,"name":"On or near Bramston Road"},"longitude":"-0.238067"},"context":"","outcome_status":{"category":"Under investigation","date":"2018-04"},"persistent_id":"46242e6c32d1d69654eb3f89726637303b85da077dafcb2d894f9ecb687c57a5","id":64377455,"location_subtype":"","month":"2018-04"},{"category":"violent-crime","location_type":"Force","location":{"latitude":"51.532927","street":{"id":959819,"name":"On or near Clifton Road"},"longitude":"-0.241576"},"context":"","outcome_status":{"category":"Under investigation","date":"2018-04"},"persistent_id":"9a290cfc8ac03891fdb68eee8ce310130b92d05484f32717651fb3e82e31cfce","id":64383161,"location_subtype":"","month":"2018-04"},{"category":"violent-crime","location_type":"Force","location":{"latitude":"51.531939","street":{"id":959803,"name":"On or near Harrow Road"},"longitude":"-0.232689"},"context":"","outcome_status":{"category":"Awaiting court outcome","date":"2018-04"},"persistent_id":"1e36ad7618ee43fb4fbf1ea348cbe4bec13cfd734aaec5890039f06026ed122e","id":64354369,"location_subtype":"","month":"2018-04"},{"category":"violent-crime","location_type":"Force","location":{"latitude":"51.534774","street":{"id":965642,"name":"On or near Lushington Road"},"longitude":"-0.234036"},"context":"","outcome_status":{"category":"Investigation complete; no suspect identified","date":"2018-04"},"persistent_id":"cdf7e22ad27c390bd99045cfce54e3ab89d18df4438760e06cd6559684f8828e","id":64335667,"location_subtype":"","month":"2018-04"},{"category":"violent-crime","location_type":"Force","location":{"latitude":"51.537847","street":{"id":965558,"name":"On or near Springwell Avenue"},"longitude":"-0.242222"},"context":"","outcome_status":{"category":"Investigation complete; no suspect identified","date":"2018-05"},"persistent_id":"be1c58dd16db0edfe4e3d156f4b8590c09655766d7311819f18a3832a277a983","id":64376123,"location_subtype":"","month":"2018-04"},{"category":"violent-crime","location_type":"Force","location":{"latitude":"51.535041","street":{"id":965655,"name":"On or near Rucklidge Avenue"},"longitude":"-0.242201"},"context":"","outcome_status":{"category":"Under investigation","date":"2018-04"},"persistent_id":"3d7da86e40a3186f2e22f6677101b3c24a1d99c7e0753ce5c2808f9fb254c379","id":64335857,"location_subtype":"","month":"2018-04"},{"category":"violent-crime","location_type":"Force","location":{"latitude":"51.532123","street":{"id":959797,"name":"On or near Napier Road"},"longitude":"-0.231730"},"context":"","outcome_status":{"category":"Investigation complete; no suspect identified","date":"2018-04"},"persistent_id":"05a879e92594747a122ca690599a387d8e76db9359f333423801c038ffff0a65","id":64372280,"location_subtype":"","month":"2018-04"},{"category":"violent-crime","location_type":"Force","location":{"latitude":"51.532590","street":{"id":959806,"name":"On or near Brunel Court"},"longitude":"-0.236528"},"context":"","outcome_status":{"category":"Under investigation","date":"2018-04"},"persistent_id":"8e6fca096bfbd3ba24bd1fb1c081de4abff9721f99424d04b507bea2b22434bc","id":64372931,"location_subtype":"","month":"2018-04"},{"category":"violent-crime","location_type":"Force","location":{"latitude":"51.532927","street":{"id":959819,"name":"On or near Clifton Road"},"longitude":"-0.241576"},"context":"","outcome_status":{"category":"Investigation complete; no suspect identified","date":"2018-05"},"persistent_id":"c6fb314b61f2bbfcc2f80c55977a7757128daf7232c7f7603a3d45f2176ef950","id":64369517,"location_subtype":"","month":"2018-04"},{"category":"violent-crime","location_type":"Force","location":{"latitude":"51.534926","street":{"id":965661,"name":"On or near Buckingham Road"},"longitude":"-0.244757"},"context":"","outcome_status":{"category":"Investigation complete; no suspect identified","date":"2018-04"},"persistent_id":"8a9b6e1a10fa56f4039ba6c26146f4cc9d58421e5eb957ae73b5a329977adcae","id":64329815,"location_subtype":"","month":"2018-04"},{"category":"violent-crime","location_type":"Force","location":{"latitude":"51.534948","street":{"id":965659,"name":"On or near High Street Harlesden"},"longitude":"-0.243214"},"context":"","outcome_status":{"category":"Under investigation","date":"2018-04"},"persistent_id":"718896e58eca025a18d2d78353a393f2d0c1e714c6f66085f5725585553afeb4","id":64325750,"location_subtype":"","month":"2018-04"},{"category":"violent-crime","location_type":"Force","location":{"latitude":"51.535258","street":{"id":965645,"name":"On or near Monson Road"},"longitude":"-0.235098"},"context":"","outcome_status":{"category":"Under investigation","date":"2018-04"},"persistent_id":"351946b3e2773586f05b5c261d741416f78114f1623d9d37ad610e553c2562ed","id":64330407,"location_subtype":"","month":"2018-04"},{"category":"violent-crime","location_type":"Force","location":{"latitude":"51.531553","street":{"id":959896,"name":"On or near Greyhound Road"},"longitude":"-0.228566"},"context":"","outcome_status":{"category":"Under investigation","date":"2018-04"},"persistent_id":"b636243dbc16b425803e850a87983dacc42e1e19e770177d10501447c5ca23f7","id":64333172,"location_subtype":"","month":"2018-04"},{"category":"violent-crime","location_type":"Force","location":{"latitude":"51.537987","street":{"id":965577,"name":"On or near Harlesden Gardens"},"longitude":"-0.244409"},"context":"","outcome_status":{"category":"Under investigation","date":"2018-04"},"persistent_id":"9a15dcaba9f523e482a8be6a1a00f3f735eb05382bdc5ddb9b2b688d3385310a","id":64333883,"location_subtype":"","month":"2018-04"},{"category":"violent-crime","location_type":"Force","location":{"latitude":"51.530741","street":{"id":959893,"name":"On or near Mortimer Road"},"longitude":"-0.225368"},"context":"","outcome_status":{"category":"Under investigation","date":"2018-04"},"persistent_id":"95e19f1ceb94bd334bfd7a355412440d567f7c428da594a9a3625dd0a5c1570a","id":64335975,"location_subtype":"","month":"2018-04"},{"category":"violent-crime","location_type":"Force","location":{"latitude":"51.535041","street":{"id":965655,"name":"On or near Rucklidge Avenue"},"longitude":"-0.242201"},"context":"","outcome_status":{"category":"Offender given a caution","date":"2018-04"},"persistent_id":"dd4535bf934921336b658298827e547fe235516b7d390d6ca241854a74009ade","id":64336196,"location_subtype":"","month":"2018-04"},{"category":"violent-crime","location_type":"Force","location":{"latitude":"51.537847","street":{"id":965558,"name":"On or near Springwell Avenue"},"longitude":"-0.242222"},"context":"","outcome_status":{"category":"Under investigation","date":"2018-04"},"persistent_id":"6147129f2fb1a8545faad48bac7da188f55fde76fe1b56b717168f63bf88a3e9","id":64336407,"location_subtype":"","month":"2018-04"},{"category":"violent-crime","location_type":"Force","location":{"latitude":"51.531673","street":{"id":959894,"name":"On or near Hiley Road"},"longitude":"-0.226370"},"context":"","outcome_status":{"category":"Offender given a caution","date":"2018-04"},"persistent_id":"2ac5f851844612f5157a57dc89c9f45a254abee695894a237bb48b6390ae33d5","id":64337327,"location_subtype":"","month":"2018-04"},{"category":"violent-crime","location_type":"Force","location":{"latitude":"51.538374","street":{"id":965560,"name":"On or near Sellons Avenue"},"longitude":"-0.243240"},"context":"","outcome_status":{"category":"Under investigation","date":"2018-04"},"persistent_id":"a658cafdb83f692707d0b1edcffa3a454c53abd1e9b7a972db7489b0509cc251","id":64338084,"location_subtype":"","month":"2018-04"},{"category":"violent-crime","location_type":"Force","location":{"latitude":"51.535354","street":{"id":965649,"name":"On or near Ancona Road"},"longitude":"-0.239694"},"context":"","outcome_status":{"category":"Investigation complete; no suspect identified","date":"2018-05"},"persistent_id":"42f84440c9ba012ec7fe239418340b559f48c10b3e6e168c915332934bff8638","id":64339800,"location_subtype":"","month":"2018-04"},{"category":"violent-crime","location_type":"Force","location":{"latitude":"51.531939","street":{"id":959803,"name":"On or near Harrow Road"},"longitude":"-0.232689"},"context":"","outcome_status":{"category":"Under investigation","date":"2018-04"},"persistent_id":"9c7055cb16ee4054ac54d27ff44214f1a2b1a6613d8b42576824eb8c96fa1dde","id":64327500,"location_subtype":"","month":"2018-04"},{"category":"violent-crime","location_type":"Force","location":{"latitude":"51.531676","street":{"id":959891,"name":"On or near Ravensworth Road"},"longitude":"-0.230118"},"context":"","outcome_status":{"category":"Under investigation","date":"2018-04"},"persistent_id":"64184bf3962c444bc191a0c8704bc60e258ff56418379d27810307d7806619b0","id":64361267,"location_subtype":"","month":"2018-04"},{"category":"violent-crime","location_type":"Force","location":{"latitude":"51.535041","street":{"id":965655,"name":"On or near Rucklidge Avenue"},"longitude":"-0.242201"},"context":"","outcome_status":{"category":"Investigation complete; no suspect identified","date":"2018-05"},"persistent_id":"47d80cc3f1098517333831e1941b87a77c142ed6695d0bc4b2f2f4a1f922b34e","id":64358061,"location_subtype":"","month":"2018-04"},{"category":"violent-crime","location_type":"BTP","location":{"latitude":"51.532481","street":{"id":1490043,"name":"Willesden Junction (station)"},"longitude":"-0.244794"},"context":"","outcome_status":{"category":"Under investigation","date":"2018-04"},"persistent_id":"","id":66353045,"location_subtype":"STATION","month":"2018-04"},{"category":"violent-crime","location_type":"Force","location":{"latitude":"51.536996","street":{"id":965563,"name":"On or near Park Parade"},"longitude":"-0.243091"},"context":"","outcome_status":{"category":"Investigation complete; no suspect identified","date":"2018-05"},"persistent_id":"031c149ef00a0ca95114a2abb867126f65138e4b55e79d4da1c9ac2356f72e05","id":64335899,"location_subtype":"","month":"2018-04"},{"category":"other-crime","location_type":"Force","location":{"latitude":"51.536425","street":{"id":965591,"name":"On or near Cholmondeley Avenue"},"longitude":"-0.241556"},"context":"","outcome_status":{"category":"Investigation complete; no suspect identified","date":"2018-05"},"persistent_id":"3abba6a9807a0e68bda0b25a70440dcea27464e9528aa114a566abd71dc45b4f","id":64360879,"location_subtype":"","month":"2018-04"}]