[{"category":"anti-social-behaviour","location_type":"Force","location":{"latitude":"51.477935","street":{"id":944388,"name":"On or near Shenley Road"},"longitude":"-0.384500"},"context":"","outcome_status":null,"persistent_id":"","id":63266391,"location_subtype":"","month":"2018-02"},{"category":"anti-social-behaviour","location_type":"Force","location":{"latitude":"51.474505","street":{"id":944399,"name":"On or near Dalcross Road"},"longitude":"-0.387444"},"context":"","outcome_status":null,"persistent_id":"","id":63266397,"location_subtype":"","month":"2018-02"},{"category":"anti-social-behaviour","location_type":"Force","location":{"latitude":"51.475002","street":{"id":944434,"name":"On or near Bath Road"},"longitude":"-0.393503"},"context":"","outcome_status":null,"persistent_id":"","id":63267149,"location_subtype":"","month":"2018-02"},{"category":"anti-social-behaviour","location_type":"Force","location":{"latitude":"51.475002","street":{"id":944434,"name":"On or near Bath Road"},"longitude":"-0.393503"},"context":"","outcome_status":null,"persistent_id":"","id":63267150,"location_subtype":"","month":"2018-02"},{"category":"anti-social-behaviour","location_type":"Force","location":{"latitude":"51.475002","street":{"id":944434,"name":"On or near Bath Road"},"longitude":"-0.393503"},"context":"","outcome_status":null,"persistent_id":"","id":63267151,"location_subtype":"","month":"2018-02"},{"category":"anti-social-behaviour","location_type":"Force","location":{"latitude":"51.475002","street":{"id":944434,"name":"On or near Bath Road"},"longitude":"-0.393503"},"context":"","outcome_status":null,"persistent_id":"","id":63267152,"location_subtype":"","month":"2018-02"},{"category":"anti-social-behaviour","location_type":"Force","location":{"latitude":"51.475002","street":{"id":944434,"name":"On or near Bath Road"},"longitude":"-0.393503"},"context":"","outcome_status":null,"persistent_id":"","id":63267153,"location_subtype":"","month":"2018-02"},{"category":"anti-social-behaviour","location_type":"Force","location":{"latitude":"51.475002","street":{"id":944434,"name":"On or near Bath Road"},"longitude":"-0.393503"},"context":"","outcome_status":null,"persistent_id":"","id":63267155,"location_subtype":"","month":"2018-02"},{"category":"anti-social-behaviour","location_type":"Force","location":{"latitude":"51.475002","street":{"id":944434,"name":"On or near Bath Road"},"longitude":"-0.393503"},"context":"","outcome_status":null,"persistent_id":"","id":63267154,"location_subtype":"","month":"2018-02"},{"category":"anti-social-behaviour","location_type":"Force","location":{"latitude":"51.473895","street":{"id":944533,"name":"On or near Harte Road"},"longitude":"-0.375183"},"context":"","outcome_status":null,"persistent_id":"","id":63266325,"location_subtype":"","month":"2018-02"},{"category":"anti-social-behaviour","location_type":"Force","location":{"latitude":"51.481266","street":{"id":944529,"name":"On or near Old Park Mews"},"longitude":"-0.374978"},"context":"","outcome_status":null,"persistent_id":"","id":63266338,"location_subtype":"","month":"2018-02"},{"category":"anti-social-behaviour","location_type":"Force","location":{"latitude":"51.484936","street":{"id":951075,"name":"On or near Heston Road"},"longitude":"-0.373120"},"context":"","outcome_status":null,"persistent_id":"","id":63266332,"location_subtype":"","month":"2018-02"},{"category":"anti-social-behaviour","location_type":"Force","location":{"latitude":"51.481266","street":{"id":944529,"name":"On or near Old Park Mews"},"longitude":"-0.374978"},"context":"","outcome_status":null,"persistent_id":"","id":63266336,"location_subtype":"","month":"2018-02"},{"category":"anti-social-behaviour","location_type":"Force","location":{"latitude":"51.481266","street":{"id":944529,"name":"On or near Old Park Mews"},"longitude":"-0.374978"},"context":"","outcome_status":null,"persistent_id":"","id":63266337,"location_subtype":"","month":"2018-02"},{"category":"anti-social-behaviour","location_type":"Force","location":{"latitude":"51.481266","street":{"id":944529,"name":"On or near Old Park Mews"},"longitude":"-0.374978"},"context":"","outcome_status":null,"persistent_id":"","id":63266339,"location_subtype":"","month":"2018-02"},{"category":"anti-social-behaviour","location_type":"Force","location":{"latitude":"51.481266","street":{"id":944529,"name":"On or near Old Park Mews"},"longitude":"-0.374978"},"context":"","outcome_status":null,"persistent_id":"","id":63266340,"location_subtype":"","month":"2018-02"},{"category":"anti-social-behaviour","location_type":"Force","location":{"latitude":"51.481266","street":{"id":944529,"name":"On or near Old Park Mews"},"longitude":"-0.374978"},"context":"","outcome_status":null,"persistent_id":"","id":63266341,"location_subtype":"","month":"2018-02"},{"category":"anti-social-behaviour","location_type":"Force","location":{"latitude":"51.481266","street":{"id":944529,"name":"On or near Old Park Mews"},"longitude":"-0.374978"},"context":"","outcome_status":null,"persistent_id":"","id":63266342,"location_subtype":"","month":"2018-02"},{"category":"anti-social-behaviour","location_type":"Force","location":{"latitude":"51.476696","street":{"id":944537,"name":"On or near Great West Road"},"longitude":"-0.380080"},"context":"","outcome_status":null,"persistent_id":"","id":63266349,"location_subtype":"","month":"2018-02"},{"category":"anti-social-behaviour","location_type":"Force","location":{"latitude":"51.482601","street":{"id":944394,"name":"On or near Orchard Avenue"},"longitude":"-0.383082"},"context":"","outcome_status":null,"persistent_id":"","id":63266376,"location_subtype":"","month":"2018-02"},{"category":"anti-social-behaviour","location_type":"Force","location":{"latitude":"51.483589","street":{"id":951113,"name":"On or near Cranford Lane"},"longitude":"-0.384977"},"context":"","outcome_status":null,"persistent_id":"","id":63266381,"location_subtype":"","month":"2018-02"},{"category":"anti-social-behaviour","location_type":"Force","location":{"latitude":"51.472603","street":{"id":944476,"name":"On or near Bath Road"},"longitude":"-0.385178"},"context":"","outcome_status":null,"persistent_id":"","id":63266386,"location_subtype":"","month":"2018-02"},{"category":"anti-social-behaviour","location_type":"Force","location":{"latitude":"51.472603","street":{"id":944476,"name":"On or near Bath Road"},"longitude":"-0.385178"},"context":"","outcome_status":null,"persistent_id":"","id":63266387,"location_subtype":"","month":"2018-02"},{"category":"anti-social-behaviour","location_type":"Force","location":{"latitude":"51.472603","street":{"id":944476,"name":"On or near Bath Road"},"longitude":"-0.385178"},"context":"","outcome_status":null,"persistent_id":"","id":63266388,"location_subtype":"","month":"2018-02"},{"category":"burglary","location_type":"Force","location":{"latitude":"51.482833","street":{"id":951071,"name":"On or near The Warren"},"longitude":"-0.379704"},"context":"","outcome_status":{"category":"Investigation complete; no suspect identified","date":"2018-03"},"persistent_id":"cadd5caf143401335995240ebb3f6e23fce4c3251b89cfea04178427ea281fe3","id":63324355,"location_subtype":"","month":"2018-02"},{"category":"burglary","location_type":"Force","location":{"latitude":"51.474369","street":{"id":944513,"name":"On or near Wesley Avenue"},"longitude":"-0.380234"},"context":"","outcome_status":{"category":"Investigation complete; no suspect identified","date":"2018-02"},"persistent_id":"8f991cbdd3746169121cc99298b4214ba72ec58e2cd51c807d4ee0e6b034c590","id":63298842,"location_subtype":"","month":"2018-02"},{"category":"burglary","location_type":"Force","location":{"latitude":"51.474993","street":{"id":923555,"name":"On or near Petrol Station"},"longitude":"-0.392207"},"context":"","outcome_status":{"category":"Status update unavailable","date":"2018-06"},"persistent_id":"3a3b5439c7fc81dda8327885ab1699dcf3619e845ebf631ebc23d0df63f6c050","id":63333956,"location_subtype":"","month":"2018-02"},{"category":"burglary","location_type":"Force","location":{"latitude":"51.475017","street":{"id":944530,"name":"On or near Moulton Avenue"},"longitude":"-0.380269"},"context":"","outcome_status":{"category":"Status update unavailable","date":"2018-06"},"persistent_id":"9ac84ba767d31dc96bf88b7d455d0ee21f4c31e385c10ec78cd70597a71e95d9","id":63309970,"location_subtype":"","month":"2018-02"},{"category":"burglary","location_type":"Force","location":{"latitude":"51.475029","street":{"id":944425,"name":"On or near Hurn Court Road"},"longitude":"-0.390248"},"context":"","outcome_status":{"category":"Investigation complete; no suspect identified","date":"2018-03"},"persistent_id":"baf25895f812433adcdfd1c5e7be4e6de7e169b9e7a173077f7819b018ce7c52","id":63332834,"location_subtype":"","month":"2018-02"},{"category":"burglary","location_type":"Force","location":{"latitude":"51.476938","street":{"id":944403,"name":"On or near Broad Walk"},"longitude":"-0.388496"},"context":"","outcome_status":{"category":"Status update unavailable","date":"2018-06"},"persistent_id":"512784bdccde21c5bc9a5a362352b93825870958749f1385c136b5b8e7a2e701","id":63309367,"location_subtype":"","month":"2018-02"},{"category":"burglary","location_type":"Force","location":{"latitude":"51.473895","street":{"id":944533,"name":"On or near Harte Road"},"longitude":"-0.375183"},"context":"","outcome_status":{"category":"Investigation complete; no suspect identified","date":"2018-03"},"persistent_id":"747ec60ea2dbaa5a24430b630f7df53316722a91995c3cec31849e0756b5f62f","id":63325879,"location_subtype":"","month":"2018-02"},{"category":"criminal-damage-arson","location_type":"Force","location":{"latitude":"51.485228","street":{"id":951081,"name":"On or near Further\/higher Educational Building"},"longitude":"-0.375370"},"context":"","outcome_status":{"category":"Offender given a caution","date":"2018-02"},"persistent_id":"7164a8a1b235423a215da63540073448ce02e2b703e05e451fbc78030837a5da","id":63284535,"location_subtype":"","month":"2018-02"},{"category":"criminal-damage-arson","location_type":"Force","location":{"latitude":"51.475857","street":{"id":944393,"name":"On or near Poole Court Road"},"longitude":"-0.385078"},"context":"","outcome_status":{"category":"Status update unavailable","date":"2018-06"},"persistent_id":"1bb4b96c93608209676b1d6e7204aba964ac6930f5ed4e2f8621dc3a8b230f75","id":63324787,"location_subtype":"","month":"2018-02"},{"category":"criminal-damage-arson","location_type":"Force","location":{"latitude":"51.475857","street":{"id":944393,"name":"On or near Poole Court Road"},"longitude":"-0.385078"},"context":"","outcome_status":{"category":"Status update unavailable","date":"2018-06"},"persistent_id":"143788760a373d5ce3d253c37a39fe5b1d59380197c2350821b431c3d95fc096","id":63289856,"location_subtype":"","month":"2018-02"},{"category":"criminal-damage-arson","location_type":"Force","location":{"latitude":"51.484936","street":{"id":951075,"name":"On or near Heston Road"},"longitude":"-0.373120"},"context":"","outcome_status":{"category":"Status update unavailable","date":"2018-06"},"persistent_id":"5b6515333ea2cbf22a69228c14d77f6efe3e20e150baa83ed2d570b31b31ba88","id":63307656,"location_subtype":"","month":"2018-02"},{"category":"drugs","location_type":"Force","location":{"latitude":"51.475888","street":{"id":944526,"name":"On or near Queenswood Avenue"},"longitude":"-0.377545"},"context":"","outcome_status":{"category":"Offender given a drugs possession warning","date":"2018-02"},"persistent_id":"b71f1b770edb3fded941cd234b1e13af6ac0d2f475444461ee6449968defe844","id":63279981,"location_subtype":"","month":"2018-02"},{"category":"drugs","location_type":"Force","location":{"latitude":"51.474993","street":{"id":923555,"name":"On or near Petrol Station"},"longitude":"-0.392207"},"context":"","outcome_status":{"category":"Offender given a drugs possession warning","date":"2018-02"},"persistent_id":"d1c613fe1a19ea2887e6d10bf89b754c36ce9d6ebddf3641e32a4883eab83551","id":63323444,"location_subtype":"","month":"2018-02"},{"category":"drugs","location_type":"Force","location":{"latitude":"51.474993","street":{"id":923555,"name":"On or near Petrol Station"},"longitude":"-0.392207"},"context":"","outcome_status":{"category":"Offender given a drugs possession warning","date":"2018-02"},"persistent_id":"cd6968f9e9a4835b76a3c3caa357aba3cf39e58e82c177bea1c148ff4d7c0147","id":63317908,"location_subtype":"","month":"2018-02"},{"category":"drugs","location_type":"Force","location":{"latitude":"51.475002","street":{"id":944434,"name":"On or near Bath Road"},"longitude":"-0.393503"},"context":"","outcome_status":{"category":"Offender given a drugs possession warning","date":"2018-02"},"persistent_id":"9fe1c03f16bf9aca3e06eee09f07a2ca57da1df2e4638cb44d2f4f9373ccad92","id":63292122,"location_subtype":"","month":"2018-02"},{"category":"other-theft","location_type":"Force","location":{"latitude":"51.485228","street":{"id":951081,"name":"On or near Further\/higher Educational Building"},"longitude":"-0.375370"},"context":"","outcome_status":{"category":"Status update unavailable","date":"2018-06"},"persistent_id":"ffb50f2c66848f061559a2ac0e54e7906f8167423bdbacfa37c2f4d835d44631","id":63325186,"location_subtype":"","month":"2018-02"},{"category":"other-theft","location_type":"Force","location":{"latitude":"51.474008","street":{"id":944408,"name":"On or near Ambassador Close"},"longitude":"-0.384682"},"context":"","outcome_status":{"category":"Status update unavailable","date":"2018-06"},"persistent_id":"b2beeab06087f7aa1922c24befa7cd57f698eecd733ad4c126fefcf84c384dd6","id":63322452,"location_subtype":"","month":"2018-02"},{"category":"other-theft","location_type":"Force","location":{"latitude":"51.480288","street":{"id":944514,"name":"On or near Upper Sutton Lane"},"longitude":"-0.372565"},"context":"","outcome_status":{"category":"Status update unavailable","date":"2018-06"},"persistent_id":"bd8b12303c77fca2013dea88f9e63e1e112957c798dba27f2980e6fc886b6d29","id":63308942,"location_subtype":"","month":"2018-02"},{"category":"other-theft","location_type":"Force","location":{"latitude":"51.473821","street":{"id":944413,"name":"On or near Parking Area"},"longitude":"-0.389397"},"context":"","outcome_status":{"category":"Investigation complete; no suspect identified","date":"2018-03"},"persistent_id":"5365954d55b72f279c20a350ffcaf133349e5f6fab488db86e97ac568d4d2bdc","id":63329126,"location_subtype":"","month":"2018-02"},{"category":"other-theft","location_type":"Force","location":{"latitude":"51.478209","street":{"id":944536,"name":"On or near Greencroft Road"},"longitude":"-0.378946"},"context":"","outcome_status":{"category":"Investigation complete; no suspect identified","date":"2018-03"},"persistent_id":"dc73cea93f7ae75035ffd7ec207772b257cb5c1617daaaa590747e381e32c381","id":63324111,"location_subtype":"","month":"2018-02"},{"category":"other-theft","location_type":"Force","location":{"latitude":"51.474993","street":{"id":923555,"name":"On or near Petrol Station"},"longitude":"-0.392207"},"context":"","outcome_status":{"category":"Status update unavailable","date":"2018-06"},"persistent_id":"f8335c09cefe1cfd474727bd58a75175d9713a5230a8da1bb42c46aee348ae39","id":63335672,"location_subtype":"","month":"2018-02"},{"category":"other-theft","location_type":"Force","location":{"latitude":"51.482906","street":{"id":951078,"name":"On or near Devon Waye"},"longitude":"-0.378477"},"context":"","outcome_status":{"category":"Status update unavailable","date":"2018-06"},"persistent_id":"0a84889ea2123964b6a5d539b874b200ba8db0c815149f9f6e66589cbc970f2e","id":63312142,"location_subtype":"","month":"2018-02"},{"category":"other-theft","location_type":"Force","location":{"latitude":"51.473821","street":{"id":944413,"name":"On or near Parking Area"},"longitude":"-0.389397"},"context":"","outcome_status":{"category":"Investigation complete; no suspect identified","date":"2018-03"},"persistent_id":"0e803c246d9175215eef096773ddc9bab56c5b3b57c9dbee43cedb38eab281ba","id":63321746,"location_subtype":"","month":"2018-02"},{"category":"other-theft","location_type":"Force","location":{"latitude":"51.472603","street":{"id":944476,"name":"On or near Bath Road"},"longitude":"-0.385178"},"context":"","outcome_status":{"category":"Status update unavailable","date":"2018-06"},"persistent_id":"311d593fbe671998c24fd970b637822f2682015ce9331e0b44c9563b3d96516f","id":63318375,"location_subtype":"","month":"2018-02"},{"category":"possession-of-weapons","location_type":"Force","location":{"latitude":"51.472603","street":{"id":944476,"name":"On or near Bath Road"},"longitude":"-0.385178"},"context":"","outcome_status":{"category":"Investigation complete; no suspect identified","date":"2018-03"},"persistent_id":"2e684a28521cd60d37404260bb34212cb0a2aa251f46db72045dc82f88dbffb3","id":63279287,"location_subtype":"","month":"2018-02"},{"category":"public-order","location_type":"Force","location":{"latitude":"51.485228","street":{"id":951081,"name":"On or near Further\/higher Educational Building"},"longitude":"-0.375370"},"context":"","outcome_status":{"category":"Status update unavailable","date":"2018-06"},"persistent_id":"2bab9bb3872432ec6df0cd1a69fa52fac47586184ce80c0b9476fa11b54ca9fc","id":63330147,"location_subtype":"","month":"2018-02"},{"category":"public-order","location_type":"Force","location":{"latitude":"51.473821","street":{"id":944413,"name":"On or near Parking Area"},"longitude":"-0.389397"},"context":"","outcome_status":{"category":"Investigation complete; no suspect identified","date":"2018-03"},"persistent_id":"e7b51cec952d8eb2af7b8e4b7fd693ecfdbfe8bb4a9d2df22c8ca005761e0315","id":63339053,"location_subtype":"","month":"2018-02"},{"category":"public-order","location_type":"Force","location":{"latitude":"51.475029","street":{"id":944425,"name":"On or near Hurn Court Road"},"longitude":"-0.390248"},"context":"","outcome_status":{"category":"Status update unavailable","date":"2018-06"},"persistent_id":"6723be6ccb0242021bd200f1ae72c4d268bf4fbf4af2b7aebb2c8ca39c57b9b5","id":63312095,"location_subtype":"","month":"2018-02"},{"category":"robbery","location_type":"Force","location":{"latitude":"51.477656","street":{"id":944534,"name":"On or near Harris Close"},"longitude":"-0.372126"},"context":"","outcome_status":{"category":"Status update unavailable","date":"2018-06"},"persistent_id":"adea5b76f74bbb740d425d873c3d1afcb27d56a39fb26dd61a64d2807fbeb54a","id":63333954,"location_subtype":"","month":"2018-02"},{"category":"robbery","location_type":"Force","location":{"latitude":"51.482733","street":{"id":944387,"name":"On or near Speart Lane"},"longitude":"-0.386131"},"context":"","outcome_status":{"category":"Investigation complete; no suspect identified","date":"2018-03"},"persistent_id":"e59cc71bfff5ad289596af542156334051ac9501fdbfa765e8df9db4fdfd7d81","id":63282472,"location_subtype":"","month":"2018-02"},{"category":"robbery","location_type":"Force","location":{"latitude":"51.482833","street":{"id":951071,"name":"On or near The Warren"},"longitude":"-0.379704"},"context":"","outcome_status":{"category":"Status update unavailable","date":"2018-06"},"persistent_id":"64272221f60e3e115d29bb1aca390cd5fda1962f42eb513268a5f1e5c361262b","id":63288603,"location_subtype":"","month":"2018-02"},{"category":"robbery","location_type":"Force","location":{"latitude":"51.471641","street":{"id":944558,"name":"On or near Sports\/recreation Area"},"longitude":"-0.379971"},"context":"","outcome_status":{"category":"Status update unavailable","date":"2018-06"},"persistent_id":"904c563e09a79d1442676675f52ad620c84f5c7795050a99f872ee45fea8a41b","id":63330302,"location_subtype":"","month":"2018-02"},{"category":"robbery","location_type":"Force","location":{"latitude":"51.472603","street":{"id":944476,"name":"On or near Bath Road"},"longitude":"-0.385178"},"context":"","outcome_status":{"category":"Investigation complete; no suspect identified","date":"2018-03"},"persistent_id":"d79ceedcb02cdf7785bf8ce3f1aca225c5add406fadeb2de94474ebbca3e4be4","id":63279104,"location_subtype":"","month":"2018-02"},{"category":"robbery","location_type":"Force","location":{"latitude":"51.482833","street":{"id":951071,"name":"On or near The Warren"},"longitude":"-0.379704"},"context":"","outcome_status":{"category":"Investigation complete; no suspect identified","date":"2018-03"},"persistent_id":"8af95f6bca8314a92163326349db6219803fa431f2be966373fdff39d1f9e615","id":63330133,"location_subtype":"","month":"2018-02"},{"category":"theft-from-the-person","location_type":"Force","location":{"latitude":"51.472603","street":{"id":944476,"name":"On or near Bath Road"},"longitude":"-0.385178"},"context":"","outcome_status":{"category":"Status update unavailable","date":"2018-06"},"persistent_id":"a87386e279f55ccef065e4d3ba06ccf6dd45d2b9989d144cd63a9143e0afced5","id":63337323,"location_subtype":"","month":"2018-02"},{"category":"vehicle-crime","location_type":"Force","location":{"latitude":"51.482833","street":{"id":951071,"name":"On or near The Warren"},"longitude":"-0.379704"},"context":"","outcome_status":{"category":"Status update unavailable","date":"2018-06"},"persistent_id":"ddc9793198333008d0a0b212d6104fed97e8afea65ede943d47bcc16cce804ec","id":63290417,"location_subtype":"","month":"2018-02"},{"category":"vehicle-crime","location_type":"Force","location":{"latitude":"51.474385","street":{"id":944520,"name":"On or near Sutton Lane"},"longitude":"-0.376159"},"context":"","outcome_status":{"category":"Status update unavailable","date":"2018-06"},"persistent_id":"7240d137e306e2e78433aadeeb4fc02076f7c97461898c992eb50e498f1ca1d0","id":63325143,"location_subtype":"","month":"2018-02"},{"category":"vehicle-crime","location_type":"Force","location":{"latitude":"51.479723","street":{"id":944406,"name":"On or near Beaufort Gardens"},"longitude":"-0.383717"},"context":"","outcome_status":{"category":"Status update unavailable","date":"2018-06"},"persistent_id":"57c808fbde667651d1c4e746d2d80e62545671dcc43f1d96df1271844d25c54e","id":63283256,"location_subtype":"","month":"2018-02"},{"category":"vehicle-crime","location_type":"Force","location":{"latitude":"51.473821","street":{"id":944413,"name":"On or near Parking Area"},"longitude":"-0.389397"},"context":"","outcome_status":{"category":"Status update unavailable","date":"2018-06"},"persistent_id":"62ef614f08f4850da063dae212952446b6e4259832a74970966b1c9c5e16e64f","id":63308981,"location_subtype":"","month":"2018-02"},{"category":"vehicle-crime","location_type":"Force","location":{"latitude":"51.474369","street":{"id":944513,"name":"On or near Wesley Avenue"},"longitude":"-0.380234"},"context":"","outcome_status":{"category":"Status update unavailable","date":"2018-06"},"persistent_id":"e17ee329687a63a0846f4a33436ac55ad9cf051d27a17150ff79b49ed4cbe2ea","id":63331819,"location_subtype":"","month":"2018-02"},{"category":"vehicle-crime","location_type":"Force","location":{"latitude":"51.477935","street":{"id":944388,"name":"On or near Shenley Road"},"longitude":"-0.384500"},"context":"","outcome_status":{"category":"Status update unavailable","date":"2018-06"},"persistent_id":"55dfe39f6d6ffef6802e2ff60e8eb4fd4c1f0ad35166d30484a934c4d86c2ae6","id":63319382,"location_subtype":"","month":"2018-02"},{"category":"vehicle-crime","location_type":"Force","location":{"latitude":"51.473476","street":{"id":944407,"name":"On or near Bath Road"},"longitude":"-0.387811"},"context":"","outcome_status":{"category":"Status update unavailable","date":"2018-06"},"persistent_id":"542f5168bd4ad5b91ffba49606cb256861beebd036701b7cb738cb6426262773","id":63302607,"location_subtype":"","month":"2018-02"},{"category":"vehicle-crime","location_type":"Force","location":{"latitude":"51.484936","street":{"id":951075,"name":"On or near Heston Road"},"longitude":"-0.373120"},"context":"","outcome_status":{"category":"Status update unavailable","date":"2018-06"},"persistent_id":"1095d20478b45513cab40de2489858bd8e722f4e77364bbab4238d6570501dea","id":63283885,"location_subtype":"","month":"2018-02"},{"category":"vehicle-crime","location_type":"Force","location":{"latitude":"51.481266","street":{"id":944529,"name":"On or near Old Park Mews"},"longitude":"-0.374978"},"context":"","outcome_status":{"category":"Investigation complete; no suspect identified","date":"2018-03"},"persistent_id":"1d5ca48f2fc7554b6ef9f6b061a4e26f66e92aa2b6c4177ffcf847d3b21001e7","id":63289266,"location_subtype":"","month":"2018-02"},{"category":"vehicle-crime","location_type":"Force","location":{"latitude":"51.475857","street":{"id":944393,"name":"On or near Poole Court Road"},"longitude":"-0.385078"},"context":"","outcome_status":{"category":"Investigation complete; no suspect identified","date":"2018-03"},"persistent_id":"ec6c01e53ce21cefc85168984203ec7a17d56ae5d8c3f124a605c94d48a792a2","id":63311427,"location_subtype":"","month":"2018-02"},{"category":"violent-crime","location_type":"Force","location":{"latitude":"51.482733","street":{"id":944387,"name":"On or near Speart Lane"},"longitude":"-0.386131"},"context":"","outcome_status":{"category":"Investigation complete; no suspect identified","date":"2018-02"},"persistent_id":"7d14349546179585731d00616e58470b36d62dba25ea5238e66a61a033009e4c","id":63282118,"location_subtype":"","month":"2018-02"},{"category":"violent-crime","location_type":"Force","location":{"latitude":"51.475888","street":{"id":944526,"name":"On or near Queenswood Avenue"},"longitude":"-0.377545"},"context":"","outcome_status":{"category":"Offender given a caution","date":"2018-02"},"persistent_id":"77351ec40ae7ca1c744e7738602a51e1bc441bcf99b02dd249ff01b8f905f3fe","id":63325665,"location_subtype":"","month":"2018-02"},{"category":"violent-crime","location_type":"Force","location":{"latitude":"51.476696","street":{"id":944537,"name":"On or near Great West Road"},"longitude":"-0.380080"},"context":"","outcome_status":{"category":"Defendant found not guilty","date":"2018-04"},"persistent_id":"7e64c6e8c565e2b3a1922538f5496b322200ff989f103952be4cec7d882cb2a2","id":63319608,"location_subtype":"","month":"2018-02"},{"category":"violent-crime","location_type":"Force","location":{"latitude":"51.482833","street":{"id":951071,"name":"On or near The Warren"},"longitude":"-0.379704"},"context":"","outcome_status":{"category":"Investigation complete; no suspect identified","date":"2018-03"},"persistent_id":"62deb5a894d8e2af41eab756803f6ab25ea2033cdf26b4c9dab3ab84273c627b","id":63305980,"location_subtype":"","month":"2018-02"},{"category":"violent-crime","location_type":"Force","location":{"latitude":"51.476696","street":{"id":944537,"name":"On or near Great West Road"},"longitude":"-0.380080"},"context":"","outcome_status":{"category":"Investigation complete; no suspect identified","date":"2018-02"},"persistent_id":"599868048ec446311503b7b56e57bc69f48849a7e7447fae758c1f013747109d","id":63315815,"location_subtype":"","month":"2018-02"},{"category":"violent-crime","location_type":"Force","location":{"latitude":"51.475857","street":{"id":944393,"name":"On or near Poole Court Road"},"longitude":"-0.385078"},"context":"","outcome_status":{"category":"Investigation complete; no suspect identified","date":"2018-05"},"persistent_id":"6983ae61a1b36de37553c7249fa941806df16fe3c670e4483dbaa19bc19dc67f","id":63283077,"location_subtype":"","month":"2018-02"},{"category":"violent-crime","location_type":"Force","location":{"latitude":"51.482833","street":{"id":951071,"name":"On or near The Warren"},"longitude":"-0.379704"},"context":"","outcome_status":{"category":"Investigation complete; no suspect identified","date":"2018-02"},"persistent_id":"53bce6af10197de63edb64e927cf839e553d330bb04a41d41f237e6071329d8e","id":63320484,"location_subtype":"","month":"2018-02"},{"category":"violent-crime","location_type":"Force","location":{"latitude":"51.479741","street":{"id":944384,"name":"On or near Summerhouse Avenue"},"longitude":"-0.385704"},"context":"","outcome_status":{"category":"Investigation complete; no suspect identified","date":"2018-02"},"persistent_id":"608aefb72ca80d03e60fe57d50400851162074fa117d56a60775c694b1d91b86","id":63279045,"location_subtype":"","month":"2018-02"},{"category":"violent-crime","location_type":"Force","location":{"latitude":"51.472603","street":{"id":944476,"name":"On or near Bath Road"},"longitude":"-0.385178"},"context":"","outcome_status":{"category":"Investigation complete; no suspect identified","date":"2018-02"},"persistent_id":"e75185ecb1ea8fb9028ea57cc0bc41e7565a9584172a155d5681b96b940e85f7","id":63279171,"location_subtype":"","month":"2018-02"},{"category":"violent-crime","location_type":"Force","location":{"latitude":"51.482833","street":{"id":951071,"name":"On or near The Warren"},"longitude":"-0.379704"},"context":"","outcome_status":{"category":"Status update unavailable","date":"2018-06"},"persistent_id":"c8c1fa3bf1fd04bbc8b58ffe117b1e463f90aed0f60803def954d693d1a65801","id":63279945,"location_subtype":"","month":"2018-02"},{"category":"violent-crime","location_type":"Force","location":{"latitude":"51.472603","street":{"id":944476,"name":"On or near Bath Road"},"longitude":"-0.385178"},"context":"","outcome_status":{"category":"Status update unavailable","date":"2018-06"},"persistent_id":"af301f5d8c2408d423d5c4c979ce0dc4c614fd656b7f76099ddd533c7b68b8a4","id":63326370,"location_subtype":"","month":"2018-02"},{"category":"violent-crime","location_type":"Force","location":{"latitude":"51.475857","street":{"id":944393,"name":"On or near Poole Court Road"},"longitude":"-0.385078"},"context":"","outcome_status":{"category":"Investigation complete; no suspect identified","date":"2018-02"},"persistent_id":"e8f072975a7bc4993746f4bd86d019623a0034b8a00811682571ff6d1acd2490","id":63297980,"location_subtype":"","month":"2018-02"},{"category":"violent-crime","location_type":"Force","location":{"latitude":"51.482833","street":{"id":951071,"name":"On or near The Warren"},"longitude":"-0.379704"},"context":"","outcome_status":{"category":"Investigation complete; no suspect identified","date":"2018-03"},"persistent_id":"a1f233b7eff071f517f39979f0af18cdb47a5630ce89cfbdeae3e8eca0653f21","id":63302300,"location_subtype":"","month":"2018-02"},{"category":"violent-crime","location_type":"Force","location":{"latitude":"51.474598","street":{"id":944390,"name":"On or near Rosary Close"},"longitude":"-0.385065"},"context":"","outcome_status":{"category":"Investigation complete; no suspect identified","date":"2018-05"},"persistent_id":"470181a7ae203736891a413abc32d05b5746494ca0e26913b8300a0c7d2d1ea0","id":63334587,"location_subtype":"","month":"2018-02"},{"category":"violent-crime","location_type":"Force","location":{"latitude":"51.479825","street":{"id":944518,"name":"On or near Sutton Way"},"longitude":"-0.374151"},"context":"","outcome_status":{"category":"Status update unavailable","date":"2018-06"},"persistent_id":"ac25d0e6294a846a89c708aa13d655f5260400a287d46516de96e21ee9abdfee","id":63336197,"location_subtype":"","month":"2018-02"},{"category":"violent-crime","location_type":"Force","location":{"latitude":"51.478572","street":{"id":944383,"name":"On or near Vicarage Farm Road"},"longitude":"-0.383095"},"context":"","outcome_status":{"category":"Investigation complete; no suspect identified","date":"2018-05"},"persistent_id":"a39f7886d970f7668ee93e4cd7f716ace383351c1ddc9bef21d2dd7c4637ceac","id":63287739,"location_subtype":"","month":"2018-02"},{"category":"violent-crime","location_type":"Force","location":{"latitude":"51.471254","street":{"id":944557,"name":"On or near Bath Road"},"longitude":"-0.381237"},"context":"","outcome_status":{"category":"Status update unavailable","date":"2018-06"},"persistent_id":"451a568271f78ff8bd1fd9e280cffcbf06001bde21a03b05a50c15e904c274d4","id":63286719,"location_subtype":"","month":"2018-02"},{"category":"violent-crime","location_type":"Force","location":{"latitude":"51.476696","street":{"id":944537,"name":"On or near Great West Road"},"longitude":"-0.380080"},"context":"","outcome_status":{"category":"Investigation complete; no suspect identified","date":"2018-03"},"persistent_id":"777670544c510d1e448e1d54459d61bfb6637d74f77a2a4a56adb090a153fb03","id":63282286,"location_subtype":"","month":"2018-02"},{"category":"violent-crime","location_type":"Force","location":{"latitude":"51.482733","street":{"id":944387,"name":"On or near Speart Lane"},"longitude":"-0.386131"},"context":"","outcome_status":{"category":"Investigation complete; no suspect identified","date":"2018-02"},"persistent_id":"9432fac36c1b0c05f67ac0037c920b5a9ac594cc39bac3fb0f36b495af2a1a3e","id":63299543,"location_subtype":"","month":"2018-02"},{"category":"violent-crime","location_type":"Force","location":{"latitude":"51.474598","street":{"id":944390,"name":"On or near Rosary Close"},"longitude":"-0.385065"},"context":"","outcome_status":{"category":"Status update unavailable","date":"2018-06"},"persistent_id":"c4bde5195d71f89022e373b775f2b92a2b4b23b8f4663bfa21c2d550fe18f646","id":63319288,"location_subtype":"","month":"2018-02"},{"category":"other-crime","location_type":"Force","location":{"latitude":"51.485228","street":{"id":951081,"name":"On or near Further\/higher Educational Building"},"longitude":"-0.375370"},"context":"","outcome_status":{"category":"Status update unavailable","date":"2018-06"},"persistent_id":"387ac132f5f69c6078b6611b4fd778378b9d9210f32c0ad4c3204b95c4eab45d","id":63322906,"location_subtype":"","month":"2018-02"}]