[{"category":"anti-social-behaviour","location_type":"Force","location":{"latitude":"51.510482","street":{"id":957979,"name":"On or near Windsor Road"},"longitude":"-0.300127"},"context":"","outcome_status":null,"persistent_id":"","id":63277853,"location_subtype":"","month":"2018-02"},{"category":"anti-social-behaviour","location_type":"Force","location":{"latitude":"51.509674","street":{"id":957990,"name":"On or near Balmain Close"},"longitude":"-0.302722"},"context":"","outcome_status":null,"persistent_id":"","id":63277864,"location_subtype":"","month":"2018-02"},{"category":"anti-social-behaviour","location_type":"Force","location":{"latitude":"51.503406","street":{"id":952100,"name":"On or near Aspen Close"},"longitude":"-0.293359"},"context":"","outcome_status":null,"persistent_id":"","id":63277841,"location_subtype":"","month":"2018-02"},{"category":"anti-social-behaviour","location_type":"Force","location":{"latitude":"51.509654","street":{"id":957866,"name":"On or near Granville Gardens"},"longitude":"-0.287750"},"context":"","outcome_status":null,"persistent_id":"","id":63277830,"location_subtype":"","month":"2018-02"},{"category":"anti-social-behaviour","location_type":"Force","location":{"latitude":"51.509654","street":{"id":957866,"name":"On or near Granville Gardens"},"longitude":"-0.287750"},"context":"","outcome_status":null,"persistent_id":"","id":63277831,"location_subtype":"","month":"2018-02"},{"category":"anti-social-behaviour","location_type":"Force","location":{"latitude":"51.509654","street":{"id":957866,"name":"On or near Granville Gardens"},"longitude":"-0.287750"},"context":"","outcome_status":null,"persistent_id":"","id":63277832,"location_subtype":"","month":"2018-02"},{"category":"anti-social-behaviour","location_type":"Force","location":{"latitude":"51.509654","street":{"id":957866,"name":"On or near Granville Gardens"},"longitude":"-0.287750"},"context":"","outcome_status":null,"persistent_id":"","id":63277833,"location_subtype":"","month":"2018-02"},{"category":"anti-social-behaviour","location_type":"Force","location":{"latitude":"51.509654","street":{"id":957866,"name":"On or near Granville Gardens"},"longitude":"-0.287750"},"context":"","outcome_status":null,"persistent_id":"","id":63277834,"location_subtype":"","month":"2018-02"},{"category":"anti-social-behaviour","location_type":"Force","location":{"latitude":"51.513237","street":{"id":957786,"name":"On or near Freeland Road"},"longitude":"-0.290455"},"context":"","outcome_status":null,"persistent_id":"","id":63277836,"location_subtype":"","month":"2018-02"},{"category":"anti-social-behaviour","location_type":"Force","location":{"latitude":"51.506148","street":{"id":951921,"name":"On or near Warwick Place"},"longitude":"-0.303905"},"context":"","outcome_status":null,"persistent_id":"","id":63277871,"location_subtype":"","month":"2018-02"},{"category":"anti-social-behaviour","location_type":"Force","location":{"latitude":"51.510482","street":{"id":957979,"name":"On or near Windsor Road"},"longitude":"-0.300127"},"context":"","outcome_status":null,"persistent_id":"","id":63277862,"location_subtype":"","month":"2018-02"},{"category":"anti-social-behaviour","location_type":"Force","location":{"latitude":"51.500507","street":{"id":951914,"name":"On or near Berry Way"},"longitude":"-0.299951"},"context":"","outcome_status":null,"persistent_id":"","id":63277856,"location_subtype":"","month":"2018-02"},{"category":"anti-social-behaviour","location_type":"Force","location":{"latitude":"51.510482","street":{"id":957979,"name":"On or near Windsor Road"},"longitude":"-0.300127"},"context":"","outcome_status":null,"persistent_id":"","id":63277855,"location_subtype":"","month":"2018-02"},{"category":"anti-social-behaviour","location_type":"Force","location":{"latitude":"51.510482","street":{"id":957979,"name":"On or near Windsor Road"},"longitude":"-0.300127"},"context":"","outcome_status":null,"persistent_id":"","id":63277854,"location_subtype":"","month":"2018-02"},{"category":"anti-social-behaviour","location_type":"Force","location":{"latitude":"51.508138","street":{"id":957986,"name":"On or near Kerrison Place"},"longitude":"-0.302232"},"context":"","outcome_status":null,"persistent_id":"","id":63277869,"location_subtype":"","month":"2018-02"},{"category":"anti-social-behaviour","location_type":"Force","location":{"latitude":"51.510482","street":{"id":957979,"name":"On or near Windsor Road"},"longitude":"-0.300127"},"context":"","outcome_status":null,"persistent_id":"","id":63277858,"location_subtype":"","month":"2018-02"},{"category":"anti-social-behaviour","location_type":"Force","location":{"latitude":"51.510482","street":{"id":957979,"name":"On or near Windsor Road"},"longitude":"-0.300127"},"context":"","outcome_status":null,"persistent_id":"","id":63277857,"location_subtype":"","month":"2018-02"},{"category":"bicycle-theft","location_type":"Force","location":{"latitude":"51.510282","street":{"id":957992,"name":"On or near Ealing Green"},"longitude":"-0.305553"},"context":"","outcome_status":{"category":"Status update unavailable","date":"2018-06"},"persistent_id":"4dd29c7d6e5935654bb92e5f5052f174ea6510092e059ada6fa4ce95013234e3","id":63303535,"location_subtype":"","month":"2018-02"},{"category":"bicycle-theft","location_type":"Force","location":{"latitude":"51.512936","street":{"id":957781,"name":"On or near Inglis Road"},"longitude":"-0.288953"},"context":"","outcome_status":{"category":"Status update unavailable","date":"2018-06"},"persistent_id":"84427a438763a657818c9703ac00a51d6feeeff9a094c36632720abaf216bb8c","id":63285204,"location_subtype":"","month":"2018-02"},{"category":"bicycle-theft","location_type":"Force","location":{"latitude":"51.509317","street":{"id":957993,"name":"On or near Ealing Green"},"longitude":"-0.305387"},"context":"","outcome_status":{"category":"Status update unavailable","date":"2018-06"},"persistent_id":"0d09c56d4a19acb5dce4cebc85d17b35a827a7a3363a5195c978999c67d6e84c","id":63303534,"location_subtype":"","month":"2018-02"},{"category":"bicycle-theft","location_type":"Force","location":{"latitude":"51.510482","street":{"id":957979,"name":"On or near Windsor Road"},"longitude":"-0.300127"},"context":"","outcome_status":{"category":"Status update unavailable","date":"2018-06"},"persistent_id":"4efa2ab0adf332512cb1387b9ff64acc03308900b920081638fea85515c58355","id":63306901,"location_subtype":"","month":"2018-02"},{"category":"burglary","location_type":"Force","location":{"latitude":"51.505160","street":{"id":952090,"name":"On or near Kingsbridge Avenue"},"longitude":"-0.288509"},"context":"","outcome_status":{"category":"Status update unavailable","date":"2018-06"},"persistent_id":"6d47ac0a27d20831a40afb9dde68e26b4e3789dc40c22ff61e7a5e4f8f7c2e7b","id":63304139,"location_subtype":"","month":"2018-02"},{"category":"burglary","location_type":"Force","location":{"latitude":"51.501598","street":{"id":952077,"name":"On or near Pope's Lane"},"longitude":"-0.292749"},"context":"","outcome_status":{"category":"Status update unavailable","date":"2018-06"},"persistent_id":"d5996e99361a3f99b81c6e9f3304c0b30e1005ff1c7bf33597e8964ae9871344","id":63324383,"location_subtype":"","month":"2018-02"},{"category":"burglary","location_type":"Force","location":{"latitude":"51.512148","street":{"id":957790,"name":"On or near Creffield Road"},"longitude":"-0.289761"},"context":"","outcome_status":{"category":"Status update unavailable","date":"2018-06"},"persistent_id":"7abc7786b276653e87d7d7ad69c91a666dc4328a0f48e65b3e165deb7d1427db","id":63312013,"location_subtype":"","month":"2018-02"},{"category":"burglary","location_type":"Force","location":{"latitude":"51.508512","street":{"id":957987,"name":"On or near Kenilworth Road"},"longitude":"-0.300056"},"context":"","outcome_status":{"category":"Status update unavailable","date":"2018-06"},"persistent_id":"4cdc84d6024c6ff979d2183b6bc8f2c4f18c56ec70264f06e6579620e0eb2757","id":63307152,"location_subtype":"","month":"2018-02"},{"category":"burglary","location_type":"Force","location":{"latitude":"51.500860","street":{"id":951966,"name":"On or near Sunderland Road"},"longitude":"-0.305701"},"context":"","outcome_status":{"category":"Status update unavailable","date":"2018-06"},"persistent_id":"5d8e77372bc624b4fa72056c2b451d56c9bf31e3b3407b4da7d366610888332e","id":63298776,"location_subtype":"","month":"2018-02"},{"category":"burglary","location_type":"Force","location":{"latitude":"51.501598","street":{"id":952077,"name":"On or near Pope's Lane"},"longitude":"-0.292749"},"context":"","outcome_status":{"category":"Status update unavailable","date":"2018-06"},"persistent_id":"cbb272ee7c6666a1e33eddf8145988841d3f323703776039c5530356c22c6841","id":63333901,"location_subtype":"","month":"2018-02"},{"category":"burglary","location_type":"Force","location":{"latitude":"51.507199","street":{"id":951934,"name":"On or near Kerrison Road"},"longitude":"-0.301330"},"context":"","outcome_status":{"category":"Investigation complete; no suspect identified","date":"2018-03"},"persistent_id":"388393c1f84824e5ba66f720c5ac2da51a7b47e25f3847f9e07326c6a99135d2","id":63306441,"location_subtype":"","month":"2018-02"},{"category":"burglary","location_type":"Force","location":{"latitude":"51.505781","street":{"id":951926,"name":"On or near Richmond Road"},"longitude":"-0.300244"},"context":"","outcome_status":{"category":"Status update unavailable","date":"2018-06"},"persistent_id":"b7a1e97c89f0c676aec0a9cd79be2f194b0900482854193e8f5eaff075e6e67e","id":63331862,"location_subtype":"","month":"2018-02"},{"category":"burglary","location_type":"Force","location":{"latitude":"51.509148","street":{"id":957989,"name":"On or near Grange Park"},"longitude":"-0.297410"},"context":"","outcome_status":{"category":"Status update unavailable","date":"2018-06"},"persistent_id":"531d01732a7ff1dc6c2143dda4744ad47d89678f46875131135b74accf4bb325","id":63280435,"location_subtype":"","month":"2018-02"},{"category":"criminal-damage-arson","location_type":"Force","location":{"latitude":"51.509654","street":{"id":957866,"name":"On or near Granville Gardens"},"longitude":"-0.287750"},"context":"","outcome_status":{"category":"Investigation complete; no suspect identified","date":"2018-02"},"persistent_id":"646f66f9d7e63d3ccaa60595f6014849a597e8401fb7f1f95dd0f4e3e4153777","id":63322233,"location_subtype":"","month":"2018-02"},{"category":"criminal-damage-arson","location_type":"Force","location":{"latitude":"51.509654","street":{"id":957866,"name":"On or near Granville Gardens"},"longitude":"-0.287750"},"context":"","outcome_status":{"category":"Offender given suspended prison sentence","date":"2018-03"},"persistent_id":"64310c71e8b321aa6a00289a79f8bb62cf824f8984a26469b21842518fc6ae1f","id":63334474,"location_subtype":"","month":"2018-02"},{"category":"criminal-damage-arson","location_type":"Force","location":{"latitude":"51.511250","street":{"id":957935,"name":"On or near The Grove"},"longitude":"-0.297893"},"context":"","outcome_status":{"category":"Status update unavailable","date":"2018-06"},"persistent_id":"d2f25b440b639cc7a8cb2733290218efa15ed2f4371684bf19e29d1b9536965b","id":63284720,"location_subtype":"","month":"2018-02"},{"category":"criminal-damage-arson","location_type":"Force","location":{"latitude":"51.513237","street":{"id":957786,"name":"On or near Freeland Road"},"longitude":"-0.290455"},"context":"","outcome_status":{"category":"Investigation complete; no suspect identified","date":"2018-02"},"persistent_id":"871a10f99678b07e532550b7268c9c77be6416b41efe3e72a8e50b3d321a8d21","id":63319174,"location_subtype":"","month":"2018-02"},{"category":"criminal-damage-arson","location_type":"Force","location":{"latitude":"51.510080","street":{"id":957864,"name":"On or near Leopold Road"},"longitude":"-0.290415"},"context":"","outcome_status":{"category":"Status update unavailable","date":"2018-06"},"persistent_id":"99b81d1ae7cbb434bb034e6fb40d0ef72eceb989da65cfa0ea2ba7869a32d4c1","id":63330607,"location_subtype":"","month":"2018-02"},{"category":"criminal-damage-arson","location_type":"Force","location":{"latitude":"51.507710","street":{"id":951920,"name":"On or near Warwick Road"},"longitude":"-0.297478"},"context":"","outcome_status":{"category":"Status update unavailable","date":"2018-06"},"persistent_id":"45da0c649708e4c343e9203279db025cbadd3d853151fce2296cb5355634691e","id":63330998,"location_subtype":"","month":"2018-02"},{"category":"criminal-damage-arson","location_type":"Force","location":{"latitude":"51.505160","street":{"id":952090,"name":"On or near Kingsbridge Avenue"},"longitude":"-0.288509"},"context":"","outcome_status":{"category":"Investigation complete; no suspect identified","date":"2018-04"},"persistent_id":"412d688e53a77839f19c56451eb02f29a7bbe2fde6fc884ba243d1ec11830103","id":63316656,"location_subtype":"","month":"2018-02"},{"category":"criminal-damage-arson","location_type":"Force","location":{"latitude":"51.501819","street":{"id":952083,"name":"On or near Sports\/recreation Area"},"longitude":"-0.289384"},"context":"","outcome_status":{"category":"Status update unavailable","date":"2018-06"},"persistent_id":"ee3738fc043aa705ccf0aec9c07264ec40442201b050031f454907a2c640c475","id":63326985,"location_subtype":"","month":"2018-02"},{"category":"criminal-damage-arson","location_type":"Force","location":{"latitude":"51.499533","street":{"id":951911,"name":"On or near Hawthorn Gardens"},"longitude":"-0.302897"},"context":"","outcome_status":{"category":"Status update unavailable","date":"2018-06"},"persistent_id":"588140a764ee48f82791dcc1321bc98b8a2edba8236e0e62eabe698d1c8c0772","id":63338339,"location_subtype":"","month":"2018-02"},{"category":"criminal-damage-arson","location_type":"Force","location":{"latitude":"51.503226","street":{"id":951978,"name":"On or near Church Gardens"},"longitude":"-0.305771"},"context":"","outcome_status":{"category":"Status update unavailable","date":"2018-06"},"persistent_id":"68f445e9d4ccfa17948e2f6ef1410f16896abc4bdb267ffd2d8d31ee91cbaf81","id":63325956,"location_subtype":"","month":"2018-02"},{"category":"criminal-damage-arson","location_type":"Force","location":{"latitude":"51.502638","street":{"id":952099,"name":"On or near Baronsmede"},"longitude":"-0.291269"},"context":"","outcome_status":{"category":"Status update unavailable","date":"2018-06"},"persistent_id":"1446ac3c442a18abf37abee4c8cf63671f14b97bb8084ea6ca76e84b36f07813","id":63311335,"location_subtype":"","month":"2018-02"},{"category":"drugs","location_type":"Force","location":{"latitude":"51.511250","street":{"id":957935,"name":"On or near The Grove"},"longitude":"-0.297893"},"context":"","outcome_status":{"category":"Offender given a drugs possession warning","date":"2018-02"},"persistent_id":"efae092d7188c78800078cf22dd7717783e1e0dddd49f011d9904002bbdb0be5","id":63302201,"location_subtype":"","month":"2018-02"},{"category":"other-theft","location_type":"Force","location":{"latitude":"51.502125","street":{"id":951937,"name":"On or near Elderberry Road"},"longitude":"-0.297470"},"context":"","outcome_status":{"category":"Status update unavailable","date":"2018-06"},"persistent_id":"80d5c5b59d2b4a4a2a32658eb2ea6c05e5254dc816a690fa77b9f38e4f74400a","id":63282460,"location_subtype":"","month":"2018-02"},{"category":"other-theft","location_type":"Force","location":{"latitude":"51.502278","street":{"id":951932,"name":"On or near Limes Walk"},"longitude":"-0.302435"},"context":"","outcome_status":{"category":"Investigation complete; no suspect identified","date":"2018-03"},"persistent_id":"d08c379b46d34d68158d607dfcc6e03b5c2c4cf4b73eecac803dd549bca077e7","id":63321966,"location_subtype":"","month":"2018-02"},{"category":"other-theft","location_type":"Force","location":{"latitude":"51.507659","street":{"id":952094,"name":"On or near Elm Avenue"},"longitude":"-0.293344"},"context":"","outcome_status":{"category":"Status update unavailable","date":"2018-06"},"persistent_id":"1ccc19a428f57c44c7c8dfdb0cb5da7ba74b67a389ce51cb6eb85c981dc86ad2","id":63333232,"location_subtype":"","month":"2018-02"},{"category":"other-theft","location_type":"Force","location":{"latitude":"51.509654","street":{"id":957866,"name":"On or near Granville Gardens"},"longitude":"-0.287750"},"context":"","outcome_status":{"category":"Status update unavailable","date":"2018-06"},"persistent_id":"eb0c74e6581efa4b22eae52d76fdec86006539b43cf95a90e111b90076a8b14a","id":63335391,"location_subtype":"","month":"2018-02"},{"category":"other-theft","location_type":"Force","location":{"latitude":"51.501007","street":{"id":952082,"name":"On or near Petrol Station"},"longitude":"-0.286100"},"context":"","outcome_status":{"category":"Investigation complete; no suspect identified","date":"2018-02"},"persistent_id":"a3c720d89446063805961c3595180c366d2f961a66e517bea9532beca5a46a97","id":63283998,"location_subtype":"","month":"2018-02"},{"category":"other-theft","location_type":"Force","location":{"latitude":"51.500011","street":{"id":951971,"name":"On or near Supermarket"},"longitude":"-0.306078"},"context":"","outcome_status":{"category":"Status update unavailable","date":"2018-06"},"persistent_id":"519f16e1e6cbd7e0516c98ba893ec236c1e32ded8650448befc8e594bc5f94df","id":63279912,"location_subtype":"","month":"2018-02"},{"category":"other-theft","location_type":"Force","location":{"latitude":"51.502949","street":{"id":951925,"name":"On or near Rowan Close"},"longitude":"-0.295955"},"context":"","outcome_status":{"category":"Investigation complete; no suspect identified","date":"2018-02"},"persistent_id":"920dae60dab5a0b00c0c5197cd5a38c9527113ecf4295ef62824442dedc75993","id":63290918,"location_subtype":"","month":"2018-02"},{"category":"other-theft","location_type":"Force","location":{"latitude":"51.501007","street":{"id":952082,"name":"On or near Petrol Station"},"longitude":"-0.286100"},"context":"","outcome_status":{"category":"Status update unavailable","date":"2018-06"},"persistent_id":"4454b2e22bff3e7a103fc09833982ac72bd46f703ae839e163ff5a1f0051307e","id":63297542,"location_subtype":"","month":"2018-02"},{"category":"other-theft","location_type":"Force","location":{"latitude":"51.515406","street":{"id":957774,"name":"On or near Waldegrave Road"},"longitude":"-0.290575"},"context":"","outcome_status":{"category":"Status update unavailable","date":"2018-06"},"persistent_id":"53ee1d75348ef033d363dfa2ef63a19328f29dc2e0169a8989ac5cf678121c89","id":63311871,"location_subtype":"","month":"2018-02"},{"category":"other-theft","location_type":"Force","location":{"latitude":"51.503226","street":{"id":951978,"name":"On or near Church Gardens"},"longitude":"-0.305771"},"context":"","outcome_status":{"category":"Status update unavailable","date":"2018-06"},"persistent_id":"c4baf0f0a85e4e3d134fa9c6ad91361015fe88431deae6c1d037654f7fd5ddd3","id":63338823,"location_subtype":"","month":"2018-02"},{"category":"other-theft","location_type":"Force","location":{"latitude":"51.502278","street":{"id":951932,"name":"On or near Limes Walk"},"longitude":"-0.302435"},"context":"","outcome_status":{"category":"Status update unavailable","date":"2018-06"},"persistent_id":"0b21cc5163b7a8d450f75edfe1f15391d90e3be4437d1babcc34b596cb7e027c","id":63339390,"location_subtype":"","month":"2018-02"},{"category":"other-theft","location_type":"Force","location":{"latitude":"51.504181","street":{"id":951973,"name":"On or near St Mary's Square"},"longitude":"-0.306500"},"context":"","outcome_status":{"category":"Investigation complete; no suspect identified","date":"2018-02"},"persistent_id":"a61906a31c1ae5013b2cd2ac661a5db85e36777c1d3af4d853edbdb2ef0457c5","id":63290434,"location_subtype":"","month":"2018-02"},{"category":"other-theft","location_type":"Force","location":{"latitude":"51.501007","street":{"id":952082,"name":"On or near Petrol Station"},"longitude":"-0.286100"},"context":"","outcome_status":{"category":"Investigation complete; no suspect identified","date":"2018-03"},"persistent_id":"c2aaf082aae147ab42a41fbd1692adc1d00c7b2458601784fddaf2ca857f4656","id":63338290,"location_subtype":"","month":"2018-02"},{"category":"other-theft","location_type":"BTP","location":{"latitude":"51.510200","street":{"id":1489473,"name":"Ealing Common (lu Station)"},"longitude":"-0.288275"},"context":"","outcome_status":{"category":"Status update unavailable","date":"2018-06"},"persistent_id":"","id":66313764,"location_subtype":"LU STATION","month":"2018-02"},{"category":"public-order","location_type":"Force","location":{"latitude":"51.500011","street":{"id":951971,"name":"On or near Supermarket"},"longitude":"-0.306078"},"context":"","outcome_status":{"category":"Investigation complete; no suspect identified","date":"2018-03"},"persistent_id":"9ee8f449d97bafb401cd1e24aee33d6ed32b7d3fc2020e4f056b81bc05bb0ff5","id":63282630,"location_subtype":"","month":"2018-02"},{"category":"public-order","location_type":"Force","location":{"latitude":"51.514163","street":{"id":957950,"name":"On or near Hamilton Road"},"longitude":"-0.295364"},"context":"","outcome_status":{"category":"Status update unavailable","date":"2018-06"},"persistent_id":"2a11f60990dac66e6967f8ebc4e7f42bf85a5a5c447cba7c4fccd00a9c896bd0","id":63317802,"location_subtype":"","month":"2018-02"},{"category":"public-order","location_type":"Force","location":{"latitude":"51.502125","street":{"id":951937,"name":"On or near Elderberry Road"},"longitude":"-0.297470"},"context":"","outcome_status":{"category":"Status update unavailable","date":"2018-06"},"persistent_id":"648999dc0dac739ac1e93df54449c1a697c6850bfa77608123fa8e176a90682d","id":63310037,"location_subtype":"","month":"2018-02"},{"category":"public-order","location_type":"Force","location":{"latitude":"51.512148","street":{"id":957790,"name":"On or near Creffield Road"},"longitude":"-0.289761"},"context":"","outcome_status":{"category":"Investigation complete; no suspect identified","date":"2018-05"},"persistent_id":"9803b0ca636a065098f86dc23bcb9a262a9696bb293c44e3b2cea610c126ca47","id":63335497,"location_subtype":"","month":"2018-02"},{"category":"public-order","location_type":"BTP","location":{"latitude":"51.510200","street":{"id":1489473,"name":"Ealing Common (lu Station)"},"longitude":"-0.288275"},"context":"","outcome_status":{"category":"Status update unavailable","date":"2018-06"},"persistent_id":"","id":66313765,"location_subtype":"LU STATION","month":"2018-02"},{"category":"public-order","location_type":"Force","location":{"latitude":"51.511398","street":{"id":957772,"name":"On or near Wolverton Gardens"},"longitude":"-0.288924"},"context":"","outcome_status":{"category":"Status update unavailable","date":"2018-06"},"persistent_id":"4ccd86e87273bf2a85495fc1d41e54f9766c277bb4eff0a4480b2e72a6097f4d","id":63308402,"location_subtype":"","month":"2018-02"},{"category":"public-order","location_type":"Force","location":{"latitude":"51.509654","street":{"id":957866,"name":"On or near Granville Gardens"},"longitude":"-0.287750"},"context":"","outcome_status":{"category":"Status update unavailable","date":"2018-06"},"persistent_id":"64310c71e8b321aa6a00289a79f8bb62cf824f8984a26469b21842518fc6ae1f","id":63333702,"location_subtype":"","month":"2018-02"},{"category":"public-order","location_type":"Force","location":{"latitude":"51.501741","street":{"id":951906,"name":"On or near Palm Grove"},"longitude":"-0.300726"},"context":"","outcome_status":{"category":"Status update unavailable","date":"2018-06"},"persistent_id":"fa84e5930d294d11aa19ba9bedc4e89a7ea716b7760ccaa382def70c4d224d4d","id":63322745,"location_subtype":"","month":"2018-02"},{"category":"public-order","location_type":"Force","location":{"latitude":"51.514163","street":{"id":957950,"name":"On or near Hamilton Road"},"longitude":"-0.295364"},"context":"","outcome_status":{"category":"Status update unavailable","date":"2018-06"},"persistent_id":"2a11f60990dac66e6967f8ebc4e7f42bf85a5a5c447cba7c4fccd00a9c896bd0","id":63317803,"location_subtype":"","month":"2018-02"},{"category":"robbery","location_type":"Force","location":{"latitude":"51.511398","street":{"id":957772,"name":"On or near Wolverton Gardens"},"longitude":"-0.288924"},"context":"","outcome_status":{"category":"Offender sent to prison","date":"2018-03"},"persistent_id":"06568c5c05ef300a162ba804be20e0c541cec411b5cb8a95657ab1563a4725a4","id":63306107,"location_subtype":"","month":"2018-02"},{"category":"robbery","location_type":"Force","location":{"latitude":"51.501623","street":{"id":952080,"name":"On or near Gunnersbury Avenue (north Circular Road)"},"longitude":"-0.285847"},"context":"","outcome_status":{"category":"Status update unavailable","date":"2018-06"},"persistent_id":"9d1ad3e98aca907d3e026fc0d0c9af5d123b2591091feaba05db6f885eeb0972","id":63336107,"location_subtype":"","month":"2018-02"},{"category":"robbery","location_type":"Force","location":{"latitude":"51.500507","street":{"id":951914,"name":"On or near Berry Way"},"longitude":"-0.299951"},"context":"","outcome_status":{"category":"Status update unavailable","date":"2018-06"},"persistent_id":"3a9543dc92560bab5feac474b20ab8590389408cd6676acdb8b31701b986ec8f","id":63296248,"location_subtype":"","month":"2018-02"},{"category":"robbery","location_type":"Force","location":{"latitude":"51.503785","street":{"id":952098,"name":"On or near Boddington Gardens"},"longitude":"-0.284224"},"context":"","outcome_status":{"category":"Investigation complete; no suspect identified","date":"2018-04"},"persistent_id":"e2d90332f893128d4169e18e80d6b5be8ba37f32d091f9e0988febe599d0a090","id":63337600,"location_subtype":"","month":"2018-02"},{"category":"shoplifting","location_type":"Force","location":{"latitude":"51.502284","street":{"id":951979,"name":"On or near Petrol Station"},"longitude":"-0.306570"},"context":"","outcome_status":{"category":"Investigation complete; no suspect identified","date":"2018-02"},"persistent_id":"e2f27419603fba1a856cfaba33c91fd4c134a5495d1a58f10ec57f9f4860b1db","id":63282081,"location_subtype":"","month":"2018-02"},{"category":"shoplifting","location_type":"Force","location":{"latitude":"51.500011","street":{"id":951971,"name":"On or near Supermarket"},"longitude":"-0.306078"},"context":"","outcome_status":{"category":"Status update unavailable","date":"2018-06"},"persistent_id":"9ee8f449d97bafb401cd1e24aee33d6ed32b7d3fc2020e4f056b81bc05bb0ff5","id":63282059,"location_subtype":"","month":"2018-02"},{"category":"theft-from-the-person","location_type":"Force","location":{"latitude":"51.512514","street":{"id":957784,"name":"On or near Gatcombe Mews"},"longitude":"-0.291433"},"context":"","outcome_status":{"category":"Status update unavailable","date":"2018-06"},"persistent_id":"d32859441f3fe6cd8b3844ecec0c24334422b3bd6a8eb2e27cbf3e56c47acad8","id":63296235,"location_subtype":"","month":"2018-02"},{"category":"vehicle-crime","location_type":"Force","location":{"latitude":"51.504125","street":{"id":951977,"name":"On or near Church Place"},"longitude":"-0.305796"},"context":"","outcome_status":{"category":"Status update unavailable","date":"2018-06"},"persistent_id":"39fc6f838d403b736ac08efed90ac39514e3a6d27ad3038bfe4a1802a356262f","id":63325958,"location_subtype":"","month":"2018-02"},{"category":"vehicle-crime","location_type":"Force","location":{"latitude":"51.511398","street":{"id":957772,"name":"On or near Wolverton Gardens"},"longitude":"-0.288924"},"context":"","outcome_status":{"category":"Status update unavailable","date":"2018-06"},"persistent_id":"2239051d9b6a28aa975fba95fc011ee40eda0ee358b9d5b5c5dcad54786c740e","id":63297117,"location_subtype":"","month":"2018-02"},{"category":"vehicle-crime","location_type":"Force","location":{"latitude":"51.507710","street":{"id":951920,"name":"On or near Warwick Road"},"longitude":"-0.297478"},"context":"","outcome_status":{"category":"Status update unavailable","date":"2018-06"},"persistent_id":"410f8a061d6d0c98a0441b9d256c8d4478a3351c05bd633a6ae393898d6a36f5","id":63311291,"location_subtype":"","month":"2018-02"},{"category":"vehicle-crime","location_type":"Force","location":{"latitude":"51.512148","street":{"id":957790,"name":"On or near Creffield Road"},"longitude":"-0.289761"},"context":"","outcome_status":{"category":"Status update unavailable","date":"2018-06"},"persistent_id":"76c0cb585da17d9b1dc3079aa8f96b70de6dbcf8eefb9049ca79f6ab7d73a577","id":63291915,"location_subtype":"","month":"2018-02"},{"category":"vehicle-crime","location_type":"Force","location":{"latitude":"51.510482","street":{"id":957979,"name":"On or near Windsor Road"},"longitude":"-0.300127"},"context":"","outcome_status":{"category":"Status update unavailable","date":"2018-06"},"persistent_id":"091d67a8d52c8fcc59eeab2ba6d85ea3b865e40827ab493f20bfbea98eb70849","id":63312897,"location_subtype":"","month":"2018-02"},{"category":"vehicle-crime","location_type":"Force","location":{"latitude":"51.515406","street":{"id":957774,"name":"On or near Waldegrave Road"},"longitude":"-0.290575"},"context":"","outcome_status":{"category":"Status update unavailable","date":"2018-06"},"persistent_id":"10f1a5fd5479bf804ea36714c96fa1fbfa06152471ff7b90c0b86ae390d81257","id":63313329,"location_subtype":"","month":"2018-02"},{"category":"vehicle-crime","location_type":"Force","location":{"latitude":"51.505160","street":{"id":952090,"name":"On or near Kingsbridge Avenue"},"longitude":"-0.288509"},"context":"","outcome_status":{"category":"Status update unavailable","date":"2018-06"},"persistent_id":"7e6a7f6d8816f73d11df8450e7241f93e3bc994f1cf91a8c402827ab932cfa36","id":63287812,"location_subtype":"","month":"2018-02"},{"category":"vehicle-crime","location_type":"Force","location":{"latitude":"51.500276","street":{"id":951902,"name":"On or near Sycamore Avenue"},"longitude":"-0.303849"},"context":"","outcome_status":{"category":"Status update unavailable","date":"2018-06"},"persistent_id":"73c64043345bf185db66e5f162997b9bf41d2d3784ad05f7b2161193103a8a21","id":63326253,"location_subtype":"","month":"2018-02"},{"category":"vehicle-crime","location_type":"Force","location":{"latitude":"51.515406","street":{"id":957774,"name":"On or near Waldegrave Road"},"longitude":"-0.290575"},"context":"","outcome_status":{"category":"Status update unavailable","date":"2018-06"},"persistent_id":"66544dca956898c29c937228d9d5b1c544c869db4752c56c4af621c2c5a6eeed","id":63291539,"location_subtype":"","month":"2018-02"},{"category":"vehicle-crime","location_type":"Force","location":{"latitude":"51.502500","street":{"id":952071,"name":"On or near Gunnersbury Gardens"},"longitude":"-0.283681"},"context":"","outcome_status":{"category":"Status update unavailable","date":"2018-06"},"persistent_id":"4d16f6c9460363e026b304d880d853e189aaa5d944b69cb15dd3742df4364a6d","id":63330752,"location_subtype":"","month":"2018-02"},{"category":"vehicle-crime","location_type":"Force","location":{"latitude":"51.506148","street":{"id":951921,"name":"On or near Warwick Place"},"longitude":"-0.303905"},"context":"","outcome_status":{"category":"Status update unavailable","date":"2018-06"},"persistent_id":"bb732741d9ca7d6a4de8ab82ebe8ef785f1dfaa73e1adac3638631e647b8c76b","id":63288707,"location_subtype":"","month":"2018-02"},{"category":"vehicle-crime","location_type":"Force","location":{"latitude":"51.502284","street":{"id":951979,"name":"On or near Petrol Station"},"longitude":"-0.306570"},"context":"","outcome_status":{"category":"Status update unavailable","date":"2018-06"},"persistent_id":"09ee826d9d141bfb385ce8fdffaefd22f92198b046ad809c252e8e612a4097e1","id":63285087,"location_subtype":"","month":"2018-02"},{"category":"vehicle-crime","location_type":"Force","location":{"latitude":"51.501741","street":{"id":951906,"name":"On or near Palm Grove"},"longitude":"-0.300726"},"context":"","outcome_status":{"category":"Status update unavailable","date":"2018-06"},"persistent_id":"ff1ba873c50ac3c4e2904f7f71f83d032d71fdc621c2e7922c843129bd741675","id":63317134,"location_subtype":"","month":"2018-02"},{"category":"vehicle-crime","location_type":"Force","location":{"latitude":"51.506148","street":{"id":951921,"name":"On or near Warwick Place"},"longitude":"-0.303905"},"context":"","outcome_status":{"category":"Status update unavailable","date":"2018-06"},"persistent_id":"80ff795d1c68b45eeb0ee1c11e18e12ea73d138ac5e2aa9360e9486475f1fa36","id":63317767,"location_subtype":"","month":"2018-02"},{"category":"vehicle-crime","location_type":"Force","location":{"latitude":"51.512148","street":{"id":957790,"name":"On or near Creffield Road"},"longitude":"-0.289761"},"context":"","outcome_status":{"category":"Status update unavailable","date":"2018-06"},"persistent_id":"a6078763ca60e7c71eb1d061c208aeececf5d559dd6e1ec3ce27be76fceb7266","id":63284463,"location_subtype":"","month":"2018-02"},{"category":"vehicle-crime","location_type":"Force","location":{"latitude":"51.502125","street":{"id":951937,"name":"On or near Elderberry Road"},"longitude":"-0.297470"},"context":"","outcome_status":{"category":"Status update unavailable","date":"2018-06"},"persistent_id":"f7ab24121aef30ec9819f5a04dc604bc43b8be2f9869d16148b947041002cecf","id":63300398,"location_subtype":"","month":"2018-02"},{"category":"vehicle-crime","location_type":"Force","location":{"latitude":"51.511398","street":{"id":957772,"name":"On or near Wolverton Gardens"},"longitude":"-0.288924"},"context":"","outcome_status":{"category":"Status update unavailable","date":"2018-06"},"persistent_id":"b36eb141c94bf78216bb6c7bcef7c9f9323c297e5fff0c2088b62a76f733a464","id":63302732,"location_subtype":"","month":"2018-02"},{"category":"vehicle-crime","location_type":"Force","location":{"latitude":"51.501007","street":{"id":952082,"name":"On or near Petrol Station"},"longitude":"-0.286100"},"context":"","outcome_status":{"category":"Status update unavailable","date":"2018-06"},"persistent_id":"09f68f145e03a709a738ec7ddf8f6a213f0d53482cf348783bce8f921624eea0","id":63303214,"location_subtype":"","month":"2018-02"},{"category":"vehicle-crime","location_type":"Force","location":{"latitude":"51.500507","street":{"id":951914,"name":"On or near Berry Way"},"longitude":"-0.299951"},"context":"","outcome_status":{"category":"Status update unavailable","date":"2018-06"},"persistent_id":"4fb9f3f490d0787f01b9bdff016307b27ab2823d23ad03bbc7be0056f78f3746","id":63304251,"location_subtype":"","month":"2018-02"},{"category":"vehicle-crime","location_type":"Force","location":{"latitude":"51.512763","street":{"id":957778,"name":"On or near North Common Road"},"longitude":"-0.294969"},"context":"","outcome_status":{"category":"Status update unavailable","date":"2018-06"},"persistent_id":"1cf5044216cf908dbd6cad91125450567d7faa59307dc88f6b0d3cef4593cbf0","id":63304027,"location_subtype":"","month":"2018-02"},{"category":"vehicle-crime","location_type":"Force","location":{"latitude":"51.512936","street":{"id":957781,"name":"On or near Inglis Road"},"longitude":"-0.288953"},"context":"","outcome_status":{"category":"Status update unavailable","date":"2018-06"},"persistent_id":"9580989737d5db643dce1a72b864b2def88f454d63e01ec34f687a04b07443b1","id":63337784,"location_subtype":"","month":"2018-02"},{"category":"vehicle-crime","location_type":"Force","location":{"latitude":"51.502033","street":{"id":952078,"name":"On or near Knight's Avenue"},"longitude":"-0.294808"},"context":"","outcome_status":{"category":"Status update unavailable","date":"2018-06"},"persistent_id":"148b7ba496f8325175db4a1f4ccfcaa420fd7cce15e72a5880867efc2bae56b9","id":63334080,"location_subtype":"","month":"2018-02"},{"category":"vehicle-crime","location_type":"Force","location":{"latitude":"51.505318","street":{"id":951938,"name":"On or near Blandford Road"},"longitude":"-0.303100"},"context":"","outcome_status":{"category":"Status update unavailable","date":"2018-06"},"persistent_id":"f357eb03c20de0f0c6ada079c308c0b1bc3111071e5b127e97722620c6421491","id":63334279,"location_subtype":"","month":"2018-02"},{"category":"vehicle-crime","location_type":"Force","location":{"latitude":"51.513237","street":{"id":957786,"name":"On or near Freeland Road"},"longitude":"-0.290455"},"context":"","outcome_status":{"category":"Status update unavailable","date":"2018-06"},"persistent_id":"7d61cd677e60e03a8ced9315f6b2c3d1e9173082d0d41b700d60335efb0a68dd","id":63338142,"location_subtype":"","month":"2018-02"},{"category":"vehicle-crime","location_type":"Force","location":{"latitude":"51.510080","street":{"id":957864,"name":"On or near Leopold Road"},"longitude":"-0.290415"},"context":"","outcome_status":{"category":"Status update unavailable","date":"2018-06"},"persistent_id":"e8abcbe327c9b04e3f17b0658c509d12a4f5614eba0f5fc68e7d2e063bf9536b","id":63338513,"location_subtype":"","month":"2018-02"},{"category":"vehicle-crime","location_type":"Force","location":{"latitude":"51.510080","street":{"id":957864,"name":"On or near Leopold Road"},"longitude":"-0.290415"},"context":"","outcome_status":{"category":"Status update unavailable","date":"2018-06"},"persistent_id":"6a6e7c77c6e9bdf6f13ccac8ada62bb9b7e01982bb48f0be8a7304fa372d6bda","id":63338514,"location_subtype":"","month":"2018-02"},{"category":"vehicle-crime","location_type":"Force","location":{"latitude":"51.507681","street":{"id":952101,"name":"On or near Arran Mews"},"longitude":"-0.290519"},"context":"","outcome_status":{"category":"Status update unavailable","date":"2018-06"},"persistent_id":"84eee5b4da98abe8ea5dd980b51d3e628608cf7e0510f42c1877d8479c0a9535","id":63309352,"location_subtype":"","month":"2018-02"},{"category":"vehicle-crime","location_type":"Force","location":{"latitude":"51.511250","street":{"id":957935,"name":"On or near The Grove"},"longitude":"-0.297893"},"context":"","outcome_status":{"category":"Investigation complete; no suspect identified","date":"2018-03"},"persistent_id":"5eaf33388453f0e3ca54e5dd30ee6a7c103c84f5666d13dc71edee1b07d7bb11","id":63334104,"location_subtype":"","month":"2018-02"},{"category":"vehicle-crime","location_type":"Force","location":{"latitude":"51.502284","street":{"id":951979,"name":"On or near Petrol Station"},"longitude":"-0.306570"},"context":"","outcome_status":{"category":"Status update unavailable","date":"2018-06"},"persistent_id":"e9f69c873ceace94119b454ce814af30babc04ae23fb529ac552b4f80a8c3cf2","id":63297126,"location_subtype":"","month":"2018-02"},{"category":"vehicle-crime","location_type":"Force","location":{"latitude":"51.513755","street":{"id":957782,"name":"On or near Hanger Lane (north Circular Road)"},"longitude":"-0.292093"},"context":"","outcome_status":{"category":"Status update unavailable","date":"2018-06"},"persistent_id":"2def75b29d2b312a1d62fd9b6dd00c674df97348695b15659ed4d87a253dfc54","id":63297786,"location_subtype":"","month":"2018-02"},{"category":"vehicle-crime","location_type":"Force","location":{"latitude":"51.507710","street":{"id":951920,"name":"On or near Warwick Road"},"longitude":"-0.297478"},"context":"","outcome_status":{"category":"Status update unavailable","date":"2018-06"},"persistent_id":"4ddc20c59943aa31ed36e105e43f96ae7095dd075388a15e29368ea9744f82fc","id":63305012,"location_subtype":"","month":"2018-02"},{"category":"vehicle-crime","location_type":"Force","location":{"latitude":"51.502284","street":{"id":951979,"name":"On or near Petrol Station"},"longitude":"-0.306570"},"context":"","outcome_status":{"category":"Status update unavailable","date":"2018-06"},"persistent_id":"ba03eedef3efaf93bc54a75c8ae72ec7b618f19cbd08f6c22be0861219dfc782","id":63305206,"location_subtype":"","month":"2018-02"},{"category":"violent-crime","location_type":"Force","location":{"latitude":"51.513102","street":{"id":957941,"name":"On or near Northcote Avenue"},"longitude":"-0.299727"},"context":"","outcome_status":{"category":"Status update unavailable","date":"2018-06"},"persistent_id":"ad81671f558e98708fb63f3d40e74745e664b277036c610ddb6c80720cfaf305","id":63324335,"location_subtype":"","month":"2018-02"},{"category":"violent-crime","location_type":"Force","location":{"latitude":"51.501522","street":{"id":923560,"name":"On or near Parking Area"},"longitude":"-0.306699"},"context":"","outcome_status":{"category":"Status update unavailable","date":"2018-06"},"persistent_id":"9c2286cea81733157533782c96b2f17f9889cc366a08f0766d833d3010b2e512","id":63333448,"location_subtype":"","month":"2018-02"},{"category":"violent-crime","location_type":"Force","location":{"latitude":"51.501522","street":{"id":923560,"name":"On or near Parking Area"},"longitude":"-0.306699"},"context":"","outcome_status":{"category":"Status update unavailable","date":"2018-06"},"persistent_id":"9c2286cea81733157533782c96b2f17f9889cc366a08f0766d833d3010b2e512","id":63333449,"location_subtype":"","month":"2018-02"},{"category":"violent-crime","location_type":"Force","location":{"latitude":"51.503787","street":{"id":951972,"name":"On or near Parking Area"},"longitude":"-0.306615"},"context":"","outcome_status":{"category":"Status update unavailable","date":"2018-06"},"persistent_id":"e290b1aecc83f602a620b74967b4bd42886910b9df37b8c8b165e880e323c6b1","id":63286948,"location_subtype":"","month":"2018-02"},{"category":"violent-crime","location_type":"Force","location":{"latitude":"51.502125","street":{"id":951937,"name":"On or near Elderberry Road"},"longitude":"-0.297470"},"context":"","outcome_status":{"category":"Status update unavailable","date":"2018-06"},"persistent_id":"143efa616eb5c92dfc13e39bfeb5d6cf38b32ff3a18d9e1b01dd47022769b4e4","id":63278866,"location_subtype":"","month":"2018-02"},{"category":"violent-crime","location_type":"Force","location":{"latitude":"51.513755","street":{"id":957782,"name":"On or near Hanger Lane (north Circular Road)"},"longitude":"-0.292093"},"context":"","outcome_status":{"category":"Status update unavailable","date":"2018-06"},"persistent_id":"64d73ac364d38616d57bcf26ccecdfbe4234aff3af42e8deee992dfbe7e1502a","id":63306437,"location_subtype":"","month":"2018-02"},{"category":"violent-crime","location_type":"Force","location":{"latitude":"51.505527","street":{"id":952087,"name":"On or near St Pauls Close"},"longitude":"-0.293280"},"context":"","outcome_status":{"category":"Investigation complete; no suspect identified","date":"2018-03"},"persistent_id":"bfa4cca033ffdfe5780ef1b7839993d95964330a6e92a07dc970b6d515c3f1d6","id":63336569,"location_subtype":"","month":"2018-02"},{"category":"violent-crime","location_type":"Force","location":{"latitude":"51.509654","street":{"id":957866,"name":"On or near Granville Gardens"},"longitude":"-0.287750"},"context":"","outcome_status":{"category":"Status update unavailable","date":"2018-06"},"persistent_id":"291800d47f17ba6bd4f2fc12e2771bb8ce001387887f64c574efd2698543ce6f","id":63321486,"location_subtype":"","month":"2018-02"},{"category":"violent-crime","location_type":"Force","location":{"latitude":"51.500394","street":{"id":951910,"name":"On or near Lilac Gardens"},"longitude":"-0.303355"},"context":"","outcome_status":{"category":"Status update unavailable","date":"2018-06"},"persistent_id":"16d407afd6df38b111ee980bb757a900d63768f98df04aba520e8d53613f3091","id":63322147,"location_subtype":"","month":"2018-02"},{"category":"violent-crime","location_type":"Force","location":{"latitude":"51.507710","street":{"id":951920,"name":"On or near Warwick Road"},"longitude":"-0.297478"},"context":"","outcome_status":{"category":"Status update unavailable","date":"2018-06"},"persistent_id":"d14daf37923a0c2223e8ea7aceb47a61017531c3898355ea95f9afc5a7dc57f7","id":63337367,"location_subtype":"","month":"2018-02"},{"category":"violent-crime","location_type":"Force","location":{"latitude":"51.513755","street":{"id":957782,"name":"On or near Hanger Lane (north Circular Road)"},"longitude":"-0.292093"},"context":"","outcome_status":{"category":"Status update unavailable","date":"2018-06"},"persistent_id":"8c709df566a1e4b24df81c0160fac0d369dc1d7b612ee0577b30cf7a8e41dacc","id":63306720,"location_subtype":"","month":"2018-02"},{"category":"violent-crime","location_type":"Force","location":{"latitude":"51.513755","street":{"id":957782,"name":"On or near Hanger Lane (north Circular Road)"},"longitude":"-0.292093"},"context":"","outcome_status":{"category":"Status update unavailable","date":"2018-06"},"persistent_id":"8c709df566a1e4b24df81c0160fac0d369dc1d7b612ee0577b30cf7a8e41dacc","id":63306721,"location_subtype":"","month":"2018-02"},{"category":"violent-crime","location_type":"Force","location":{"latitude":"51.513237","street":{"id":957786,"name":"On or near Freeland Road"},"longitude":"-0.290455"},"context":"","outcome_status":{"category":"Status update unavailable","date":"2018-06"},"persistent_id":"78fc9c34a92f21a03511332d2d9b3638fdf95854979adf479737cf1170a26940","id":63337414,"location_subtype":"","month":"2018-02"},{"category":"violent-crime","location_type":"Force","location":{"latitude":"51.509654","street":{"id":957866,"name":"On or near Granville Gardens"},"longitude":"-0.287750"},"context":"","outcome_status":{"category":"Offender given community sentence","date":"2018-02"},"persistent_id":"45016a2294870c58a503b425054de7add46a88c0f7d7fc6e86e9a8c69fe66ff5","id":63325322,"location_subtype":"","month":"2018-02"},{"category":"violent-crime","location_type":"Force","location":{"latitude":"51.509654","street":{"id":957866,"name":"On or near Granville Gardens"},"longitude":"-0.287750"},"context":"","outcome_status":{"category":"Status update unavailable","date":"2018-06"},"persistent_id":"64310c71e8b321aa6a00289a79f8bb62cf824f8984a26469b21842518fc6ae1f","id":63333392,"location_subtype":"","month":"2018-02"},{"category":"violent-crime","location_type":"Force","location":{"latitude":"51.505781","street":{"id":951926,"name":"On or near Richmond Road"},"longitude":"-0.300244"},"context":"","outcome_status":{"category":"Status update unavailable","date":"2018-06"},"persistent_id":"10be7f818e303b98b4e155ff2bf9514779c5396dcac356248387bef0361581cd","id":63314351,"location_subtype":"","month":"2018-02"},{"category":"violent-crime","location_type":"Force","location":{"latitude":"51.513755","street":{"id":957782,"name":"On or near Hanger Lane (north Circular Road)"},"longitude":"-0.292093"},"context":"","outcome_status":{"category":"Status update unavailable","date":"2018-06"},"persistent_id":"8c709df566a1e4b24df81c0160fac0d369dc1d7b612ee0577b30cf7a8e41dacc","id":63306141,"location_subtype":"","month":"2018-02"},{"category":"violent-crime","location_type":"Force","location":{"latitude":"51.512514","street":{"id":957784,"name":"On or near Gatcombe Mews"},"longitude":"-0.291433"},"context":"","outcome_status":{"category":"Investigation complete; no suspect identified","date":"2018-04"},"persistent_id":"0d9078bfbbec42337897b93fe57f2b6173a08f2dc013c9b170784dcb414b1607","id":63338664,"location_subtype":"","month":"2018-02"},{"category":"violent-crime","location_type":"Force","location":{"latitude":"51.509654","street":{"id":957866,"name":"On or near Granville Gardens"},"longitude":"-0.287750"},"context":"","outcome_status":{"category":"Status update unavailable","date":"2018-06"},"persistent_id":"45016a2294870c58a503b425054de7add46a88c0f7d7fc6e86e9a8c69fe66ff5","id":63325321,"location_subtype":"","month":"2018-02"},{"category":"violent-crime","location_type":"Force","location":{"latitude":"51.505320","street":{"id":951939,"name":"On or near Ascott Avenue"},"longitude":"-0.298835"},"context":"","outcome_status":{"category":"Investigation complete; no suspect identified","date":"2018-02"},"persistent_id":"c3c603386c87a653c82aefd4977b29437c1657cba96735eb12b790a7762f8ca9","id":63291602,"location_subtype":"","month":"2018-02"},{"category":"violent-crime","location_type":"Force","location":{"latitude":"51.505527","street":{"id":952087,"name":"On or near St Pauls Close"},"longitude":"-0.293280"},"context":"","outcome_status":{"category":"Status update unavailable","date":"2018-06"},"persistent_id":"6a3b27c2d3eae8fe9ea39bbbd8b48ddd24fef2f265005b0ecce1821a30ddac99","id":63318467,"location_subtype":"","month":"2018-02"},{"category":"violent-crime","location_type":"Force","location":{"latitude":"51.508538","street":{"id":957983,"name":"On or near St Matthew's Road"},"longitude":"-0.296308"},"context":"","outcome_status":{"category":"Status update unavailable","date":"2018-06"},"persistent_id":"0a7d09897364e5f8be7c9e371fa05269e7f017ca51664c55aec193d349213c4e","id":63285943,"location_subtype":"","month":"2018-02"},{"category":"violent-crime","location_type":"Force","location":{"latitude":"51.509654","street":{"id":957866,"name":"On or near Granville Gardens"},"longitude":"-0.287750"},"context":"","outcome_status":{"category":"Status update unavailable","date":"2018-06"},"persistent_id":"45016a2294870c58a503b425054de7add46a88c0f7d7fc6e86e9a8c69fe66ff5","id":63325320,"location_subtype":"","month":"2018-02"},{"category":"violent-crime","location_type":"Force","location":{"latitude":"51.498994","street":{"id":951967,"name":"On or near South Ealing Road"},"longitude":"-0.306043"},"context":"","outcome_status":{"category":"Awaiting court outcome","date":"2018-02"},"persistent_id":"73efa1a09de7972e1b17cf2cde7b5161eb4ead3be43bd96cb64ab22d540e74ce","id":63300506,"location_subtype":"","month":"2018-02"},{"category":"violent-crime","location_type":"Force","location":{"latitude":"51.507947","street":{"id":957869,"name":"On or near Crosslands Avenue"},"longitude":"-0.290278"},"context":"","outcome_status":{"category":"Investigation complete; no suspect identified","date":"2018-02"},"persistent_id":"3382239efacd53d5d1f92f15e3904b5a6970f43864844f76c233e7bd60396f89","id":63301505,"location_subtype":"","month":"2018-02"},{"category":"violent-crime","location_type":"Force","location":{"latitude":"51.513102","street":{"id":957941,"name":"On or near Northcote Avenue"},"longitude":"-0.299727"},"context":"","outcome_status":{"category":"Status update unavailable","date":"2018-06"},"persistent_id":"ad81671f558e98708fb63f3d40e74745e664b277036c610ddb6c80720cfaf305","id":63324336,"location_subtype":"","month":"2018-02"},{"category":"violent-crime","location_type":"Force","location":{"latitude":"51.501715","street":{"id":951916,"name":"On or near Ash Grove"},"longitude":"-0.298277"},"context":"","outcome_status":{"category":"Investigation complete; no suspect identified","date":"2018-02"},"persistent_id":"a8a0a92a4e6f4b6b7cd7b96ef489ac4f0edb0f4f9d2160a50677b3b02eef7cd4","id":63281162,"location_subtype":"","month":"2018-02"},{"category":"violent-crime","location_type":"Force","location":{"latitude":"51.500860","street":{"id":951966,"name":"On or near Sunderland Road"},"longitude":"-0.305701"},"context":"","outcome_status":{"category":"Status update unavailable","date":"2018-06"},"persistent_id":"0d88cc43948fd3d46c103ac2c95d4512913d3d5a503cb8a4644f0136f456270f","id":63303201,"location_subtype":"","month":"2018-02"},{"category":"violent-crime","location_type":"Force","location":{"latitude":"51.502125","street":{"id":951937,"name":"On or near Elderberry Road"},"longitude":"-0.297470"},"context":"","outcome_status":{"category":"Awaiting court outcome","date":"2018-03"},"persistent_id":"143efa616eb5c92dfc13e39bfeb5d6cf38b32ff3a18d9e1b01dd47022769b4e4","id":63278867,"location_subtype":"","month":"2018-02"},{"category":"violent-crime","location_type":"Force","location":{"latitude":"51.513237","street":{"id":957786,"name":"On or near Freeland Road"},"longitude":"-0.290455"},"context":"","outcome_status":{"category":"Status update unavailable","date":"2018-06"},"persistent_id":"a15f4a98a32eb5ac31c9e03dd62e2e3826246d774786ad551e4926e927c319e8","id":63312682,"location_subtype":"","month":"2018-02"},{"category":"violent-crime","location_type":"Force","location":{"latitude":"51.513237","street":{"id":957786,"name":"On or near Freeland Road"},"longitude":"-0.290455"},"context":"","outcome_status":{"category":"Status update unavailable","date":"2018-06"},"persistent_id":"09ca95d9ef7175882216c1e60b3cc0d399d6d7e4fbc7f41325ff64abcc9b05b2","id":63291193,"location_subtype":"","month":"2018-02"},{"category":"violent-crime","location_type":"Force","location":{"latitude":"51.513237","street":{"id":957786,"name":"On or near Freeland Road"},"longitude":"-0.290455"},"context":"","outcome_status":{"category":"Investigation complete; no suspect identified","date":"2018-04"},"persistent_id":"09ca95d9ef7175882216c1e60b3cc0d399d6d7e4fbc7f41325ff64abcc9b05b2","id":63291194,"location_subtype":"","month":"2018-02"},{"category":"other-crime","location_type":"Force","location":{"latitude":"51.500307","street":{"id":951903,"name":"On or near Rose Gardens"},"longitude":"-0.302278"},"context":"","outcome_status":{"category":"Investigation complete; no suspect identified","date":"2018-02"},"persistent_id":"cc81f2085f05c497290bb3e93adf9f9ffaa1b83e783b36dcbd3f891cda86c298","id":63280134,"location_subtype":"","month":"2018-02"}]