[{"category":"anti-social-behaviour","location_type":"Force","location":{"latitude":"51.489143","street":{"id":948369,"name":"On or near Maryon Road"},"longitude":"0.046616"},"context":"","outcome_status":null,"persistent_id":"","id":63269180,"location_subtype":"","month":"2018-02"},{"category":"anti-social-behaviour","location_type":"Force","location":{"latitude":"51.486595","street":{"id":948374,"name":"On or near Heathwood Gardens"},"longitude":"0.047323"},"context":"","outcome_status":null,"persistent_id":"","id":63269183,"location_subtype":"","month":"2018-02"},{"category":"anti-social-behaviour","location_type":"Force","location":{"latitude":"51.494321","street":{"id":954483,"name":"On or near Harlinger Street"},"longitude":"0.048303"},"context":"","outcome_status":null,"persistent_id":"","id":63269185,"location_subtype":"","month":"2018-02"},{"category":"anti-social-behaviour","location_type":"Force","location":{"latitude":"51.491486","street":{"id":954488,"name":"On or near Clevely Close"},"longitude":"0.043811"},"context":"","outcome_status":null,"persistent_id":"","id":63269640,"location_subtype":"","month":"2018-02"},{"category":"anti-social-behaviour","location_type":"Force","location":{"latitude":"51.493818","street":{"id":954442,"name":"On or near Woolwich High Street"},"longitude":"0.063666"},"context":"","outcome_status":null,"persistent_id":"","id":63269133,"location_subtype":"","month":"2018-02"},{"category":"anti-social-behaviour","location_type":"Force","location":{"latitude":"51.493818","street":{"id":954442,"name":"On or near Woolwich High Street"},"longitude":"0.063666"},"context":"","outcome_status":null,"persistent_id":"","id":63269134,"location_subtype":"","month":"2018-02"},{"category":"anti-social-behaviour","location_type":"Force","location":{"latitude":"51.490788","street":{"id":954497,"name":"On or near Pedestrian Subway"},"longitude":"0.062089"},"context":"","outcome_status":null,"persistent_id":"","id":63269136,"location_subtype":"","month":"2018-02"},{"category":"anti-social-behaviour","location_type":"Force","location":{"latitude":"51.492568","street":{"id":954446,"name":"On or near Powis Street"},"longitude":"0.062616"},"context":"","outcome_status":null,"persistent_id":"","id":63269137,"location_subtype":"","month":"2018-02"},{"category":"anti-social-behaviour","location_type":"Force","location":{"latitude":"51.493677","street":{"id":923897,"name":"On or near Venus Road"},"longitude":"0.054238"},"context":"","outcome_status":null,"persistent_id":"","id":63269165,"location_subtype":"","month":"2018-02"},{"category":"anti-social-behaviour","location_type":"Force","location":{"latitude":"51.493612","street":{"id":954444,"name":"On or near Woolwich Church Street"},"longitude":"0.057952"},"context":"","outcome_status":null,"persistent_id":"","id":63269150,"location_subtype":"","month":"2018-02"},{"category":"anti-social-behaviour","location_type":"Force","location":{"latitude":"51.489143","street":{"id":948369,"name":"On or near Maryon Road"},"longitude":"0.046616"},"context":"","outcome_status":null,"persistent_id":"","id":63269182,"location_subtype":"","month":"2018-02"},{"category":"anti-social-behaviour","location_type":"Force","location":{"latitude":"51.491998","street":{"id":954501,"name":"On or near Sunbury Street"},"longitude":"0.057678"},"context":"","outcome_status":null,"persistent_id":"","id":63269153,"location_subtype":"","month":"2018-02"},{"category":"anti-social-behaviour","location_type":"Force","location":{"latitude":"51.492082","street":{"id":954513,"name":"On or near Lord Warwick Street"},"longitude":"0.054987"},"context":"","outcome_status":null,"persistent_id":"","id":63269155,"location_subtype":"","month":"2018-02"},{"category":"anti-social-behaviour","location_type":"Force","location":{"latitude":"51.488303","street":{"id":948399,"name":"On or near Dairy Lane"},"longitude":"0.054544"},"context":"","outcome_status":null,"persistent_id":"","id":63269157,"location_subtype":"","month":"2018-02"},{"category":"anti-social-behaviour","location_type":"Force","location":{"latitude":"51.489520","street":{"id":954500,"name":"On or near Whitby Road"},"longitude":"0.054411"},"context":"","outcome_status":null,"persistent_id":"","id":63269159,"location_subtype":"","month":"2018-02"},{"category":"anti-social-behaviour","location_type":"Force","location":{"latitude":"51.493677","street":{"id":923897,"name":"On or near Venus Road"},"longitude":"0.054238"},"context":"","outcome_status":null,"persistent_id":"","id":63269164,"location_subtype":"","month":"2018-02"},{"category":"anti-social-behaviour","location_type":"Force","location":{"latitude":"51.490329","street":{"id":954527,"name":"On or near Borgard Road"},"longitude":"0.053915"},"context":"","outcome_status":null,"persistent_id":"","id":63269168,"location_subtype":"","month":"2018-02"},{"category":"anti-social-behaviour","location_type":"Force","location":{"latitude":"51.491409","street":{"id":954510,"name":"On or near Marybank"},"longitude":"0.053877"},"context":"","outcome_status":null,"persistent_id":"","id":63269169,"location_subtype":"","month":"2018-02"},{"category":"anti-social-behaviour","location_type":"Force","location":{"latitude":"51.487771","street":{"id":948380,"name":"On or near Woodrow"},"longitude":"0.051581"},"context":"","outcome_status":null,"persistent_id":"","id":63269172,"location_subtype":"","month":"2018-02"},{"category":"anti-social-behaviour","location_type":"Force","location":{"latitude":"51.493873","street":{"id":954445,"name":"On or near Spindle Close"},"longitude":"0.050775"},"context":"","outcome_status":null,"persistent_id":"","id":63269174,"location_subtype":"","month":"2018-02"},{"category":"anti-social-behaviour","location_type":"Force","location":{"latitude":"51.493873","street":{"id":954445,"name":"On or near Spindle Close"},"longitude":"0.050775"},"context":"","outcome_status":null,"persistent_id":"","id":63269175,"location_subtype":"","month":"2018-02"},{"category":"anti-social-behaviour","location_type":"Force","location":{"latitude":"51.493873","street":{"id":954445,"name":"On or near Spindle Close"},"longitude":"0.050775"},"context":"","outcome_status":null,"persistent_id":"","id":63269176,"location_subtype":"","month":"2018-02"},{"category":"anti-social-behaviour","location_type":"Force","location":{"latitude":"51.489143","street":{"id":948369,"name":"On or near Maryon Road"},"longitude":"0.046616"},"context":"","outcome_status":null,"persistent_id":"","id":63269179,"location_subtype":"","month":"2018-02"},{"category":"anti-social-behaviour","location_type":"Force","location":{"latitude":"51.489143","street":{"id":948369,"name":"On or near Maryon Road"},"longitude":"0.046616"},"context":"","outcome_status":null,"persistent_id":"","id":63269181,"location_subtype":"","month":"2018-02"},{"category":"anti-social-behaviour","location_type":"Force","location":{"latitude":"51.489854","street":{"id":954525,"name":"On or near Brewhouse Road"},"longitude":"0.055334"},"context":"","outcome_status":null,"persistent_id":"","id":63269156,"location_subtype":"","month":"2018-02"},{"category":"anti-social-behaviour","location_type":"Force","location":{"latitude":"51.490471","street":{"id":954594,"name":"On or near Greens End"},"longitude":"0.067837"},"context":"","outcome_status":null,"persistent_id":"","id":63269089,"location_subtype":"","month":"2018-02"},{"category":"anti-social-behaviour","location_type":"Force","location":{"latitude":"51.490301","street":{"id":954593,"name":"On or near Greens End"},"longitude":"0.067253"},"context":"","outcome_status":null,"persistent_id":"","id":63269110,"location_subtype":"","month":"2018-02"},{"category":"anti-social-behaviour","location_type":"Force","location":{"latitude":"51.493013","street":{"id":954448,"name":"On or near Leda Road"},"longitude":"0.055217"},"context":"","outcome_status":null,"persistent_id":"","id":63269160,"location_subtype":"","month":"2018-02"},{"category":"anti-social-behaviour","location_type":"Force","location":{"latitude":"51.490301","street":{"id":954593,"name":"On or near Greens End"},"longitude":"0.067253"},"context":"","outcome_status":null,"persistent_id":"","id":63269106,"location_subtype":"","month":"2018-02"},{"category":"anti-social-behaviour","location_type":"Force","location":{"latitude":"51.492300","street":{"id":954430,"name":"On or near Derrick Gardens"},"longitude":"0.030061"},"context":"","outcome_status":null,"persistent_id":"","id":63269676,"location_subtype":"","month":"2018-02"},{"category":"anti-social-behaviour","location_type":"Force","location":{"latitude":"51.490647","street":{"id":954587,"name":"On or near Woolwich New Road"},"longitude":"0.069544"},"context":"","outcome_status":null,"persistent_id":"","id":63269084,"location_subtype":"","month":"2018-02"},{"category":"anti-social-behaviour","location_type":"Force","location":{"latitude":"51.490647","street":{"id":954587,"name":"On or near Woolwich New Road"},"longitude":"0.069544"},"context":"","outcome_status":null,"persistent_id":"","id":63269085,"location_subtype":"","month":"2018-02"},{"category":"anti-social-behaviour","location_type":"Force","location":{"latitude":"51.490471","street":{"id":954594,"name":"On or near Greens End"},"longitude":"0.067837"},"context":"","outcome_status":null,"persistent_id":"","id":63269088,"location_subtype":"","month":"2018-02"},{"category":"anti-social-behaviour","location_type":"Force","location":{"latitude":"51.490301","street":{"id":954593,"name":"On or near Greens End"},"longitude":"0.067253"},"context":"","outcome_status":null,"persistent_id":"","id":63269105,"location_subtype":"","month":"2018-02"},{"category":"anti-social-behaviour","location_type":"Force","location":{"latitude":"51.490640","street":{"id":954595,"name":"On or near Calderwood Street"},"longitude":"0.063868"},"context":"","outcome_status":null,"persistent_id":"","id":63269131,"location_subtype":"","month":"2018-02"},{"category":"anti-social-behaviour","location_type":"Force","location":{"latitude":"51.490839","street":{"id":954615,"name":"On or near Plumstead Road"},"longitude":"0.073947"},"context":"","outcome_status":null,"persistent_id":"","id":63269051,"location_subtype":"","month":"2018-02"},{"category":"anti-social-behaviour","location_type":"Force","location":{"latitude":"51.490301","street":{"id":954593,"name":"On or near Greens End"},"longitude":"0.067253"},"context":"","outcome_status":null,"persistent_id":"","id":63269111,"location_subtype":"","month":"2018-02"},{"category":"anti-social-behaviour","location_type":"Force","location":{"latitude":"51.491998","street":{"id":954501,"name":"On or near Sunbury Street"},"longitude":"0.057678"},"context":"","outcome_status":null,"persistent_id":"","id":63269151,"location_subtype":"","month":"2018-02"},{"category":"anti-social-behaviour","location_type":"Force","location":{"latitude":"51.493136","street":{"id":954534,"name":"On or near Wellington Avenue"},"longitude":"0.072207"},"context":"","outcome_status":null,"persistent_id":"","id":63269061,"location_subtype":"","month":"2018-02"},{"category":"anti-social-behaviour","location_type":"Force","location":{"latitude":"51.490839","street":{"id":954615,"name":"On or near Plumstead Road"},"longitude":"0.073947"},"context":"","outcome_status":null,"persistent_id":"","id":63269052,"location_subtype":"","month":"2018-02"},{"category":"anti-social-behaviour","location_type":"Force","location":{"latitude":"51.490647","street":{"id":954587,"name":"On or near Woolwich New Road"},"longitude":"0.069544"},"context":"","outcome_status":null,"persistent_id":"","id":63269080,"location_subtype":"","month":"2018-02"},{"category":"anti-social-behaviour","location_type":"Force","location":{"latitude":"51.490647","street":{"id":954587,"name":"On or near Woolwich New Road"},"longitude":"0.069544"},"context":"","outcome_status":null,"persistent_id":"","id":63269081,"location_subtype":"","month":"2018-02"},{"category":"anti-social-behaviour","location_type":"Force","location":{"latitude":"51.490647","street":{"id":954587,"name":"On or near Woolwich New Road"},"longitude":"0.069544"},"context":"","outcome_status":null,"persistent_id":"","id":63269082,"location_subtype":"","month":"2018-02"},{"category":"anti-social-behaviour","location_type":"Force","location":{"latitude":"51.490647","street":{"id":954587,"name":"On or near Woolwich New Road"},"longitude":"0.069544"},"context":"","outcome_status":null,"persistent_id":"","id":63269083,"location_subtype":"","month":"2018-02"},{"category":"anti-social-behaviour","location_type":"Force","location":{"latitude":"51.490647","street":{"id":954587,"name":"On or near Woolwich New Road"},"longitude":"0.069544"},"context":"","outcome_status":null,"persistent_id":"","id":63269075,"location_subtype":"","month":"2018-02"},{"category":"anti-social-behaviour","location_type":"Force","location":{"latitude":"51.490647","street":{"id":954587,"name":"On or near Woolwich New Road"},"longitude":"0.069544"},"context":"","outcome_status":null,"persistent_id":"","id":63269079,"location_subtype":"","month":"2018-02"},{"category":"anti-social-behaviour","location_type":"Force","location":{"latitude":"51.489789","street":{"id":954589,"name":"On or near Thomas Street"},"longitude":"0.067215"},"context":"","outcome_status":null,"persistent_id":"","id":63269096,"location_subtype":"","month":"2018-02"},{"category":"anti-social-behaviour","location_type":"Force","location":{"latitude":"51.490301","street":{"id":954593,"name":"On or near Greens End"},"longitude":"0.067253"},"context":"","outcome_status":null,"persistent_id":"","id":63269101,"location_subtype":"","month":"2018-02"},{"category":"anti-social-behaviour","location_type":"Force","location":{"latitude":"51.490301","street":{"id":954593,"name":"On or near Greens End"},"longitude":"0.067253"},"context":"","outcome_status":null,"persistent_id":"","id":63269102,"location_subtype":"","month":"2018-02"},{"category":"anti-social-behaviour","location_type":"Force","location":{"latitude":"51.490301","street":{"id":954593,"name":"On or near Greens End"},"longitude":"0.067253"},"context":"","outcome_status":null,"persistent_id":"","id":63269103,"location_subtype":"","month":"2018-02"},{"category":"anti-social-behaviour","location_type":"Force","location":{"latitude":"51.490301","street":{"id":954593,"name":"On or near Greens End"},"longitude":"0.067253"},"context":"","outcome_status":null,"persistent_id":"","id":63269104,"location_subtype":"","month":"2018-02"},{"category":"anti-social-behaviour","location_type":"Force","location":{"latitude":"51.490301","street":{"id":954593,"name":"On or near Greens End"},"longitude":"0.067253"},"context":"","outcome_status":null,"persistent_id":"","id":63269107,"location_subtype":"","month":"2018-02"},{"category":"anti-social-behaviour","location_type":"Force","location":{"latitude":"51.490301","street":{"id":954593,"name":"On or near Greens End"},"longitude":"0.067253"},"context":"","outcome_status":null,"persistent_id":"","id":63269108,"location_subtype":"","month":"2018-02"},{"category":"anti-social-behaviour","location_type":"Force","location":{"latitude":"51.490301","street":{"id":954593,"name":"On or near Greens End"},"longitude":"0.067253"},"context":"","outcome_status":null,"persistent_id":"","id":63269109,"location_subtype":"","month":"2018-02"},{"category":"anti-social-behaviour","location_type":"Force","location":{"latitude":"51.491304","street":{"id":954596,"name":"On or near Shopping Area"},"longitude":"0.065944"},"context":"","outcome_status":null,"persistent_id":"","id":63269116,"location_subtype":"","month":"2018-02"},{"category":"anti-social-behaviour","location_type":"Force","location":{"latitude":"51.491304","street":{"id":954596,"name":"On or near Shopping Area"},"longitude":"0.065944"},"context":"","outcome_status":null,"persistent_id":"","id":63269115,"location_subtype":"","month":"2018-02"},{"category":"anti-social-behaviour","location_type":"Force","location":{"latitude":"51.491304","street":{"id":954596,"name":"On or near Shopping Area"},"longitude":"0.065944"},"context":"","outcome_status":null,"persistent_id":"","id":63269117,"location_subtype":"","month":"2018-02"},{"category":"anti-social-behaviour","location_type":"Force","location":{"latitude":"51.490301","street":{"id":954593,"name":"On or near Greens End"},"longitude":"0.067253"},"context":"","outcome_status":null,"persistent_id":"","id":63269118,"location_subtype":"","month":"2018-02"},{"category":"anti-social-behaviour","location_type":"Force","location":{"latitude":"51.492537","street":{"id":954571,"name":"On or near Creton Street"},"longitude":"0.065409"},"context":"","outcome_status":null,"persistent_id":"","id":63269120,"location_subtype":"","month":"2018-02"},{"category":"anti-social-behaviour","location_type":"Force","location":{"latitude":"51.492918","street":{"id":954572,"name":"On or near Bunton Street"},"longitude":"0.065239"},"context":"","outcome_status":null,"persistent_id":"","id":63269125,"location_subtype":"","month":"2018-02"},{"category":"anti-social-behaviour","location_type":"Force","location":{"latitude":"51.492829","street":{"id":954570,"name":"On or near Myrtle Alley"},"longitude":"0.064630"},"context":"","outcome_status":null,"persistent_id":"","id":63269130,"location_subtype":"","month":"2018-02"},{"category":"anti-social-behaviour","location_type":"Force","location":{"latitude":"51.493818","street":{"id":954442,"name":"On or near Woolwich High Street"},"longitude":"0.063666"},"context":"","outcome_status":null,"persistent_id":"","id":63269132,"location_subtype":"","month":"2018-02"},{"category":"bicycle-theft","location_type":"Force","location":{"latitude":"51.490210","street":{"id":954590,"name":"On or near Taylor's Buildings"},"longitude":"0.069856"},"context":"","outcome_status":{"category":"Status update unavailable","date":"2018-06"},"persistent_id":"7e1c767b3bf594dc9ad62f08554061a1c7c1a8f9007fc83acac717e870c69131","id":63335089,"location_subtype":"","month":"2018-02"},{"category":"bicycle-theft","location_type":"Force","location":{"latitude":"51.490210","street":{"id":954590,"name":"On or near Taylor's Buildings"},"longitude":"0.069856"},"context":"","outcome_status":{"category":"Status update unavailable","date":"2018-06"},"persistent_id":"0c2b5d3ab0ddaa2fd04cb74e533da45eefe3624c7d388c65d183fa1416005a84","id":63327454,"location_subtype":"","month":"2018-02"},{"category":"bicycle-theft","location_type":"Force","location":{"latitude":"51.490210","street":{"id":954590,"name":"On or near Taylor's Buildings"},"longitude":"0.069856"},"context":"","outcome_status":{"category":"Status update unavailable","date":"2018-06"},"persistent_id":"ba5a86fc89c9667542064d56e2eb38722670107c334b3a87530c9a758399ba3f","id":63336342,"location_subtype":"","month":"2018-02"},{"category":"bicycle-theft","location_type":"Force","location":{"latitude":"51.488704","street":{"id":948365,"name":"On or near Woodland Terrace"},"longitude":"0.046034"},"context":"","outcome_status":{"category":"Status update unavailable","date":"2018-06"},"persistent_id":"56591b03e01c7b65aece4c6563cee4ca647bd20ec3960c7f10fc911668318a50","id":63282237,"location_subtype":"","month":"2018-02"},{"category":"burglary","location_type":"Force","location":{"latitude":"51.492275","street":{"id":954429,"name":"On or near Eastmoor Street"},"longitude":"0.039294"},"context":"","outcome_status":{"category":"Awaiting court outcome","date":"2018-06"},"persistent_id":"01e3a1667ce91b30e973f777914b95e9472a45586193071bfdf94fb60610ba6d","id":63331820,"location_subtype":"","month":"2018-02"},{"category":"burglary","location_type":"Force","location":{"latitude":"51.489384","street":{"id":954512,"name":"On or near Marine Drive"},"longitude":"0.056019"},"context":"","outcome_status":{"category":"Status update unavailable","date":"2018-06"},"persistent_id":"8322e44d26908a01294fbcf692624a8be0090738c599cfbcc5513cf4a3d3b069","id":63331570,"location_subtype":"","month":"2018-02"},{"category":"burglary","location_type":"Force","location":{"latitude":"51.492893","street":{"id":954443,"name":"On or near Woolwich Church Street"},"longitude":"0.053310"},"context":"","outcome_status":{"category":"Investigation complete; no suspect identified","date":"2018-03"},"persistent_id":"fd30e676da1c3d48055e721b89956c66ed330e5ef5811064e901bda139d55382","id":63337503,"location_subtype":"","month":"2018-02"},{"category":"burglary","location_type":"Force","location":{"latitude":"51.487268","street":{"id":948373,"name":"On or near Kidd Place"},"longitude":"0.048966"},"context":"","outcome_status":{"category":"Status update unavailable","date":"2018-06"},"persistent_id":"edbf420e7fe3ab63ab6dbc7e6ba892843fce69c755b35f68b0703b4f7cb04f13","id":63339102,"location_subtype":"","month":"2018-02"},{"category":"burglary","location_type":"Force","location":{"latitude":"51.490301","street":{"id":954593,"name":"On or near Greens End"},"longitude":"0.067253"},"context":"","outcome_status":{"category":"Status update unavailable","date":"2018-06"},"persistent_id":"0be272f433a74f598a6fa2f7ac7dc8d1e57b4d66f044c941df36e8c854e9b450","id":63325826,"location_subtype":"","month":"2018-02"},{"category":"burglary","location_type":"Force","location":{"latitude":"51.494599","street":{"id":954561,"name":"On or near Argyll Road"},"longitude":"0.074924"},"context":"","outcome_status":{"category":"Investigation complete; no suspect identified","date":"2018-04"},"persistent_id":"74cd243d95f1ab938d68b379a887a4415c3022ed13c4dd3b755eeb88e878d419","id":63312170,"location_subtype":"","month":"2018-02"},{"category":"burglary","location_type":"Force","location":{"latitude":"51.491642","street":{"id":954603,"name":"On or near Parking Area"},"longitude":"0.071793"},"context":"","outcome_status":{"category":"Investigation complete; no suspect identified","date":"2018-04"},"persistent_id":"c88c60374f26b49b4dcabb53d2eedec1ffdc1fa762fa48b3ad5ab6fc7ed50805","id":63302435,"location_subtype":"","month":"2018-02"},{"category":"burglary","location_type":"Force","location":{"latitude":"51.484277","street":{"id":948371,"name":"On or near Kinveachy Gardens"},"longitude":"0.047709"},"context":"","outcome_status":{"category":"Status update unavailable","date":"2018-06"},"persistent_id":"8b916f3bfc14c2e4a9510847b20bbbeaeed7f35425494fee5a67936af6785901","id":63284277,"location_subtype":"","month":"2018-02"},{"category":"burglary","location_type":"Force","location":{"latitude":"51.488403","street":{"id":948379,"name":"On or near Woodville Street"},"longitude":"0.049867"},"context":"","outcome_status":{"category":"Status update unavailable","date":"2018-06"},"persistent_id":"e69a8f9adb274648eca28d388bb83d8304e2fea2a027beaec48317b7da1c890d","id":63290523,"location_subtype":"","month":"2018-02"},{"category":"burglary","location_type":"Force","location":{"latitude":"51.494324","street":{"id":954558,"name":"On or near Cadogan Road"},"longitude":"0.074234"},"context":"","outcome_status":{"category":"Status update unavailable","date":"2018-06"},"persistent_id":"20a29f7c15b81c4853d9a78dcb5cdf1e8a1e24f97db08e8d7e794f009771170b","id":63337402,"location_subtype":"","month":"2018-02"},{"category":"burglary","location_type":"Force","location":{"latitude":"51.490496","street":{"id":954606,"name":"On or near Parry Place"},"longitude":"0.072015"},"context":"","outcome_status":{"category":"Status update unavailable","date":"2018-06"},"persistent_id":"3ffa8fc561ccf614be1c82f86aadfd5780104a1560388f6c54335873f821e02b","id":63333517,"location_subtype":"","month":"2018-02"},{"category":"burglary","location_type":"Force","location":{"latitude":"51.491445","street":{"id":954493,"name":"On or near Parish Wharf"},"longitude":"0.049197"},"context":"","outcome_status":{"category":"Offender sent to prison","date":"2018-04"},"persistent_id":"80101b451e6789bcdd0a581d5a899727b07ded3f84a8e6e3b5217dd0d7a7c72d","id":63314043,"location_subtype":"","month":"2018-02"},{"category":"burglary","location_type":"Force","location":{"latitude":"51.490636","street":{"id":954428,"name":"On or near Penhall Road"},"longitude":"0.037348"},"context":"","outcome_status":{"category":"Investigation complete; no suspect identified","date":"2018-03"},"persistent_id":"285a6ef509fce4c4cf8d6127d90a7d39f86e5da19dd111ac78fbddd3c1b5f62e","id":63324989,"location_subtype":"","month":"2018-02"},{"category":"burglary","location_type":"Force","location":{"latitude":"51.494599","street":{"id":954561,"name":"On or near Argyll Road"},"longitude":"0.074924"},"context":"","outcome_status":{"category":"Status update unavailable","date":"2018-06"},"persistent_id":"d981d2fb973e5e2bd4b4b07d4cfeb3a2b56e53f746bb6c292e792f1187d95220","id":63309284,"location_subtype":"","month":"2018-02"},{"category":"burglary","location_type":"Force","location":{"latitude":"51.491304","street":{"id":954596,"name":"On or near Shopping Area"},"longitude":"0.065944"},"context":"","outcome_status":{"category":"Investigation complete; no suspect identified","date":"2018-04"},"persistent_id":"739a1eedf7ff7dbc434b63fbe658a7bfb057d4dc0bf9cb3a141f11fdbd360cda","id":63319938,"location_subtype":"","month":"2018-02"},{"category":"burglary","location_type":"Force","location":{"latitude":"51.490788","street":{"id":954497,"name":"On or near Pedestrian Subway"},"longitude":"0.062089"},"context":"","outcome_status":{"category":"Status update unavailable","date":"2018-06"},"persistent_id":"06bf8c8591656a9c54d685ade104692abad65410d2c36202dc364d3d893adcb8","id":63278933,"location_subtype":"","month":"2018-02"},{"category":"criminal-damage-arson","location_type":"Force","location":{"latitude":"51.490626","street":{"id":954490,"name":"On or near Tivoli Gardens"},"longitude":"0.047230"},"context":"","outcome_status":{"category":"Investigation complete; no suspect identified","date":"2018-03"},"persistent_id":"f0ba9f19e941940a07313265c0b7d6e83482799e554c2fa8908cca5b0c9482c5","id":63316775,"location_subtype":"","month":"2018-02"},{"category":"criminal-damage-arson","location_type":"BTP","location":{"latitude":"51.491200","street":{"id":1488066,"name":"Woolwich Dockyard (station)"},"longitude":"0.054632"},"context":"","outcome_status":{"category":"Status update unavailable","date":"2018-06"},"persistent_id":"","id":66315967,"location_subtype":"STATION","month":"2018-02"},{"category":"criminal-damage-arson","location_type":"Force","location":{"latitude":"51.490182","street":{"id":954518,"name":"On or near Gorman Road"},"longitude":"0.057135"},"context":"","outcome_status":{"category":"Status update unavailable","date":"2018-06"},"persistent_id":"68e8f62514d2b98bf9a2460b998ff50f0497fe6c7d91b2abf14264e0b3413459","id":63334336,"location_subtype":"","month":"2018-02"},{"category":"criminal-damage-arson","location_type":"Force","location":{"latitude":"51.491445","street":{"id":954493,"name":"On or near Parish Wharf"},"longitude":"0.049197"},"context":"","outcome_status":{"category":"Status update unavailable","date":"2018-06"},"persistent_id":"2cb314edd3affbf591b76871ad6ab2bcea13763f60dff2b98a7d792f1cbb9904","id":63339617,"location_subtype":"","month":"2018-02"},{"category":"criminal-damage-arson","location_type":"Force","location":{"latitude":"51.491445","street":{"id":954493,"name":"On or near Parish Wharf"},"longitude":"0.049197"},"context":"","outcome_status":{"category":"Status update unavailable","date":"2018-06"},"persistent_id":"d243b2d50428a1b4fb250691c194d47c6f388b541569e08def7da7c36f469f26","id":63281841,"location_subtype":"","month":"2018-02"},{"category":"criminal-damage-arson","location_type":"Force","location":{"latitude":"51.490471","street":{"id":954594,"name":"On or near Greens End"},"longitude":"0.067837"},"context":"","outcome_status":{"category":"Status update unavailable","date":"2018-06"},"persistent_id":"eeb0f8f63e2aa8756fa1b85ace6390abf12f5dab26dbf6e0dbddb4ec19ab1303","id":63290966,"location_subtype":"","month":"2018-02"},{"category":"criminal-damage-arson","location_type":"Force","location":{"latitude":"51.492975","street":{"id":954535,"name":"On or near Major Draper Street"},"longitude":"0.070658"},"context":"","outcome_status":{"category":"Awaiting court outcome","date":"2018-02"},"persistent_id":"915ad9ad6ac0261db11a228fec89714cdb3e30b8d79bd66f9af61f17edaa13dc","id":63292600,"location_subtype":"","month":"2018-02"},{"category":"criminal-damage-arson","location_type":"Force","location":{"latitude":"51.493873","street":{"id":954445,"name":"On or near Spindle Close"},"longitude":"0.050775"},"context":"","outcome_status":{"category":"Investigation complete; no suspect identified","date":"2018-03"},"persistent_id":"c9ea74e11420245f956e2af43057c77f5b98f75783fb29be8c40fba3e893834e","id":63307422,"location_subtype":"","month":"2018-02"},{"category":"criminal-damage-arson","location_type":"Force","location":{"latitude":"51.485312","street":{"id":948387,"name":"On or near Little Heath"},"longitude":"0.049757"},"context":"","outcome_status":{"category":"Status update unavailable","date":"2018-06"},"persistent_id":"d19286b599f9e7dc1f0e68f31be9699a0b9ce15060f94d283368900a68de9e2a","id":63311789,"location_subtype":"","month":"2018-02"},{"category":"criminal-damage-arson","location_type":"Force","location":{"latitude":"51.490647","street":{"id":954587,"name":"On or near Woolwich New Road"},"longitude":"0.069544"},"context":"","outcome_status":{"category":"Status update unavailable","date":"2018-06"},"persistent_id":"718e4812b9da16a3f0406cb344c97c308f4c216b877b3794220732448afd8dc3","id":63287256,"location_subtype":"","month":"2018-02"},{"category":"criminal-damage-arson","location_type":"Force","location":{"latitude":"51.493873","street":{"id":954445,"name":"On or near Spindle Close"},"longitude":"0.050775"},"context":"","outcome_status":{"category":"Status update unavailable","date":"2018-06"},"persistent_id":"9ff403e1fff8612570bd87801784d65d400428a70561a5ae2f26af53b6c40a42","id":63290808,"location_subtype":"","month":"2018-02"},{"category":"criminal-damage-arson","location_type":"Force","location":{"latitude":"51.489284","street":{"id":954508,"name":"On or near Mulgrave Road"},"longitude":"0.058636"},"context":"","outcome_status":{"category":"Status update unavailable","date":"2018-06"},"persistent_id":"4df662bcf4a5092a58483a064ef157ea4db6f98f114fb2910960086ffde9aa99","id":63326603,"location_subtype":"","month":"2018-02"},{"category":"criminal-damage-arson","location_type":"Force","location":{"latitude":"51.492145","street":{"id":954486,"name":"On or near Tamar Street"},"longitude":"0.045209"},"context":"","outcome_status":{"category":"Status update unavailable","date":"2018-06"},"persistent_id":"a38054877c7baa4a0f57bd3d6cacbeb2dadb8358b9e396ac2d245c666451c517","id":63335954,"location_subtype":"","month":"2018-02"},{"category":"criminal-damage-arson","location_type":"Force","location":{"latitude":"51.492975","street":{"id":954535,"name":"On or near Major Draper Street"},"longitude":"0.070658"},"context":"","outcome_status":{"category":"Awaiting court outcome","date":"2018-02"},"persistent_id":"fd629b05e755bbcf54eadb710044689ecf0d1351aae0078c37267bba33b17ed3","id":63280972,"location_subtype":"","month":"2018-02"},{"category":"criminal-damage-arson","location_type":"Force","location":{"latitude":"51.488595","street":{"id":948395,"name":"On or near Godfrey Road"},"longitude":"0.051777"},"context":"","outcome_status":{"category":"Status update unavailable","date":"2018-06"},"persistent_id":"3cf45dbd786462fd7f982b56d6357798044db21d5e54dc3172126dde70b6f080","id":63338628,"location_subtype":"","month":"2018-02"},{"category":"criminal-damage-arson","location_type":"Force","location":{"latitude":"51.490626","street":{"id":954490,"name":"On or near Tivoli Gardens"},"longitude":"0.047230"},"context":"","outcome_status":{"category":"Status update unavailable","date":"2018-06"},"persistent_id":"f0ba9f19e941940a07313265c0b7d6e83482799e554c2fa8908cca5b0c9482c5","id":63315830,"location_subtype":"","month":"2018-02"},{"category":"criminal-damage-arson","location_type":"Force","location":{"latitude":"51.490496","street":{"id":954606,"name":"On or near Parry Place"},"longitude":"0.072015"},"context":"","outcome_status":{"category":"Status update unavailable","date":"2018-06"},"persistent_id":"5aa5cbd457aa7233a3b67d56c275f407ed308b03d74209ff1318a650d2adbd87","id":63321484,"location_subtype":"","month":"2018-02"},{"category":"drugs","location_type":"Force","location":{"latitude":"51.490301","street":{"id":954593,"name":"On or near Greens End"},"longitude":"0.067253"},"context":"","outcome_status":{"category":"Offender given a caution","date":"2018-04"},"persistent_id":"37959867daf4e451b22d423bb2154dc6803ade14526bee22d1a0b43d4e36a50c","id":63334967,"location_subtype":"","month":"2018-02"},{"category":"drugs","location_type":"Force","location":{"latitude":"51.492246","street":{"id":954440,"name":"On or near Parking Area"},"longitude":"0.062039"},"context":"","outcome_status":{"category":"Offender given a drugs possession warning","date":"2018-02"},"persistent_id":"634dda90374b10098e8fcb31efec641d5f764d6e3fdc738c049220950e846adf","id":63311374,"location_subtype":"","month":"2018-02"},{"category":"drugs","location_type":"Force","location":{"latitude":"51.492943","street":{"id":954449,"name":"On or near Hare Street"},"longitude":"0.063799"},"context":"","outcome_status":{"category":"Offender sent to prison","date":"2018-04"},"persistent_id":"c48ec594984acae4f982468af6e768d30359cb53094b276d55a88b262647b1e0","id":63319689,"location_subtype":"","month":"2018-02"},{"category":"drugs","location_type":"Force","location":{"latitude":"51.490626","street":{"id":954490,"name":"On or near Tivoli Gardens"},"longitude":"0.047230"},"context":"","outcome_status":{"category":"Offender fined","date":"2018-03"},"persistent_id":"a16b4100579e5bf0b55d3dc03daa8379e4894f583c4bd1985b87937c2134e990","id":63317192,"location_subtype":"","month":"2018-02"},{"category":"drugs","location_type":"Force","location":{"latitude":"51.491130","street":{"id":954598,"name":"On or near Supermarket"},"longitude":"0.064611"},"context":"","outcome_status":{"category":"Offender given a drugs possession warning","date":"2018-02"},"persistent_id":"0230cc3fc781781164dc12f787e272d803f07c01775a63b9530dc783d4e816bf","id":63290253,"location_subtype":"","month":"2018-02"},{"category":"drugs","location_type":"Force","location":{"latitude":"51.492246","street":{"id":954440,"name":"On or near Parking Area"},"longitude":"0.062039"},"context":"","outcome_status":{"category":"Offender given a drugs possession warning","date":"2018-02"},"persistent_id":"b75b413d1ba9253a62742ef986e0828748ad36638d4ed03799bc988cc9d3523f","id":63307950,"location_subtype":"","month":"2018-02"},{"category":"drugs","location_type":"Force","location":{"latitude":"51.493818","street":{"id":954442,"name":"On or near Woolwich High Street"},"longitude":"0.063666"},"context":"","outcome_status":{"category":"Status update unavailable","date":"2018-06"},"persistent_id":"1c5ded84c48cc9295a66696cb93c23403777a74545c2afeb4284e375a4d815ff","id":63333646,"location_subtype":"","month":"2018-02"},{"category":"drugs","location_type":"Force","location":{"latitude":"51.491301","street":{"id":954597,"name":"On or near Supermarket"},"longitude":"0.068710"},"context":"","outcome_status":{"category":"Offender given penalty notice","date":"2018-02"},"persistent_id":"f8cc4ee3b3a0b9adc097899f7b84940393edbd8a5b31977ae26b7ade5854d9ac","id":63331964,"location_subtype":"","month":"2018-02"},{"category":"drugs","location_type":"Force","location":{"latitude":"51.489284","street":{"id":954508,"name":"On or near Mulgrave Road"},"longitude":"0.058636"},"context":"","outcome_status":{"category":"Offender given a caution","date":"2018-02"},"persistent_id":"ef4e003a9922413e9a044b14d0279a829e563f9e220fcc1c9b01f9a60d09eca8","id":63283938,"location_subtype":"","month":"2018-02"},{"category":"drugs","location_type":"Force","location":{"latitude":"51.490647","street":{"id":954587,"name":"On or near Woolwich New Road"},"longitude":"0.069544"},"context":"","outcome_status":{"category":"Investigation complete; no suspect identified","date":"2018-05"},"persistent_id":"ff2a27d2c9a2fb29c9ea2d073c9ec55e4f5a2160dc9d09a1899cd47b691f13e6","id":63301769,"location_subtype":"","month":"2018-02"},{"category":"drugs","location_type":"Force","location":{"latitude":"51.491304","street":{"id":954596,"name":"On or near Shopping Area"},"longitude":"0.065944"},"context":"","outcome_status":{"category":"Awaiting court outcome","date":"2018-02"},"persistent_id":"fbbb69be11912071afa8162d25c81c7cb661bdb6ea20ab8ba02783368bbce91a","id":63332320,"location_subtype":"","month":"2018-02"},{"category":"other-theft","location_type":"Force","location":{"latitude":"51.491642","street":{"id":954603,"name":"On or near Parking Area"},"longitude":"0.071793"},"context":"","outcome_status":{"category":"Status update unavailable","date":"2018-06"},"persistent_id":"6490fd54283f8c47b325330d0f9fc6e9585fac5292f21f4d91f1c35b810384ba","id":63306570,"location_subtype":"","month":"2018-02"},{"category":"other-theft","location_type":"Force","location":{"latitude":"51.492568","street":{"id":954446,"name":"On or near Powis Street"},"longitude":"0.062616"},"context":"","outcome_status":{"category":"Investigation complete; no suspect identified","date":"2018-03"},"persistent_id":"2a1be8d9581da7bba60db12098b465073591d8271422d574aa784bd1c46a6619","id":63307877,"location_subtype":"","month":"2018-02"},{"category":"other-theft","location_type":"Force","location":{"latitude":"51.489498","street":{"id":954519,"name":"On or near Frances Street"},"longitude":"0.053575"},"context":"","outcome_status":{"category":"Investigation complete; no suspect identified","date":"2018-02"},"persistent_id":"71fbacd340be9b25db47a9f22d3650cbe061720948763c478b5edd454b630f82","id":63333675,"location_subtype":"","month":"2018-02"},{"category":"other-theft","location_type":"Force","location":{"latitude":"51.492691","street":{"id":954484,"name":"On or near A206"},"longitude":"0.045838"},"context":"","outcome_status":{"category":"Investigation complete; no suspect identified","date":"2018-03"},"persistent_id":"b981955fe16a1fb25613e6b44a7af4961c8bffd4ffce7ab84a373313dfc900e5","id":63337166,"location_subtype":"","month":"2018-02"},{"category":"other-theft","location_type":"Force","location":{"latitude":"51.492568","street":{"id":954446,"name":"On or near Powis Street"},"longitude":"0.062616"},"context":"","outcome_status":{"category":"Investigation complete; no suspect identified","date":"2018-02"},"persistent_id":"78426b673a3a81757b386146baba7a93c025b88ae0288433844acd6c9e6bb927","id":63300154,"location_subtype":"","month":"2018-02"},{"category":"other-theft","location_type":"Force","location":{"latitude":"51.490647","street":{"id":954587,"name":"On or near Woolwich New Road"},"longitude":"0.069544"},"context":"","outcome_status":{"category":"Investigation complete; no suspect identified","date":"2018-02"},"persistent_id":"a9db7726276459aa053c18e2c91d3af107b9215ef873da1cf7ac30c5cfea5704","id":63334610,"location_subtype":"","month":"2018-02"},{"category":"other-theft","location_type":"Force","location":{"latitude":"51.493818","street":{"id":954442,"name":"On or near Woolwich High Street"},"longitude":"0.063666"},"context":"","outcome_status":{"category":"Status update unavailable","date":"2018-06"},"persistent_id":"e7c3496dfb275d2ab5d642da3a01aa7b4d27a88931d4bcb5da26497f39b5ad77","id":63279320,"location_subtype":"","month":"2018-02"},{"category":"other-theft","location_type":"Force","location":{"latitude":"51.490636","street":{"id":954428,"name":"On or near Penhall Road"},"longitude":"0.037348"},"context":"","outcome_status":{"category":"Investigation complete; no suspect identified","date":"2018-02"},"persistent_id":"cf2fca95cb8a264dc955661f442572f71431fde2f1e3b37e33d28c0c019c5584","id":63290873,"location_subtype":"","month":"2018-02"},{"category":"other-theft","location_type":"Force","location":{"latitude":"51.490496","street":{"id":954606,"name":"On or near Parry Place"},"longitude":"0.072015"},"context":"","outcome_status":{"category":"Status update unavailable","date":"2018-06"},"persistent_id":"2ccb823e4eb7c1c103ddc0af53adf73124ec1462cc27c8e78e3ef986e5355e91","id":63325293,"location_subtype":"","month":"2018-02"},{"category":"other-theft","location_type":"Force","location":{"latitude":"51.490210","street":{"id":954590,"name":"On or near Taylor's Buildings"},"longitude":"0.069856"},"context":"","outcome_status":{"category":"Investigation complete; no suspect identified","date":"2018-03"},"persistent_id":"e09ee160c67a80857b77bc50ca343839d19d9613a04b4b24cad758ecf4755ab9","id":63312046,"location_subtype":"","month":"2018-02"},{"category":"other-theft","location_type":"Force","location":{"latitude":"51.493535","street":{"id":954482,"name":"On or near Ruston Road"},"longitude":"0.047461"},"context":"","outcome_status":{"category":"Investigation complete; no suspect identified","date":"2018-02"},"persistent_id":"9eeb614c6616ada9cacf8988ed9e2da82dd0813637cb0e912ef5741e4aaa8c13","id":63290107,"location_subtype":"","month":"2018-02"},{"category":"other-theft","location_type":"Force","location":{"latitude":"51.490471","street":{"id":954594,"name":"On or near Greens End"},"longitude":"0.067837"},"context":"","outcome_status":{"category":"Status update unavailable","date":"2018-06"},"persistent_id":"42293a9de954293ab922836c77f370bfa891f2e6db348db922ce1a78da6f83bc","id":63338972,"location_subtype":"","month":"2018-02"},{"category":"other-theft","location_type":"Force","location":{"latitude":"51.492691","street":{"id":954484,"name":"On or near A206"},"longitude":"0.045838"},"context":"","outcome_status":{"category":"Status update unavailable","date":"2018-06"},"persistent_id":"f55a051e03f9db3a19fa6dbdad7234bcced4c66cd2a6cb9e25080be13986819f","id":63338214,"location_subtype":"","month":"2018-02"},{"category":"other-theft","location_type":"Force","location":{"latitude":"51.490471","street":{"id":954594,"name":"On or near Greens End"},"longitude":"0.067837"},"context":"","outcome_status":{"category":"Investigation complete; no suspect identified","date":"2018-03"},"persistent_id":"cecc26f74fb0ac13cd4d0d75adfa328f989b6b05b961570649ea01e64b807232","id":63332605,"location_subtype":"","month":"2018-02"},{"category":"other-theft","location_type":"Force","location":{"latitude":"51.490647","street":{"id":954587,"name":"On or near Woolwich New Road"},"longitude":"0.069544"},"context":"","outcome_status":{"category":"Status update unavailable","date":"2018-06"},"persistent_id":"6374672876f0960d8936f5ea059f842739220dade5ef5faa5c59c039ba1317d6","id":63290362,"location_subtype":"","month":"2018-02"},{"category":"other-theft","location_type":"Force","location":{"latitude":"51.492537","street":{"id":954571,"name":"On or near Creton Street"},"longitude":"0.065409"},"context":"","outcome_status":{"category":"Status update unavailable","date":"2018-06"},"persistent_id":"badeda7c5312e8244137ceff946b673215126a8e02aed7ec61b4fe54567b8023","id":63302679,"location_subtype":"","month":"2018-02"},{"category":"other-theft","location_type":"Force","location":{"latitude":"51.491304","street":{"id":954596,"name":"On or near Shopping Area"},"longitude":"0.065944"},"context":"","outcome_status":{"category":"Status update unavailable","date":"2018-06"},"persistent_id":"727a15431f1f899c3143a1fdbcddeba0276c302fba0b277e42bcb1f7a1ca3e2a","id":63284926,"location_subtype":"","month":"2018-02"},{"category":"other-theft","location_type":"Force","location":{"latitude":"51.493408","street":{"id":923568,"name":"On or near New Lydenburg Street"},"longitude":"0.036161"},"context":"","outcome_status":{"category":"Status update unavailable","date":"2018-06"},"persistent_id":"0b6cd5b62200eddd87de792c39a5127419d7134b2c894dc456f67c274ff94e23","id":63294642,"location_subtype":"","month":"2018-02"},{"category":"other-theft","location_type":"Force","location":{"latitude":"51.488243","street":{"id":948401,"name":"On or near Cambridge Barracks Road"},"longitude":"0.056428"},"context":"","outcome_status":{"category":"Investigation complete; no suspect identified","date":"2018-03"},"persistent_id":"5aef42cf66f6ffc21ff8ac9e689b07192d8d4283d88aa78067427e80a0593c3d","id":63334842,"location_subtype":"","month":"2018-02"},{"category":"other-theft","location_type":"Force","location":{"latitude":"51.491301","street":{"id":954597,"name":"On or near Supermarket"},"longitude":"0.068710"},"context":"","outcome_status":{"category":"Investigation complete; no suspect identified","date":"2018-03"},"persistent_id":"8347a7a2019fc8e1ee2f8a9e0a810bfbf21e0aa1e3eaca46456e96729cd21f73","id":63309041,"location_subtype":"","month":"2018-02"},{"category":"other-theft","location_type":"Force","location":{"latitude":"51.491604","street":{"id":954521,"name":"On or near Clara Place"},"longitude":"0.063206"},"context":"","outcome_status":{"category":"Status update unavailable","date":"2018-06"},"persistent_id":"9c8ece79c5dbea2ee28623d12524b461f73d0940a930a608cf221fbe528a37ba","id":63298920,"location_subtype":"","month":"2018-02"},{"category":"other-theft","location_type":"Force","location":{"latitude":"51.493818","street":{"id":954442,"name":"On or near Woolwich High Street"},"longitude":"0.063666"},"context":"","outcome_status":{"category":"Status update unavailable","date":"2018-06"},"persistent_id":"e7eb23f90cef838bd3ca4e0ec68174105f92ad7a43831ebc4c812f9138033675","id":63303807,"location_subtype":"","month":"2018-02"},{"category":"other-theft","location_type":"Force","location":{"latitude":"51.489973","street":{"id":954507,"name":"On or near Rectory Place"},"longitude":"0.060352"},"context":"","outcome_status":{"category":"Status update unavailable","date":"2018-06"},"persistent_id":"38b2ebcb231cc48a61802e771b728695441813328ee1c4ea2263188a115a0e4a","id":63308775,"location_subtype":"","month":"2018-02"},{"category":"possession-of-weapons","location_type":"Force","location":{"latitude":"51.491130","street":{"id":954598,"name":"On or near Supermarket"},"longitude":"0.064611"},"context":"","outcome_status":{"category":"Offender fined","date":"2018-03"},"persistent_id":"b2b49480cbe9c9197c96c271fb68488fdd603bdeb83b1d4cc4592538a5db21bb","id":63323019,"location_subtype":"","month":"2018-02"},{"category":"possession-of-weapons","location_type":"Force","location":{"latitude":"51.492943","street":{"id":954449,"name":"On or near Hare Street"},"longitude":"0.063799"},"context":"","outcome_status":{"category":"Awaiting court outcome","date":"2018-02"},"persistent_id":"66e897ce6dac2964252be0bea0bd0c8b506d5befb5409a6cd4013acf641666a8","id":63315798,"location_subtype":"","month":"2018-02"},{"category":"possession-of-weapons","location_type":"Force","location":{"latitude":"51.490875","street":{"id":954523,"name":"On or near Castile Road"},"longitude":"0.062741"},"context":"","outcome_status":{"category":"Investigation complete; no suspect identified","date":"2018-03"},"persistent_id":"90c8b433bba9d7811612eb739dda130951c7fb8040f176ab40d77a9a8b983f31","id":63279605,"location_subtype":"","month":"2018-02"},{"category":"public-order","location_type":"Force","location":{"latitude":"51.493818","street":{"id":954442,"name":"On or near Woolwich High Street"},"longitude":"0.063666"},"context":"","outcome_status":{"category":"Investigation complete; no suspect identified","date":"2018-03"},"persistent_id":"16fb6791d6257b6a433653ba17ea58bc96201f2922290d1aa3065f1abe797662","id":63293224,"location_subtype":"","month":"2018-02"},{"category":"public-order","location_type":"Force","location":{"latitude":"51.490301","street":{"id":954593,"name":"On or near Greens End"},"longitude":"0.067253"},"context":"","outcome_status":{"category":"Investigation complete; no suspect identified","date":"2018-02"},"persistent_id":"6a97a3adcfcb7dea51d02c0ba48b3f1be1325f87feb59dbacb439fc2284f7388","id":63306110,"location_subtype":"","month":"2018-02"},{"category":"public-order","location_type":"Force","location":{"latitude":"51.490210","street":{"id":954590,"name":"On or near Taylor's Buildings"},"longitude":"0.069856"},"context":"","outcome_status":{"category":"Awaiting court outcome","date":"2018-03"},"persistent_id":"7889bf801bfcd263d841e0985626fe38831e9616d0afe40eb5a9b40c591c199a","id":63321000,"location_subtype":"","month":"2018-02"},{"category":"public-order","location_type":"Force","location":{"latitude":"51.490647","street":{"id":954587,"name":"On or near Woolwich New Road"},"longitude":"0.069544"},"context":"","outcome_status":{"category":"Investigation complete; no suspect identified","date":"2018-02"},"persistent_id":"8cc544d7f710db7f11435ce285f44f21f84b9c41b7feb871a1e5a6a0cdea5948","id":63278637,"location_subtype":"","month":"2018-02"},{"category":"public-order","location_type":"Force","location":{"latitude":"51.490471","street":{"id":954594,"name":"On or near Greens End"},"longitude":"0.067837"},"context":"","outcome_status":{"category":"Status update unavailable","date":"2018-06"},"persistent_id":"f16d09ddc58c120198e56397d2eb4954caf1a89f164671c16100e246d1db0bfe","id":63307973,"location_subtype":"","month":"2018-02"},{"category":"public-order","location_type":"Force","location":{"latitude":"51.492082","street":{"id":954513,"name":"On or near Lord Warwick Street"},"longitude":"0.054987"},"context":"","outcome_status":{"category":"Status update unavailable","date":"2018-06"},"persistent_id":"6904eecc879691db7a38119924ab79dfc28420c5898e29061bee2ee453b62d67","id":63328340,"location_subtype":"","month":"2018-02"},{"category":"public-order","location_type":"Force","location":{"latitude":"51.492082","street":{"id":954513,"name":"On or near Lord Warwick Street"},"longitude":"0.054987"},"context":"","outcome_status":{"category":"Status update unavailable","date":"2018-06"},"persistent_id":"6904eecc879691db7a38119924ab79dfc28420c5898e29061bee2ee453b62d67","id":63328341,"location_subtype":"","month":"2018-02"},{"category":"public-order","location_type":"BTP","location":{"latitude":"51.489900","street":{"id":1488065,"name":"Woolwich Arsenal (dlr)"},"longitude":"0.069699"},"context":"","outcome_status":{"category":"Status update unavailable","date":"2018-06"},"persistent_id":"","id":66313563,"location_subtype":"STATION","month":"2018-02"},{"category":"public-order","location_type":"Force","location":{"latitude":"51.491642","street":{"id":954603,"name":"On or near Parking Area"},"longitude":"0.071793"},"context":"","outcome_status":{"category":"Status update unavailable","date":"2018-06"},"persistent_id":"c348fd9f5e04860dd8e797c3ce02547afe04deaefb5eceefaaf24b6ec5ae7b3a","id":63302264,"location_subtype":"","month":"2018-02"},{"category":"public-order","location_type":"Force","location":{"latitude":"51.489789","street":{"id":954589,"name":"On or near Thomas Street"},"longitude":"0.067215"},"context":"","outcome_status":{"category":"Investigation complete; no suspect identified","date":"2018-02"},"persistent_id":"2133b8837e7ac524bfbd811f3da25a542a7e8003ff36ac1a067c2ddfb57e7229","id":63294017,"location_subtype":"","month":"2018-02"},{"category":"public-order","location_type":"BTP","location":{"latitude":"51.489900","street":{"id":1488065,"name":"Woolwich Arsenal (dlr)"},"longitude":"0.069699"},"context":"","outcome_status":{"category":"Status update unavailable","date":"2018-06"},"persistent_id":"","id":66315966,"location_subtype":"STATION","month":"2018-02"},{"category":"public-order","location_type":"Force","location":{"latitude":"51.492691","street":{"id":954484,"name":"On or near A206"},"longitude":"0.045838"},"context":"","outcome_status":{"category":"Investigation complete; no suspect identified","date":"2018-03"},"persistent_id":"ecc85bf51f4edeae8bec9e91d1bac271093618f0d79775fbe4d07d812f7e9167","id":63339161,"location_subtype":"","month":"2018-02"},{"category":"public-order","location_type":"Force","location":{"latitude":"51.490636","street":{"id":954428,"name":"On or near Penhall Road"},"longitude":"0.037348"},"context":"","outcome_status":{"category":"Status update unavailable","date":"2018-06"},"persistent_id":"c1f9fe6719017bda338b89452f19d55dea6d64301e20b70d68dd6f49854dad9f","id":63315389,"location_subtype":"","month":"2018-02"},{"category":"public-order","location_type":"Force","location":{"latitude":"51.490636","street":{"id":954428,"name":"On or near Penhall Road"},"longitude":"0.037348"},"context":"","outcome_status":{"category":"Status update unavailable","date":"2018-06"},"persistent_id":"c1f9fe6719017bda338b89452f19d55dea6d64301e20b70d68dd6f49854dad9f","id":63315388,"location_subtype":"","month":"2018-02"},{"category":"public-order","location_type":"Force","location":{"latitude":"51.490471","street":{"id":954594,"name":"On or near Greens End"},"longitude":"0.067837"},"context":"","outcome_status":{"category":"Status update unavailable","date":"2018-06"},"persistent_id":"170b54ac356753c64501cca12514876e3e756f0e1a6a8337c84c2f2a1f7e7cae","id":63306007,"location_subtype":"","month":"2018-02"},{"category":"public-order","location_type":"Force","location":{"latitude":"51.489310","street":{"id":948500,"name":"On or near Shopping Area"},"longitude":"0.034984"},"context":"","outcome_status":{"category":"Status update unavailable","date":"2018-06"},"persistent_id":"5d497d40f761bc43f2fcd1fa3c9b8b1656fce970f0ad374c04c99250f8bcc4fb","id":63321258,"location_subtype":"","month":"2018-02"},{"category":"public-order","location_type":"Force","location":{"latitude":"51.487928","street":{"id":948382,"name":"On or near Rushgrove Street"},"longitude":"0.057509"},"context":"","outcome_status":{"category":"Investigation complete; no suspect identified","date":"2018-03"},"persistent_id":"d8101b220a8fdb3c4d2ac23d753c3980499230f7749ec866a9712afeae86c9f0","id":63330820,"location_subtype":"","month":"2018-02"},{"category":"public-order","location_type":"Force","location":{"latitude":"51.490647","street":{"id":954587,"name":"On or near Woolwich New Road"},"longitude":"0.069544"},"context":"","outcome_status":{"category":"Status update unavailable","date":"2018-06"},"persistent_id":"480d88f28b6739f97febcea812c95e61ec0eb8fb612c9d917975f39ad2f368aa","id":63287119,"location_subtype":"","month":"2018-02"},{"category":"public-order","location_type":"Force","location":{"latitude":"51.491304","street":{"id":954596,"name":"On or near Shopping Area"},"longitude":"0.065944"},"context":"","outcome_status":{"category":"Investigation complete; no suspect identified","date":"2018-02"},"persistent_id":"9b63c800626fb9c4da2686a0ca4533b58e604fc7f85121323a500dc219f67582","id":63290784,"location_subtype":"","month":"2018-02"},{"category":"robbery","location_type":"Force","location":{"latitude":"51.491445","street":{"id":954493,"name":"On or near Parish Wharf"},"longitude":"0.049197"},"context":"","outcome_status":{"category":"Status update unavailable","date":"2018-06"},"persistent_id":"8611169d85d60773105f5a7ee76e192173c02e6d4f1c77d68f220c250ee822d2","id":63330161,"location_subtype":"","month":"2018-02"},{"category":"robbery","location_type":"Force","location":{"latitude":"51.490496","street":{"id":954606,"name":"On or near Parry Place"},"longitude":"0.072015"},"context":"","outcome_status":{"category":"Investigation complete; no suspect identified","date":"2018-04"},"persistent_id":"e0c6683debb829f5625539cf2da95512cbb4aeda0c3e05bea230d295ee901964","id":63333727,"location_subtype":"","month":"2018-02"},{"category":"robbery","location_type":"Force","location":{"latitude":"51.490647","street":{"id":954587,"name":"On or near Woolwich New Road"},"longitude":"0.069544"},"context":"","outcome_status":{"category":"Status update unavailable","date":"2018-06"},"persistent_id":"2ebf8e28c64c998ca9c6b750521d21e106ab35c6cc1fc6b08a52f4ea0e4e9e0a","id":63287593,"location_subtype":"","month":"2018-02"},{"category":"robbery","location_type":"Force","location":{"latitude":"51.490875","street":{"id":954523,"name":"On or near Castile Road"},"longitude":"0.062741"},"context":"","outcome_status":{"category":"Investigation complete; no suspect identified","date":"2018-05"},"persistent_id":"e5542db3b241b03df4e6d54670f3df3bf107a98fa123ebf305f976ffc6af6df1","id":63318229,"location_subtype":"","month":"2018-02"},{"category":"robbery","location_type":"Force","location":{"latitude":"51.489789","street":{"id":954589,"name":"On or near Thomas Street"},"longitude":"0.067215"},"context":"","outcome_status":{"category":"Investigation complete; no suspect identified","date":"2018-03"},"persistent_id":"d572b2f33e78e39469a9b5e5a15102b8b69b26a0edc841fd1015373215468477","id":63292563,"location_subtype":"","month":"2018-02"},{"category":"robbery","location_type":"Force","location":{"latitude":"51.491571","street":{"id":954514,"name":"On or near Lamport Close"},"longitude":"0.055915"},"context":"","outcome_status":{"category":"Investigation complete; no suspect identified","date":"2018-04"},"persistent_id":"cd13e23ed2454a640c73443d9de1c5bf6485950d796cba0b3e147ed03f1473ee","id":63286535,"location_subtype":"","month":"2018-02"},{"category":"shoplifting","location_type":"Force","location":{"latitude":"51.489310","street":{"id":948500,"name":"On or near Shopping Area"},"longitude":"0.034984"},"context":"","outcome_status":{"category":"Investigation complete; no suspect identified","date":"2018-03"},"persistent_id":"79cc2bba6a2671ce22fe1bf9f539c8077b95ba837788717815b2932854f44288","id":63327970,"location_subtype":"","month":"2018-02"},{"category":"shoplifting","location_type":"Force","location":{"latitude":"51.492975","street":{"id":954535,"name":"On or near Major Draper Street"},"longitude":"0.070658"},"context":"","outcome_status":{"category":"Status update unavailable","date":"2018-06"},"persistent_id":"28b4d1cee4fe49c1d5f194fcb51a103e05dc7ff5d67f89b631bc4c275d464f2b","id":63335516,"location_subtype":"","month":"2018-02"},{"category":"shoplifting","location_type":"Force","location":{"latitude":"51.489310","street":{"id":948500,"name":"On or near Shopping Area"},"longitude":"0.034984"},"context":"","outcome_status":{"category":"Status update unavailable","date":"2018-06"},"persistent_id":"74cdb14e2031c6b1bc6c08d5f22546a483b5c7a986db28ad8f999f2e5bd00a92","id":63338854,"location_subtype":"","month":"2018-02"},{"category":"shoplifting","location_type":"Force","location":{"latitude":"51.492943","street":{"id":954449,"name":"On or near Hare Street"},"longitude":"0.063799"},"context":"","outcome_status":{"category":"Status update unavailable","date":"2018-06"},"persistent_id":"90fa6334e8e3706ac327e22c3ebd03a03dfcb9fbcda4a14af0ce5f3fb0357477","id":63293945,"location_subtype":"","month":"2018-02"},{"category":"shoplifting","location_type":"Force","location":{"latitude":"51.489310","street":{"id":948500,"name":"On or near Shopping Area"},"longitude":"0.034984"},"context":"","outcome_status":{"category":"Investigation complete; no suspect identified","date":"2018-02"},"persistent_id":"5d2675fcf24887083f9b7a17816eef6ae1e49666779e8e4007fe737a1c1c604e","id":63332425,"location_subtype":"","month":"2018-02"},{"category":"shoplifting","location_type":"Force","location":{"latitude":"51.491304","street":{"id":954596,"name":"On or near Shopping Area"},"longitude":"0.065944"},"context":"","outcome_status":{"category":"Status update unavailable","date":"2018-06"},"persistent_id":"e354d002961165b1a8b4ff1aa4d8c9d0250cff2549e18e1fa425c34d25ab39e8","id":63280633,"location_subtype":"","month":"2018-02"},{"category":"shoplifting","location_type":"Force","location":{"latitude":"51.491304","street":{"id":954596,"name":"On or near Shopping Area"},"longitude":"0.065944"},"context":"","outcome_status":{"category":"Status update unavailable","date":"2018-06"},"persistent_id":"7506b41362b0eeb928dffea9d00f7dc7ae6f26ac755eea48491cfd042058d223","id":63294514,"location_subtype":"","month":"2018-02"},{"category":"shoplifting","location_type":"Force","location":{"latitude":"51.492537","street":{"id":954571,"name":"On or near Creton Street"},"longitude":"0.065409"},"context":"","outcome_status":{"category":"Offender given conditional discharge","date":"2018-02"},"persistent_id":"c579f574cc44f68c5ca324d881719afd3f476624a83403a123d120f6e6e1aa81","id":63306335,"location_subtype":"","month":"2018-02"},{"category":"shoplifting","location_type":"Force","location":{"latitude":"51.489310","street":{"id":948500,"name":"On or near Shopping Area"},"longitude":"0.034984"},"context":"","outcome_status":{"category":"Investigation complete; no suspect identified","date":"2018-04"},"persistent_id":"74d1da8d47d8932d0d718592d6aa5c04ebd1bee5f5b4eb91f90f1e7d5737cb55","id":63322691,"location_subtype":"","month":"2018-02"},{"category":"shoplifting","location_type":"Force","location":{"latitude":"51.489789","street":{"id":954589,"name":"On or near Thomas Street"},"longitude":"0.067215"},"context":"","outcome_status":{"category":"Status update unavailable","date":"2018-06"},"persistent_id":"16bcafef3b6dc1de14b95a15148ed97edd028edfbfe20bba799ab540f5f6cf1c","id":63323068,"location_subtype":"","month":"2018-02"},{"category":"shoplifting","location_type":"Force","location":{"latitude":"51.490875","street":{"id":954523,"name":"On or near Castile Road"},"longitude":"0.062741"},"context":"","outcome_status":{"category":"Status update unavailable","date":"2018-06"},"persistent_id":"eec777497018cedc39762ae311a410cd490bcda7772dfed5178f0936b8a7ae72","id":63329710,"location_subtype":"","month":"2018-02"},{"category":"shoplifting","location_type":"Force","location":{"latitude":"51.489310","street":{"id":948500,"name":"On or near Shopping Area"},"longitude":"0.034984"},"context":"","outcome_status":{"category":"Status update unavailable","date":"2018-06"},"persistent_id":"2d5eecfcf3d40f6b9bfd7209597aa7ed10f20576a1e7047e7fa056514e1b6a13","id":63317268,"location_subtype":"","month":"2018-02"},{"category":"shoplifting","location_type":"Force","location":{"latitude":"51.491304","street":{"id":954596,"name":"On or near Shopping Area"},"longitude":"0.065944"},"context":"","outcome_status":{"category":"Investigation complete; no suspect identified","date":"2018-04"},"persistent_id":"fa89b3cbf332bd5d58778541a860d66b978bc325607ff38c5b1c47e9337542fe","id":63318970,"location_subtype":"","month":"2018-02"},{"category":"shoplifting","location_type":"Force","location":{"latitude":"51.489789","street":{"id":954589,"name":"On or near Thomas Street"},"longitude":"0.067215"},"context":"","outcome_status":{"category":"Status update unavailable","date":"2018-06"},"persistent_id":"529b74fa12f549066beafe6e7d6497c5fd2132e38949e772cd8ed3b302c63162","id":63300761,"location_subtype":"","month":"2018-02"},{"category":"shoplifting","location_type":"Force","location":{"latitude":"51.490471","street":{"id":954594,"name":"On or near Greens End"},"longitude":"0.067837"},"context":"","outcome_status":{"category":"Status update unavailable","date":"2018-06"},"persistent_id":"c046efa7f0febcad0fd4535530c0a681ca5f926463b23c5e625ab84a02ca2a56","id":63300837,"location_subtype":"","month":"2018-02"},{"category":"shoplifting","location_type":"Force","location":{"latitude":"51.491642","street":{"id":954603,"name":"On or near Parking Area"},"longitude":"0.071793"},"context":"","outcome_status":{"category":"Status update unavailable","date":"2018-06"},"persistent_id":"2d6b9afbb05db229ce608f6219a2a1ca77da897ab8832cca5b68ae54310639d3","id":63300856,"location_subtype":"","month":"2018-02"},{"category":"shoplifting","location_type":"Force","location":{"latitude":"51.489310","street":{"id":948500,"name":"On or near Shopping Area"},"longitude":"0.034984"},"context":"","outcome_status":{"category":"Investigation complete; no suspect identified","date":"2018-03"},"persistent_id":"7e1b73b29af84940690c48c45ead0970c91cbb61a7d9ec844f1ad93de3e26eeb","id":63300942,"location_subtype":"","month":"2018-02"},{"category":"shoplifting","location_type":"Force","location":{"latitude":"51.492537","street":{"id":954571,"name":"On or near Creton Street"},"longitude":"0.065409"},"context":"","outcome_status":{"category":"Status update unavailable","date":"2018-06"},"persistent_id":"470c54d99187dc1c2e92d3d804213f888ab3e2957d59e22145b1b1a156c99fb8","id":63301037,"location_subtype":"","month":"2018-02"},{"category":"shoplifting","location_type":"Force","location":{"latitude":"51.491642","street":{"id":954603,"name":"On or near Parking Area"},"longitude":"0.071793"},"context":"","outcome_status":{"category":"Status update unavailable","date":"2018-06"},"persistent_id":"a261ca91e4894d89589671a467bc6fa7e15a243f50c702472f0e0397b25065f9","id":63304661,"location_subtype":"","month":"2018-02"},{"category":"shoplifting","location_type":"Force","location":{"latitude":"51.492943","street":{"id":954449,"name":"On or near Hare Street"},"longitude":"0.063799"},"context":"","outcome_status":{"category":"Status update unavailable","date":"2018-06"},"persistent_id":"890c559ba9eab5e2abb40b450d3f0cd0aa98110376787cdb6874ada88477bd71","id":63333825,"location_subtype":"","month":"2018-02"},{"category":"shoplifting","location_type":"Force","location":{"latitude":"51.489310","street":{"id":948500,"name":"On or near Shopping Area"},"longitude":"0.034984"},"context":"","outcome_status":{"category":"Investigation complete; no suspect identified","date":"2018-03"},"persistent_id":"f4edc3b1ba1a6b0880b44618b4918315a92f8e33524100aef5fca9dab481c913","id":63339179,"location_subtype":"","month":"2018-02"},{"category":"shoplifting","location_type":"Force","location":{"latitude":"51.489310","street":{"id":948500,"name":"On or near Shopping Area"},"longitude":"0.034984"},"context":"","outcome_status":{"category":"Investigation complete; no suspect identified","date":"2018-02"},"persistent_id":"b0ecfe16f868fb2f606c6d444b18ceda7556a10441bdbbe0312830d89ab23ebc","id":63327022,"location_subtype":"","month":"2018-02"},{"category":"shoplifting","location_type":"Force","location":{"latitude":"51.489310","street":{"id":948500,"name":"On or near Shopping Area"},"longitude":"0.034984"},"context":"","outcome_status":{"category":"Status update unavailable","date":"2018-06"},"persistent_id":"6e49869577da8cadb332bc644b19ccd50af6c989c70e7fd1210a916cec25c4b7","id":63334592,"location_subtype":"","month":"2018-02"},{"category":"shoplifting","location_type":"Force","location":{"latitude":"51.491301","street":{"id":954597,"name":"On or near Supermarket"},"longitude":"0.068710"},"context":"","outcome_status":{"category":"Investigation complete; no suspect identified","date":"2018-03"},"persistent_id":"e3087c1697cbf4f5b463e1c720d1ea5d93a3e3ac23c689157b6eb2b87a162346","id":63334591,"location_subtype":"","month":"2018-02"},{"category":"shoplifting","location_type":"Force","location":{"latitude":"51.491130","street":{"id":954598,"name":"On or near Supermarket"},"longitude":"0.064611"},"context":"","outcome_status":{"category":"Investigation complete; no suspect identified","date":"2018-03"},"persistent_id":"c351bb2e30ddee91e2607d2b1db578cfd8665751b275b21363f643260bcb7112","id":63336860,"location_subtype":"","month":"2018-02"},{"category":"shoplifting","location_type":"Force","location":{"latitude":"51.492943","street":{"id":954449,"name":"On or near Hare Street"},"longitude":"0.063799"},"context":"","outcome_status":{"category":"Offender given community sentence","date":"2018-02"},"persistent_id":"3960e47478b62a575e8615a68521c2cf809798d02f59467028d43132e12701bc","id":63290289,"location_subtype":"","month":"2018-02"},{"category":"theft-from-the-person","location_type":"Force","location":{"latitude":"51.491304","street":{"id":954596,"name":"On or near Shopping Area"},"longitude":"0.065944"},"context":"","outcome_status":{"category":"Status update unavailable","date":"2018-06"},"persistent_id":"908ab7810f6700c5e4b98d8c7a6ef10f5c305a198a0dfc590d8022c6dbf8ec66","id":63283238,"location_subtype":"","month":"2018-02"},{"category":"theft-from-the-person","location_type":"Force","location":{"latitude":"51.490210","street":{"id":954590,"name":"On or near Taylor's Buildings"},"longitude":"0.069856"},"context":"","outcome_status":{"category":"Status update unavailable","date":"2018-06"},"persistent_id":"27859792088a7b724da1956428080536e5c075ec2efef8c283b63521547eedfe","id":63286639,"location_subtype":"","month":"2018-02"},{"category":"theft-from-the-person","location_type":"Force","location":{"latitude":"51.491130","street":{"id":954598,"name":"On or near Supermarket"},"longitude":"0.064611"},"context":"","outcome_status":{"category":"Investigation complete; no suspect identified","date":"2018-02"},"persistent_id":"920b2fce18b64242ef1e5b34c20bb094c812f18cf265e067cbd0f6abb49696ab","id":63325535,"location_subtype":"","month":"2018-02"},{"category":"theft-from-the-person","location_type":"Force","location":{"latitude":"51.491304","street":{"id":954596,"name":"On or near Shopping Area"},"longitude":"0.065944"},"context":"","outcome_status":{"category":"Status update unavailable","date":"2018-06"},"persistent_id":"a9119a4c3ebfbb6a476af5e528a06cb6fe4d2f0857f403f3532447168706f1bc","id":63286303,"location_subtype":"","month":"2018-02"},{"category":"theft-from-the-person","location_type":"Force","location":{"latitude":"51.492246","street":{"id":954440,"name":"On or near Parking Area"},"longitude":"0.062039"},"context":"","outcome_status":{"category":"Investigation complete; no suspect identified","date":"2018-02"},"persistent_id":"e34bcbf8d92e8415dca4cfb4ffef77052ab8f19351c75676e1fe54e370234104","id":63285770,"location_subtype":"","month":"2018-02"},{"category":"theft-from-the-person","location_type":"Force","location":{"latitude":"51.492082","street":{"id":954513,"name":"On or near Lord Warwick Street"},"longitude":"0.054987"},"context":"","outcome_status":{"category":"Status update unavailable","date":"2018-06"},"persistent_id":"65441f9462cc319c09d568d4174f18edd2dcc7f7594153baf73dce0b2b730256","id":63279234,"location_subtype":"","month":"2018-02"},{"category":"theft-from-the-person","location_type":"Force","location":{"latitude":"51.491304","street":{"id":954596,"name":"On or near Shopping Area"},"longitude":"0.065944"},"context":"","outcome_status":{"category":"Status update unavailable","date":"2018-06"},"persistent_id":"99ff332ff48fffb1c2e10360b9c5c8d265b0aa8785d0f0cee93347cafa94dd1a","id":63279277,"location_subtype":"","month":"2018-02"},{"category":"theft-from-the-person","location_type":"Force","location":{"latitude":"51.493535","street":{"id":954482,"name":"On or near Ruston Road"},"longitude":"0.047461"},"context":"","outcome_status":{"category":"Investigation complete; no suspect identified","date":"2018-03"},"persistent_id":"9faaea0970843aaeae66f17ee2f1ae93970d766519046ccc3e64c3a27818e122","id":63290488,"location_subtype":"","month":"2018-02"},{"category":"theft-from-the-person","location_type":"Force","location":{"latitude":"51.492943","street":{"id":954449,"name":"On or near Hare Street"},"longitude":"0.063799"},"context":"","outcome_status":{"category":"Status update unavailable","date":"2018-06"},"persistent_id":"e2bd684b98884d9b1c95ca4060002eb08ef2d3e188822687651ba860d395ca38","id":63320137,"location_subtype":"","month":"2018-02"},{"category":"theft-from-the-person","location_type":"Force","location":{"latitude":"51.493818","street":{"id":954442,"name":"On or near Woolwich High Street"},"longitude":"0.063666"},"context":"","outcome_status":{"category":"Status update unavailable","date":"2018-06"},"persistent_id":"d6bc5850f9e7598ee50a8d4753a2f0c734609333a4dd03b23a760d65bada8e0f","id":63339090,"location_subtype":"","month":"2018-02"},{"category":"theft-from-the-person","location_type":"Force","location":{"latitude":"51.491291","street":{"id":954498,"name":"On or near Parking Area"},"longitude":"0.062630"},"context":"","outcome_status":{"category":"Status update unavailable","date":"2018-06"},"persistent_id":"aec3eb64c8df8d8f261b8cb44326a48b4ef0bed77e18f8346919d2335fb96fce","id":63320220,"location_subtype":"","month":"2018-02"},{"category":"theft-from-the-person","location_type":"Force","location":{"latitude":"51.489739","street":{"id":954494,"name":"On or near Lyford Street"},"longitude":"0.049091"},"context":"","outcome_status":{"category":"Investigation complete; no suspect identified","date":"2018-05"},"persistent_id":"5e59c4f6d9aca387ece79d15c40864a91644b8ad400b2f68fdf6b416ab1f0428","id":63293532,"location_subtype":"","month":"2018-02"},{"category":"vehicle-crime","location_type":"Force","location":{"latitude":"51.489948","street":{"id":954426,"name":"On or near Woolwich Road"},"longitude":"0.038614"},"context":"","outcome_status":{"category":"Investigation complete; no suspect identified","date":"2018-02"},"persistent_id":"94d974b1d8e7b586c0e24d3f715e6e605a3a125d6c52ab2d551e27d1bbda277a","id":63312910,"location_subtype":"","month":"2018-02"},{"category":"vehicle-crime","location_type":"Force","location":{"latitude":"51.490182","street":{"id":954518,"name":"On or near Gorman Road"},"longitude":"0.057135"},"context":"","outcome_status":{"category":"Status update unavailable","date":"2018-06"},"persistent_id":"3575264a3b616b4439098d19f90229c1418d669e0241e89105576b4e93ec35db","id":63293522,"location_subtype":"","month":"2018-02"},{"category":"vehicle-crime","location_type":"Force","location":{"latitude":"51.492082","street":{"id":954513,"name":"On or near Lord Warwick Street"},"longitude":"0.054987"},"context":"","outcome_status":{"category":"Status update unavailable","date":"2018-06"},"persistent_id":"08b7cd0a8ae977cc0c007f93bfb4c02c62d347cb4b046218917e7a3c074cf1a6","id":63339417,"location_subtype":"","month":"2018-02"},{"category":"vehicle-crime","location_type":"Force","location":{"latitude":"51.491571","street":{"id":954514,"name":"On or near Lamport Close"},"longitude":"0.055915"},"context":"","outcome_status":{"category":"Status update unavailable","date":"2018-06"},"persistent_id":"1dbb978ab065c6e35ecc0cd2a5b46457a9708f97649abd774a984b5ab9c3a6e1","id":63293351,"location_subtype":"","month":"2018-02"},{"category":"vehicle-crime","location_type":"Force","location":{"latitude":"51.490613","street":{"id":954524,"name":"On or near Carr Grove"},"longitude":"0.050009"},"context":"","outcome_status":{"category":"Investigation complete; no suspect identified","date":"2018-04"},"persistent_id":"3d141ef4e2e2bc0e7d7fd949042e6a7f192964268760de3b959d86186d1d9b33","id":63307668,"location_subtype":"","month":"2018-02"},{"category":"vehicle-crime","location_type":"Force","location":{"latitude":"51.492568","street":{"id":954446,"name":"On or near Powis Street"},"longitude":"0.062616"},"context":"","outcome_status":{"category":"Status update unavailable","date":"2018-06"},"persistent_id":"b6f9b57c22ca468aadfedaa994ee608edc1b776eefdbd6892ac0e3858e5c14df","id":63334323,"location_subtype":"","month":"2018-02"},{"category":"vehicle-crime","location_type":"Force","location":{"latitude":"51.493873","street":{"id":954445,"name":"On or near Spindle Close"},"longitude":"0.050775"},"context":"","outcome_status":{"category":"Status update unavailable","date":"2018-06"},"persistent_id":"41cc29b42d80889203d6003df4cefa351b0dd7c938c6a54036a7499e45ebf949","id":63317375,"location_subtype":"","month":"2018-02"},{"category":"vehicle-crime","location_type":"Force","location":{"latitude":"51.490875","street":{"id":954523,"name":"On or near Castile Road"},"longitude":"0.062741"},"context":"","outcome_status":{"category":"Status update unavailable","date":"2018-06"},"persistent_id":"2c685d60b3b95112f8035fc4995470e34269b7e96a27fc6d8e4722657836ee9a","id":63282903,"location_subtype":"","month":"2018-02"},{"category":"vehicle-crime","location_type":"Force","location":{"latitude":"51.489143","street":{"id":948369,"name":"On or near Maryon Road"},"longitude":"0.046616"},"context":"","outcome_status":{"category":"Status update unavailable","date":"2018-06"},"persistent_id":"11228fbbe7ca40d0deae5f4f782737c9eca17c025f3a4ae5b411c1d038d146f6","id":63331465,"location_subtype":"","month":"2018-02"},{"category":"vehicle-crime","location_type":"Force","location":{"latitude":"51.490479","street":{"id":954503,"name":"On or near Samuel Street"},"longitude":"0.051487"},"context":"","outcome_status":{"category":"Status update unavailable","date":"2018-06"},"persistent_id":"ca3811008a68483742e99872e3ed6a81cfb3b0b77baa9e43e0f3510fc50e8c19","id":63310472,"location_subtype":"","month":"2018-02"},{"category":"vehicle-crime","location_type":"Force","location":{"latitude":"51.493408","street":{"id":923568,"name":"On or near New Lydenburg Street"},"longitude":"0.036161"},"context":"","outcome_status":{"category":"Investigation complete; no suspect identified","date":"2018-02"},"persistent_id":"bfb532a6fe81dbe432c90ef1ea240ae72a0ee5988193176444f8a320651d11ba","id":63333607,"location_subtype":"","month":"2018-02"},{"category":"violent-crime","location_type":"Force","location":{"latitude":"51.491301","street":{"id":954597,"name":"On or near Supermarket"},"longitude":"0.068710"},"context":"","outcome_status":{"category":"Offender given community sentence","date":"2018-04"},"persistent_id":"dbff82ac230aa919b92a1cf48b118fd97f99754d26a11c66483ea60d4b52ac64","id":63298523,"location_subtype":"","month":"2018-02"},{"category":"violent-crime","location_type":"Force","location":{"latitude":"51.490182","street":{"id":954518,"name":"On or near Gorman Road"},"longitude":"0.057135"},"context":"","outcome_status":{"category":"Investigation complete; no suspect identified","date":"2018-02"},"persistent_id":"0c6e6f92ad66aab3f776a7726f067b8ccbdb0270144d4d8ce252a259b9db9d7a","id":63299808,"location_subtype":"","month":"2018-02"},{"category":"violent-crime","location_type":"Force","location":{"latitude":"51.492975","street":{"id":954535,"name":"On or near Major Draper Street"},"longitude":"0.070658"},"context":"","outcome_status":{"category":"Status update unavailable","date":"2018-06"},"persistent_id":"fd629b05e755bbcf54eadb710044689ecf0d1351aae0078c37267bba33b17ed3","id":63279426,"location_subtype":"","month":"2018-02"},{"category":"violent-crime","location_type":"Force","location":{"latitude":"51.490471","street":{"id":954594,"name":"On or near Greens End"},"longitude":"0.067837"},"context":"","outcome_status":{"category":"Investigation complete; no suspect identified","date":"2018-02"},"persistent_id":"327e8ffe8867f4a9a9881bf4c76b172b5ffa48be3e156e9f633a8b84f3f8fa91","id":63307988,"location_subtype":"","month":"2018-02"},{"category":"violent-crime","location_type":"Force","location":{"latitude":"51.491301","street":{"id":954597,"name":"On or near Supermarket"},"longitude":"0.068710"},"context":"","outcome_status":{"category":"Status update unavailable","date":"2018-06"},"persistent_id":"0846d251981a45dd851705276338c2e0ec5a4eca27030c49e581b7c3be7a3789","id":63306859,"location_subtype":"","month":"2018-02"},{"category":"violent-crime","location_type":"Force","location":{"latitude":"51.492082","street":{"id":954513,"name":"On or near Lord Warwick Street"},"longitude":"0.054987"},"context":"","outcome_status":{"category":"Investigation complete; no suspect identified","date":"2018-02"},"persistent_id":"cd5ec78ec46a8e3aff158ad569855fa0f3d68e73862b2ace48068eaa88bf0fcb","id":63336861,"location_subtype":"","month":"2018-02"},{"category":"violent-crime","location_type":"Force","location":{"latitude":"51.489789","street":{"id":954589,"name":"On or near Thomas Street"},"longitude":"0.067215"},"context":"","outcome_status":{"category":"Offender sent to prison","date":"2018-04"},"persistent_id":"275bcaee982f228d5a714fee3a793f79119d0f78f10ef44ecb5ce5b19f979007","id":63291778,"location_subtype":"","month":"2018-02"},{"category":"violent-crime","location_type":"Force","location":{"latitude":"51.488303","street":{"id":948399,"name":"On or near Dairy Lane"},"longitude":"0.054544"},"context":"","outcome_status":{"category":"Status update unavailable","date":"2018-06"},"persistent_id":"23424f75076a16c83921d7c73b1d0d525b9cc5efbdcd9d6925a9d2ed1cde0e62","id":63306609,"location_subtype":"","month":"2018-02"},{"category":"violent-crime","location_type":"Force","location":{"latitude":"51.492943","street":{"id":954449,"name":"On or near Hare Street"},"longitude":"0.063799"},"context":"","outcome_status":{"category":"Investigation complete; no suspect identified","date":"2018-03"},"persistent_id":"0c35618ac3b58cc2024b87bdc4eddef095e89641be302a6dfe23c29f7ab0b029","id":63323043,"location_subtype":"","month":"2018-02"},{"category":"violent-crime","location_type":"Force","location":{"latitude":"51.492568","street":{"id":954446,"name":"On or near Powis Street"},"longitude":"0.062616"},"context":"","outcome_status":{"category":"Investigation complete; no suspect identified","date":"2018-03"},"persistent_id":"237675e26f3dc4ed5d09f28c2f020c99562f828f0acacae747a6dcfb9f82e5c7","id":63287930,"location_subtype":"","month":"2018-02"},{"category":"violent-crime","location_type":"Force","location":{"latitude":"51.492246","street":{"id":954440,"name":"On or near Parking Area"},"longitude":"0.062039"},"context":"","outcome_status":{"category":"Investigation complete; no suspect identified","date":"2018-03"},"persistent_id":"0ea750c99f59a20010e920a79d47af00ffb16b70d209614a63eec583fd3be4bf","id":63336607,"location_subtype":"","month":"2018-02"},{"category":"violent-crime","location_type":"Force","location":{"latitude":"51.491040","street":{"id":954515,"name":"On or near Kingsman Street"},"longitude":"0.059507"},"context":"","outcome_status":{"category":"Investigation complete; no suspect identified","date":"2018-03"},"persistent_id":"807196f5c0dc1ae9337d73a3b0f6df2e7ae4bd72be6a521ce6af2fa8258e7274","id":63298753,"location_subtype":"","month":"2018-02"},{"category":"violent-crime","location_type":"Force","location":{"latitude":"51.491304","street":{"id":954596,"name":"On or near Shopping Area"},"longitude":"0.065944"},"context":"","outcome_status":{"category":"Investigation complete; no suspect identified","date":"2018-03"},"persistent_id":"2076243e30483b45f4260766a682fed50b137b40a7471e20527456b97c7879b0","id":63289837,"location_subtype":"","month":"2018-02"},{"category":"violent-crime","location_type":"Force","location":{"latitude":"51.491304","street":{"id":954596,"name":"On or near Shopping Area"},"longitude":"0.065944"},"context":"","outcome_status":{"category":"Investigation complete; no suspect identified","date":"2018-03"},"persistent_id":"f5b6f365467a5f0ec4f8eb3e9176c0d1fabad4930a68dc57d8435e5ba1dce427","id":63336821,"location_subtype":"","month":"2018-02"},{"category":"violent-crime","location_type":"Force","location":{"latitude":"51.489789","street":{"id":954589,"name":"On or near Thomas Street"},"longitude":"0.067215"},"context":"","outcome_status":{"category":"Status update unavailable","date":"2018-06"},"persistent_id":"08f6afddc6f84f19ecfa2716f68f65b4d696503fe77a0a1923fda0cdf01fd11e","id":63298754,"location_subtype":"","month":"2018-02"},{"category":"violent-crime","location_type":"Force","location":{"latitude":"51.491130","street":{"id":954598,"name":"On or near Supermarket"},"longitude":"0.064611"},"context":"","outcome_status":{"category":"Status update unavailable","date":"2018-06"},"persistent_id":"5faa5a1c564b59cc447688ed05627434fae8140bdff405d406f2332d41284d70","id":63243005,"location_subtype":"","month":"2018-02"},{"category":"violent-crime","location_type":"BTP","location":{"latitude":"51.489900","street":{"id":1488065,"name":"Woolwich Arsenal (dlr)"},"longitude":"0.069699"},"context":"","outcome_status":{"category":"Status update unavailable","date":"2018-06"},"persistent_id":"","id":66315965,"location_subtype":"STATION","month":"2018-02"},{"category":"violent-crime","location_type":"Force","location":{"latitude":"51.493873","street":{"id":954445,"name":"On or near Spindle Close"},"longitude":"0.050775"},"context":"","outcome_status":{"category":"Status update unavailable","date":"2018-06"},"persistent_id":"83b3d9325391a46c97c33753f8c0cd191e1b273a06c17f4331334d7e62426135","id":63295635,"location_subtype":"","month":"2018-02"},{"category":"violent-crime","location_type":"BTP","location":{"latitude":"51.489900","street":{"id":1488065,"name":"Woolwich Arsenal (dlr)"},"longitude":"0.069699"},"context":"","outcome_status":{"category":"Status update unavailable","date":"2018-06"},"persistent_id":"","id":66315964,"location_subtype":"STATION","month":"2018-02"},{"category":"violent-crime","location_type":"Force","location":{"latitude":"51.489284","street":{"id":954508,"name":"On or near Mulgrave Road"},"longitude":"0.058636"},"context":"","outcome_status":{"category":"Investigation complete; no suspect identified","date":"2018-03"},"persistent_id":"26f19bfa2e4e591c530a22b580f7627d5e45fc7cd014b9a070f72d2a4d835026","id":63291424,"location_subtype":"","month":"2018-02"},{"category":"violent-crime","location_type":"Force","location":{"latitude":"51.490471","street":{"id":954594,"name":"On or near Greens End"},"longitude":"0.067837"},"context":"","outcome_status":{"category":"Offender given community sentence","date":"2018-03"},"persistent_id":"eeb0f8f63e2aa8756fa1b85ace6390abf12f5dab26dbf6e0dbddb4ec19ab1303","id":63290967,"location_subtype":"","month":"2018-02"},{"category":"violent-crime","location_type":"Force","location":{"latitude":"51.492082","street":{"id":954513,"name":"On or near Lord Warwick Street"},"longitude":"0.054987"},"context":"","outcome_status":{"category":"Investigation complete; no suspect identified","date":"2018-04"},"persistent_id":"6b25e2dcb83d3cec969cceb3714bfa83b4b61273d74b6b930ad63496102c4fcc","id":63290605,"location_subtype":"","month":"2018-02"},{"category":"violent-crime","location_type":"Force","location":{"latitude":"51.490210","street":{"id":954590,"name":"On or near Taylor's Buildings"},"longitude":"0.069856"},"context":"","outcome_status":{"category":"Offender given community sentence","date":"2018-03"},"persistent_id":"b552f0ad2c97f1cc8e86ae7a557ef15233e617335b767f37c4ad871d298896ad","id":63328312,"location_subtype":"","month":"2018-02"},{"category":"violent-crime","location_type":"Force","location":{"latitude":"51.493873","street":{"id":954445,"name":"On or near Spindle Close"},"longitude":"0.050775"},"context":"","outcome_status":{"category":"Investigation complete; no suspect identified","date":"2018-04"},"persistent_id":"83b3d9325391a46c97c33753f8c0cd191e1b273a06c17f4331334d7e62426135","id":63295636,"location_subtype":"","month":"2018-02"},{"category":"violent-crime","location_type":"Force","location":{"latitude":"51.488599","street":{"id":948383,"name":"On or near Rideout Street"},"longitude":"0.053592"},"context":"","outcome_status":{"category":"Investigation complete; no suspect identified","date":"2018-04"},"persistent_id":"e45d3aa3d88c5b602307dbcf84e4b00d02f7d847c74996d962f6d99cb7f3a8ef","id":63315371,"location_subtype":"","month":"2018-02"},{"category":"violent-crime","location_type":"Force","location":{"latitude":"51.491291","street":{"id":954498,"name":"On or near Parking Area"},"longitude":"0.062630"},"context":"","outcome_status":{"category":"Investigation complete; no suspect identified","date":"2018-04"},"persistent_id":"0abb80448b05382295c86fe5f99381371c83d1ccd503b846d401ec87977dd1cd","id":63314504,"location_subtype":"","month":"2018-02"},{"category":"violent-crime","location_type":"Force","location":{"latitude":"51.491304","street":{"id":954596,"name":"On or near Shopping Area"},"longitude":"0.065944"},"context":"","outcome_status":{"category":"Investigation complete; no suspect identified","date":"2018-04"},"persistent_id":"7a9a360d940c2b2479f897f00d19329f71674db1942544befd7b04e4d77fbad0","id":63302464,"location_subtype":"","month":"2018-02"},{"category":"violent-crime","location_type":"Force","location":{"latitude":"51.489948","street":{"id":954426,"name":"On or near Woolwich Road"},"longitude":"0.038614"},"context":"","outcome_status":{"category":"Investigation complete; no suspect identified","date":"2018-04"},"persistent_id":"8a80f053cd96d296c68a86954ccb57df1d111c96c132984f14153ae3697d10b0","id":63307693,"location_subtype":"","month":"2018-02"},{"category":"violent-crime","location_type":"Force","location":{"latitude":"51.490788","street":{"id":954497,"name":"On or near Pedestrian Subway"},"longitude":"0.062089"},"context":"","outcome_status":{"category":"Investigation complete; no suspect identified","date":"2018-04"},"persistent_id":"4d2d7aeed9bc1969541c7d3ff06f97c94c1c2f34c84fe175eed4fbc27250bba0","id":63325966,"location_subtype":"","month":"2018-02"},{"category":"violent-crime","location_type":"Force","location":{"latitude":"51.491642","street":{"id":954603,"name":"On or near Parking Area"},"longitude":"0.071793"},"context":"","outcome_status":{"category":"Investigation complete; no suspect identified","date":"2018-04"},"persistent_id":"623d417afe1a21cfe9220344122a7e8845b0b86d602167f5a1f3453311ec0045","id":63294345,"location_subtype":"","month":"2018-02"},{"category":"violent-crime","location_type":"Force","location":{"latitude":"51.493873","street":{"id":954445,"name":"On or near Spindle Close"},"longitude":"0.050775"},"context":"","outcome_status":{"category":"Investigation complete; no suspect identified","date":"2018-02"},"persistent_id":"a21311c7c574e405346544d5e271fabab21fe4298bf10342128501f73ea40a2c","id":63317409,"location_subtype":"","month":"2018-02"},{"category":"violent-crime","location_type":"Force","location":{"latitude":"51.491301","street":{"id":954597,"name":"On or near Supermarket"},"longitude":"0.068710"},"context":"","outcome_status":{"category":"Investigation complete; no suspect identified","date":"2018-03"},"persistent_id":"edbb7f1d3042645e951cefb7e98b13a0a3c77d2c2713a4679506252187b15ce8","id":63302913,"location_subtype":"","month":"2018-02"},{"category":"violent-crime","location_type":"Force","location":{"latitude":"51.490875","street":{"id":954523,"name":"On or near Castile Road"},"longitude":"0.062741"},"context":"","outcome_status":{"category":"Offender sent to prison","date":"2018-04"},"persistent_id":"eec777497018cedc39762ae311a410cd490bcda7772dfed5178f0936b8a7ae72","id":63332224,"location_subtype":"","month":"2018-02"},{"category":"violent-crime","location_type":"Force","location":{"latitude":"51.492829","street":{"id":954570,"name":"On or near Myrtle Alley"},"longitude":"0.064630"},"context":"","outcome_status":{"category":"Investigation complete; no suspect identified","date":"2018-03"},"persistent_id":"af0e053cd218bfb36d057261f51ceec8b3dd6e26987ff50af7a22dd1bc86f21d","id":63317327,"location_subtype":"","month":"2018-02"},{"category":"violent-crime","location_type":"Force","location":{"latitude":"51.491011","street":{"id":954504,"name":"On or near Samuel Close"},"longitude":"0.050920"},"context":"","outcome_status":{"category":"Investigation complete; no suspect identified","date":"2018-03"},"persistent_id":"720c63acde6df34757316df348f2a2b54c7c2dfc39af8357c6f6f92f46463269","id":63302306,"location_subtype":"","month":"2018-02"},{"category":"violent-crime","location_type":"Force","location":{"latitude":"51.491104","street":{"id":954509,"name":"On or near Monk Street"},"longitude":"0.063025"},"context":"","outcome_status":{"category":"Investigation complete; no suspect identified","date":"2018-03"},"persistent_id":"3ed5d28074c96da6c8c8141a8bedf6e96e6a30ef9f17557bf14a26934c858866","id":63301102,"location_subtype":"","month":"2018-02"},{"category":"violent-crime","location_type":"Force","location":{"latitude":"51.490210","street":{"id":954590,"name":"On or near Taylor's Buildings"},"longitude":"0.069856"},"context":"","outcome_status":{"category":"Investigation complete; no suspect identified","date":"2018-05"},"persistent_id":"f6c6a3f01c3132d5955e38406855e022fb45f54a69cb0274ed36b14ecbe4cc9b","id":63303453,"location_subtype":"","month":"2018-02"},{"category":"violent-crime","location_type":"Force","location":{"latitude":"51.489789","street":{"id":954589,"name":"On or near Thomas Street"},"longitude":"0.067215"},"context":"","outcome_status":{"category":"Status update unavailable","date":"2018-06"},"persistent_id":"08f6afddc6f84f19ecfa2716f68f65b4d696503fe77a0a1923fda0cdf01fd11e","id":63300290,"location_subtype":"","month":"2018-02"},{"category":"violent-crime","location_type":"Force","location":{"latitude":"51.493535","street":{"id":954482,"name":"On or near Ruston Road"},"longitude":"0.047461"},"context":"","outcome_status":{"category":"Investigation complete; no suspect identified","date":"2018-05"},"persistent_id":"413defb3ec5678949e5923b038dc85cd8456ad5c9e9ef2ebf1c09c83a15942a2","id":63290611,"location_subtype":"","month":"2018-02"},{"category":"violent-crime","location_type":"Force","location":{"latitude":"51.493677","street":{"id":923897,"name":"On or near Venus Road"},"longitude":"0.054238"},"context":"","outcome_status":{"category":"Status update unavailable","date":"2018-06"},"persistent_id":"d99543a27b69edd9856bd2dac0f8bf902511d671cf7358e473998ce9108b04fb","id":63318197,"location_subtype":"","month":"2018-02"},{"category":"violent-crime","location_type":"Force","location":{"latitude":"51.486162","street":{"id":948400,"name":"On or near Cannon Place"},"longitude":"0.049997"},"context":"","outcome_status":{"category":"Investigation complete; no suspect identified","date":"2018-04"},"persistent_id":"92ade99aefaab2abc4c5cc102a8a1ce132d36f0eda33fa27156a938d6a7f9cc1","id":63316866,"location_subtype":"","month":"2018-02"},{"category":"violent-crime","location_type":"Force","location":{"latitude":"51.492943","street":{"id":954449,"name":"On or near Hare Street"},"longitude":"0.063799"},"context":"","outcome_status":{"category":"Investigation complete; no suspect identified","date":"2018-04"},"persistent_id":"1d47bb4b1708d0c85c900be191a8cbd2db73d1e19713db6fafc114392b6b3088","id":63315190,"location_subtype":"","month":"2018-02"},{"category":"violent-crime","location_type":"Force","location":{"latitude":"51.490471","street":{"id":954594,"name":"On or near Greens End"},"longitude":"0.067837"},"context":"","outcome_status":{"category":"Status update unavailable","date":"2018-06"},"persistent_id":"be6455cc4f3fe8a747f7215a9d3b4a885adcd2d1e2d6e117211c9710989ed4f3","id":63337342,"location_subtype":"","month":"2018-02"},{"category":"violent-crime","location_type":"Force","location":{"latitude":"51.489143","street":{"id":948369,"name":"On or near Maryon Road"},"longitude":"0.046616"},"context":"","outcome_status":{"category":"Investigation complete; no suspect identified","date":"2018-03"},"persistent_id":"a9e7a6fc3c8ceceb8fd87e5ada641c40b39c2923a69c07ca0ff279883f4035df","id":63314612,"location_subtype":"","month":"2018-02"},{"category":"violent-crime","location_type":"Force","location":{"latitude":"51.490626","street":{"id":954490,"name":"On or near Tivoli Gardens"},"longitude":"0.047230"},"context":"","outcome_status":{"category":"Investigation complete; no suspect identified","date":"2018-02"},"persistent_id":"6b5ba337f35c75430efca48a4c63b27f188e3362ede01b65c3aaf0ca8110a43e","id":63331965,"location_subtype":"","month":"2018-02"},{"category":"violent-crime","location_type":"Force","location":{"latitude":"51.488704","street":{"id":948365,"name":"On or near Woodland Terrace"},"longitude":"0.046034"},"context":"","outcome_status":{"category":"Investigation complete; no suspect identified","date":"2018-03"},"persistent_id":"a914f29bb662270ec4e57108d78bae85ecb11205267f0b00fe2717b623a65532","id":63309901,"location_subtype":"","month":"2018-02"},{"category":"violent-crime","location_type":"Force","location":{"latitude":"51.491301","street":{"id":954597,"name":"On or near Supermarket"},"longitude":"0.068710"},"context":"","outcome_status":{"category":"Investigation complete; no suspect identified","date":"2018-03"},"persistent_id":"9fff926adbc7e1d4ad409078aeff2affeef15148fed0a16ecff3c570f3a875d4","id":63309739,"location_subtype":"","month":"2018-02"},{"category":"violent-crime","location_type":"Force","location":{"latitude":"51.489684","street":{"id":954431,"name":"On or near Charlton Lane"},"longitude":"0.039337"},"context":"","outcome_status":{"category":"Status update unavailable","date":"2018-06"},"persistent_id":"393968e82acb93a0dea9ee6f794bf8f7858eafabf758224c03dc370676f0def8","id":63330175,"location_subtype":"","month":"2018-02"},{"category":"violent-crime","location_type":"Force","location":{"latitude":"51.491301","street":{"id":954597,"name":"On or near Supermarket"},"longitude":"0.068710"},"context":"","outcome_status":{"category":"Status update unavailable","date":"2018-06"},"persistent_id":"f541d6a42632b21bfc7aa30c25591fca0039bd862842759b6fa615a7b1277351","id":63336851,"location_subtype":"","month":"2018-02"},{"category":"violent-crime","location_type":"Force","location":{"latitude":"51.492829","street":{"id":954570,"name":"On or near Myrtle Alley"},"longitude":"0.064630"},"context":"","outcome_status":{"category":"Investigation complete; no suspect identified","date":"2018-02"},"persistent_id":"95e50c545c0458374497590a783b6374dfaa6249cf6b7a6c846e941f729e430b","id":63325732,"location_subtype":"","month":"2018-02"},{"category":"violent-crime","location_type":"Force","location":{"latitude":"51.488599","street":{"id":948383,"name":"On or near Rideout Street"},"longitude":"0.053592"},"context":"","outcome_status":{"category":"Investigation complete; no suspect identified","date":"2018-03"},"persistent_id":"41c2a6c23628287d3ded37ce10c520e8192a938d4dad4b6e9a0d939956605417","id":63300004,"location_subtype":"","month":"2018-02"},{"category":"violent-crime","location_type":"Force","location":{"latitude":"51.489310","street":{"id":948500,"name":"On or near Shopping Area"},"longitude":"0.034984"},"context":"","outcome_status":{"category":"Awaiting court outcome","date":"2018-02"},"persistent_id":"5d497d40f761bc43f2fcd1fa3c9b8b1656fce970f0ad374c04c99250f8bcc4fb","id":63321324,"location_subtype":"","month":"2018-02"},{"category":"violent-crime","location_type":"Force","location":{"latitude":"51.490496","street":{"id":954606,"name":"On or near Parry Place"},"longitude":"0.072015"},"context":"","outcome_status":{"category":"Status update unavailable","date":"2018-06"},"persistent_id":"d946aaf1adcb026cfc77540b4533c8666b7230524b90738d3870e2fb807b07cc","id":63297243,"location_subtype":"","month":"2018-02"},{"category":"violent-crime","location_type":"Force","location":{"latitude":"51.491291","street":{"id":954498,"name":"On or near Parking Area"},"longitude":"0.062630"},"context":"","outcome_status":{"category":"Status update unavailable","date":"2018-06"},"persistent_id":"4566670447160c69061f304669acd047f85e19558d95e11e9d722f89a038ec7d","id":63334824,"location_subtype":"","month":"2018-02"},{"category":"violent-crime","location_type":"Force","location":{"latitude":"51.493882","street":{"id":954455,"name":"On or near Antelope Road"},"longitude":"0.051798"},"context":"","outcome_status":{"category":"Status update unavailable","date":"2018-06"},"persistent_id":"752af9fbd1866f96c0b3778c30917dcd37988c604f2b1a59210436aaa2711c5d","id":63327815,"location_subtype":"","month":"2018-02"},{"category":"violent-crime","location_type":"Force","location":{"latitude":"51.490636","street":{"id":954428,"name":"On or near Penhall Road"},"longitude":"0.037348"},"context":"","outcome_status":{"category":"Investigation complete; no suspect identified","date":"2018-03"},"persistent_id":"359e15ab192c2c2cd71deae35126a5a68749ebf391001d7d3455be02f2b68fc2","id":63335126,"location_subtype":"","month":"2018-02"},{"category":"violent-crime","location_type":"Force","location":{"latitude":"51.493882","street":{"id":954455,"name":"On or near Antelope Road"},"longitude":"0.051798"},"context":"","outcome_status":{"category":"Investigation complete; no suspect identified","date":"2018-02"},"persistent_id":"bfe6a0e5754ccb34425404d4c7ef8fde770f1a375eb367b708a76d23d5a451a3","id":63282107,"location_subtype":"","month":"2018-02"},{"category":"violent-crime","location_type":"Force","location":{"latitude":"51.490471","street":{"id":954594,"name":"On or near Greens End"},"longitude":"0.067837"},