[{"category":"anti-social-behaviour","location_type":"Force","location":{"latitude":"51.464680","street":{"id":942841,"name":"On or near Police Station"},"longitude":"-0.162197"},"context":"","outcome_status":null,"persistent_id":"","id":63266688,"location_subtype":"","month":"2018-02"},{"category":"anti-social-behaviour","location_type":"Force","location":{"latitude":"51.464680","street":{"id":942841,"name":"On or near Police Station"},"longitude":"-0.162197"},"context":"","outcome_status":null,"persistent_id":"","id":63266689,"location_subtype":"","month":"2018-02"},{"category":"anti-social-behaviour","location_type":"Force","location":{"latitude":"51.464680","street":{"id":942841,"name":"On or near Police Station"},"longitude":"-0.162197"},"context":"","outcome_status":null,"persistent_id":"","id":63266691,"location_subtype":"","month":"2018-02"},{"category":"anti-social-behaviour","location_type":"Force","location":{"latitude":"51.466731","street":{"id":945687,"name":"On or near Ashley Crescent"},"longitude":"-0.151921"},"context":"","outcome_status":null,"persistent_id":"","id":63266632,"location_subtype":"","month":"2018-02"},{"category":"anti-social-behaviour","location_type":"Force","location":{"latitude":"51.462222","street":{"id":942846,"name":"On or near Tregarvon Road"},"longitude":"-0.153414"},"context":"","outcome_status":null,"persistent_id":"","id":63266638,"location_subtype":"","month":"2018-02"},{"category":"anti-social-behaviour","location_type":"Force","location":{"latitude":"51.468370","street":{"id":945664,"name":"On or near Tyneham Road"},"longitude":"-0.154360"},"context":"","outcome_status":null,"persistent_id":"","id":63266640,"location_subtype":"","month":"2018-02"},{"category":"anti-social-behaviour","location_type":"Force","location":{"latitude":"51.465646","street":{"id":942856,"name":"On or near Rush Hill Mews"},"longitude":"-0.153822"},"context":"","outcome_status":null,"persistent_id":"","id":63266641,"location_subtype":"","month":"2018-02"},{"category":"anti-social-behaviour","location_type":"Force","location":{"latitude":"51.469565","street":{"id":945663,"name":"On or near Wickersley Road"},"longitude":"-0.154283"},"context":"","outcome_status":null,"persistent_id":"","id":63266644,"location_subtype":"","month":"2018-02"},{"category":"anti-social-behaviour","location_type":"Force","location":{"latitude":"51.466408","street":{"id":945667,"name":"On or near Shirley Grove"},"longitude":"-0.154252"},"context":"","outcome_status":null,"persistent_id":"","id":63266645,"location_subtype":"","month":"2018-02"},{"category":"anti-social-behaviour","location_type":"Force","location":{"latitude":"51.465732","street":{"id":942847,"name":"On or near Tipthorpe Road"},"longitude":"-0.155863"},"context":"","outcome_status":null,"persistent_id":"","id":63266646,"location_subtype":"","month":"2018-02"},{"category":"anti-social-behaviour","location_type":"Force","location":{"latitude":"51.466732","street":{"id":945676,"name":"On or near Gideon Road"},"longitude":"-0.155391"},"context":"","outcome_status":null,"persistent_id":"","id":63266647,"location_subtype":"","month":"2018-02"},{"category":"anti-social-behaviour","location_type":"Force","location":{"latitude":"51.461312","street":{"id":942881,"name":"On or near Clapham Common North Side"},"longitude":"-0.156747"},"context":"","outcome_status":null,"persistent_id":"","id":63266654,"location_subtype":"","month":"2018-02"},{"category":"anti-social-behaviour","location_type":"Force","location":{"latitude":"51.462176","street":{"id":942864,"name":"On or near Marjorie Grove"},"longitude":"-0.159087"},"context":"","outcome_status":null,"persistent_id":"","id":63266667,"location_subtype":"","month":"2018-02"},{"category":"anti-social-behaviour","location_type":"Force","location":{"latitude":"51.464680","street":{"id":942841,"name":"On or near Police Station"},"longitude":"-0.162197"},"context":"","outcome_status":null,"persistent_id":"","id":63266684,"location_subtype":"","month":"2018-02"},{"category":"anti-social-behaviour","location_type":"Force","location":{"latitude":"51.464680","street":{"id":942841,"name":"On or near Police Station"},"longitude":"-0.162197"},"context":"","outcome_status":null,"persistent_id":"","id":63266687,"location_subtype":"","month":"2018-02"},{"category":"anti-social-behaviour","location_type":"Force","location":{"latitude":"51.464680","street":{"id":942841,"name":"On or near Police Station"},"longitude":"-0.162197"},"context":"","outcome_status":null,"persistent_id":"","id":63266685,"location_subtype":"","month":"2018-02"},{"category":"anti-social-behaviour","location_type":"Force","location":{"latitude":"51.464680","street":{"id":942841,"name":"On or near Police Station"},"longitude":"-0.162197"},"context":"","outcome_status":null,"persistent_id":"","id":63266686,"location_subtype":"","month":"2018-02"},{"category":"bicycle-theft","location_type":"Force","location":{"latitude":"51.462222","street":{"id":942846,"name":"On or near Tregarvon Road"},"longitude":"-0.153414"},"context":"","outcome_status":{"category":"Status update unavailable","date":"2018-06"},"persistent_id":"111acdf77536878966928fe5d8ffb9bb767973ac51e5bbcab950918540f393d7","id":63307303,"location_subtype":"","month":"2018-02"},{"category":"bicycle-theft","location_type":"Force","location":{"latitude":"51.462119","street":{"id":942867,"name":"On or near Jedburgh Street"},"longitude":"-0.152554"},"context":"","outcome_status":{"category":"Status update unavailable","date":"2018-06"},"persistent_id":"c0b1926364fa5f509ba625a1a88fa6ed1b054de563c12c3daf8ac580dbec38c1","id":63336444,"location_subtype":"","month":"2018-02"},{"category":"bicycle-theft","location_type":"Force","location":{"latitude":"51.461312","street":{"id":942881,"name":"On or near Clapham Common North Side"},"longitude":"-0.156747"},"context":"","outcome_status":{"category":"Investigation complete; no suspect identified","date":"2018-03"},"persistent_id":"eb011549ea042f7e807ca301ddfaf4d6f07fb3ef95f4244b45ec2e149c25a87b","id":63307917,"location_subtype":"","month":"2018-02"},{"category":"bicycle-theft","location_type":"Force","location":{"latitude":"51.464761","street":{"id":942777,"name":"On or near Parking Area"},"longitude":"-0.165030"},"context":"","outcome_status":{"category":"Investigation complete; no suspect identified","date":"2018-03"},"persistent_id":"878313b0a2356298d985dba02b6db815b27515e586974424370a2efebc7f4bc0","id":63335043,"location_subtype":"","month":"2018-02"},{"category":"bicycle-theft","location_type":"Force","location":{"latitude":"51.461304","street":{"id":942849,"name":"On or near The Avenue"},"longitude":"-0.156200"},"context":"","outcome_status":{"category":"Status update unavailable","date":"2018-06"},"persistent_id":"52827606448068d3be8e5de3f20e6ca63fd022e2589a16338f65d361f75a7855","id":63333076,"location_subtype":"","month":"2018-02"},{"category":"burglary","location_type":"Force","location":{"latitude":"51.463230","street":{"id":942790,"name":"On or near Mysore Road"},"longitude":"-0.160326"},"context":"","outcome_status":{"category":"Status update unavailable","date":"2018-06"},"persistent_id":"ada3c6c650a71bfa859455b9fb8f8bd37cc36d5cd8c23b8c33bea8653ef19038","id":63335284,"location_subtype":"","month":"2018-02"},{"category":"burglary","location_type":"Force","location":{"latitude":"51.462871","street":{"id":942811,"name":"On or near Elspeth Road"},"longitude":"-0.160945"},"context":"","outcome_status":{"category":"Status update unavailable","date":"2018-06"},"persistent_id":"27554bb659e1cfcd3e7907572ae64b3e805dfedf070221db0c6d31153c89fbe2","id":63300324,"location_subtype":"","month":"2018-02"},{"category":"burglary","location_type":"Force","location":{"latitude":"51.469565","street":{"id":945663,"name":"On or near Wickersley Road"},"longitude":"-0.154283"},"context":"","outcome_status":{"category":"Status update unavailable","date":"2018-06"},"persistent_id":"78ddba428416a8dc1764db7afd50f0f8e5bad5de1e3888cff7371bad344a5ea6","id":63328993,"location_subtype":"","month":"2018-02"},{"category":"burglary","location_type":"Force","location":{"latitude":"51.461467","street":{"id":942888,"name":"On or near Petrol Station"},"longitude":"-0.157460"},"context":"","outcome_status":{"category":"Status update unavailable","date":"2018-06"},"persistent_id":"2c0decc93581eda600270e5b04a32c46026aa9211a4f00979176b964eed67ad6","id":63283750,"location_subtype":"","month":"2018-02"},{"category":"burglary","location_type":"Force","location":{"latitude":"51.466731","street":{"id":945687,"name":"On or near Ashley Crescent"},"longitude":"-0.151921"},"context":"","outcome_status":{"category":"Status update unavailable","date":"2018-06"},"persistent_id":"9f6980ab5e06d9d79748a7542b5c8a58dd12e718ef5404e97842352ff6255902","id":63321315,"location_subtype":"","month":"2018-02"},{"category":"burglary","location_type":"Force","location":{"latitude":"51.463959","street":{"id":942835,"name":"On or near Theatre\/concert Hall"},"longitude":"-0.162629"},"context":"","outcome_status":{"category":"Status update unavailable","date":"2018-06"},"persistent_id":"9d8f86bc87667809c01a3578c6b3609c53e3c1ed7d0ede7ad3e56b9b6ad0f44f","id":63309920,"location_subtype":"","month":"2018-02"},{"category":"burglary","location_type":"Force","location":{"latitude":"51.463959","street":{"id":942835,"name":"On or near Theatre\/concert Hall"},"longitude":"-0.162629"},"context":"","outcome_status":{"category":"Status update unavailable","date":"2018-06"},"persistent_id":"f8143be153c0abd89fdf91fffa5b692d98c8cd79a7392498bcb56db897b5c913","id":63328038,"location_subtype":"","month":"2018-02"},{"category":"burglary","location_type":"Force","location":{"latitude":"51.464761","street":{"id":942777,"name":"On or near Parking Area"},"longitude":"-0.165030"},"context":"","outcome_status":{"category":"Status update unavailable","date":"2018-06"},"persistent_id":"0dc32cf9e6a121699af181a44c9c71903b1976b432ba9f8e9192dbe0a48501cd","id":63327369,"location_subtype":"","month":"2018-02"},{"category":"burglary","location_type":"Force","location":{"latitude":"51.463361","street":{"id":942853,"name":"On or near Stormont Road"},"longitude":"-0.156045"},"context":"","outcome_status":{"category":"Status update unavailable","date":"2018-06"},"persistent_id":"49428e65d0904b6bc2643c716b2e26ffc2b1eea1d0a75620a23d20081621044d","id":63329795,"location_subtype":"","month":"2018-02"},{"category":"criminal-damage-arson","location_type":"Force","location":{"latitude":"51.466597","street":{"id":945684,"name":"On or near Beaufoy Road"},"longitude":"-0.150833"},"context":"","outcome_status":{"category":"Local resolution","date":"2018-05"},"persistent_id":"dfa4d9db5c34ef9dc74c19332e5cd6233a32e029ec736c3c0c410ee6360feaeb","id":63304965,"location_subtype":"","month":"2018-02"},{"category":"criminal-damage-arson","location_type":"Force","location":{"latitude":"51.463689","street":{"id":942851,"name":"On or near Taybridge Road"},"longitude":"-0.152361"},"context":"","outcome_status":{"category":"Status update unavailable","date":"2018-06"},"persistent_id":"d7ba78b9264187046f390707165004904a57de7c002f88a8ea78962bab75be04","id":63315879,"location_subtype":"","month":"2018-02"},{"category":"criminal-damage-arson","location_type":"Force","location":{"latitude":"51.466164","street":{"id":945661,"name":"On or near Woodmere Close"},"longitude":"-0.153600"},"context":"","outcome_status":{"category":"Investigation complete; no suspect identified","date":"2018-02"},"persistent_id":"c63808d55aac64e86745e7a5131d1fe175a2f1030f0a0a3f1e15fdde27f353ea","id":63292609,"location_subtype":"","month":"2018-02"},{"category":"criminal-damage-arson","location_type":"Force","location":{"latitude":"51.464680","street":{"id":942841,"name":"On or near Police Station"},"longitude":"-0.162197"},"context":"","outcome_status":{"category":"Status update unavailable","date":"2018-06"},"persistent_id":"21c33b5a92bd8f3851e5358f898e18e6aed9922444c2b178dddd43ab99a01a6c","id":63293059,"location_subtype":"","month":"2018-02"},{"category":"criminal-damage-arson","location_type":"Force","location":{"latitude":"51.463959","street":{"id":942835,"name":"On or near Theatre\/concert Hall"},"longitude":"-0.162629"},"context":"","outcome_status":{"category":"Investigation complete; no suspect identified","date":"2018-03"},"persistent_id":"fe0aea2e4483e2ea39e13d559e6d61b9782682fc5f2323e918b513a1dae14fcf","id":63281079,"location_subtype":"","month":"2018-02"},{"category":"criminal-damage-arson","location_type":"Force","location":{"latitude":"51.464761","street":{"id":942777,"name":"On or near Parking Area"},"longitude":"-0.165030"},"context":"","outcome_status":{"category":"Status update unavailable","date":"2018-06"},"persistent_id":"27639c01aadbf836a9b1901bf838e999d5f38abdbc273b7c390394ab7a2685b4","id":63324791,"location_subtype":"","month":"2018-02"},{"category":"criminal-damage-arson","location_type":"Force","location":{"latitude":"51.469279","street":{"id":945666,"name":"On or near Stanley Grove"},"longitude":"-0.151588"},"context":"","outcome_status":{"category":"Status update unavailable","date":"2018-06"},"persistent_id":"75432478e405f13b07d706b81206ec8aa730a82764dce6c8c362810312dad941","id":63338638,"location_subtype":"","month":"2018-02"},{"category":"drugs","location_type":"Force","location":{"latitude":"51.461467","street":{"id":942888,"name":"On or near Petrol Station"},"longitude":"-0.157460"},"context":"","outcome_status":{"category":"Offender fined","date":"2018-02"},"persistent_id":"09322a26db47f1b93c0c9e051f61762cbef496455e207f72fb478ab9679ca804","id":63339048,"location_subtype":"","month":"2018-02"},{"category":"other-theft","location_type":"Force","location":{"latitude":"51.461467","street":{"id":942888,"name":"On or near Petrol Station"},"longitude":"-0.157460"},"context":"","outcome_status":{"category":"Status update unavailable","date":"2018-06"},"persistent_id":"295f8699571a51761dbdd13b03cb7a4dd008a4ebb5065dd5c670541b33fd0d55","id":63327540,"location_subtype":"","month":"2018-02"},{"category":"other-theft","location_type":"Force","location":{"latitude":"51.464761","street":{"id":942777,"name":"On or near Parking Area"},"longitude":"-0.165030"},"context":"","outcome_status":{"category":"Status update unavailable","date":"2018-06"},"persistent_id":"0b2b96d0d9c7be93beea9d9c79fbc8771adf552d0319c361587a79d34e62c1d1","id":63327542,"location_subtype":"","month":"2018-02"},{"category":"other-theft","location_type":"Force","location":{"latitude":"51.468083","street":{"id":945665,"name":"On or near Stanley Grove"},"longitude":"-0.150974"},"context":"","outcome_status":{"category":"Status update unavailable","date":"2018-06"},"persistent_id":"2766fab21d4b70196a288c2a16da3c85da65db2dc8fd8b77668a1ff95df2534a","id":63318633,"location_subtype":"","month":"2018-02"},{"category":"other-theft","location_type":"Force","location":{"latitude":"51.465732","street":{"id":942847,"name":"On or near Tipthorpe Road"},"longitude":"-0.155863"},"context":"","outcome_status":{"category":"Status update unavailable","date":"2018-06"},"persistent_id":"b8a5c1d0fb4f5bba3b20520778b06181d00d2a7d87ab687ea3cd3983ad1a3454","id":63329895,"location_subtype":"","month":"2018-02"},{"category":"other-theft","location_type":"Force","location":{"latitude":"51.463230","street":{"id":942790,"name":"On or near Mysore Road"},"longitude":"-0.160326"},"context":"","outcome_status":{"category":"Investigation complete; no suspect identified","date":"2018-03"},"persistent_id":"322b1143374c6e810a731c9b28a8d9a8d29acfc4c629221d194ef8e32e9f2ce7","id":63325189,"location_subtype":"","month":"2018-02"},{"category":"other-theft","location_type":"Force","location":{"latitude":"51.466917","street":{"id":945669,"name":"On or near Queenstown Road"},"longitude":"-0.150633"},"context":"","outcome_status":{"category":"Investigation complete; no suspect identified","date":"2018-04"},"persistent_id":"e5c4ab995746e8584f67a498643b236218d6155761e64c948585d99fab60db9b","id":63285689,"location_subtype":"","month":"2018-02"},{"category":"other-theft","location_type":"Force","location":{"latitude":"51.463143","street":{"id":942862,"name":"On or near Marmion Road"},"longitude":"-0.153650"},"context":"","outcome_status":{"category":"Status update unavailable","date":"2018-06"},"persistent_id":"90e3b87f36a8b5ec611c587afe948d298dcc653403b7001e023f2fb6031dc94c","id":63280357,"location_subtype":"","month":"2018-02"},{"category":"other-theft","location_type":"Force","location":{"latitude":"51.464297","street":{"id":942791,"name":"On or near Mossbury Road"},"longitude":"-0.167007"},"context":"","outcome_status":{"category":"Status update unavailable","date":"2018-06"},"persistent_id":"c46d8bb973a40e275ef27eaae132f78eeacd8da055ba92860610b5de98039df5","id":63284646,"location_subtype":"","month":"2018-02"},{"category":"other-theft","location_type":"Force","location":{"latitude":"51.464761","street":{"id":942777,"name":"On or near Parking Area"},"longitude":"-0.165030"},"context":"","outcome_status":{"category":"Status update unavailable","date":"2018-06"},"persistent_id":"d3ad18fef9ab1c3e1b81f6998215905337581686b24dd0eb36292f6c896054a7","id":63331916,"location_subtype":"","month":"2018-02"},{"category":"other-theft","location_type":"Force","location":{"latitude":"51.465060","street":{"id":942803,"name":"On or near Kathleen Road"},"longitude":"-0.162902"},"context":"","outcome_status":{"category":"Status update unavailable","date":"2018-06"},"persistent_id":"bfb2876aeae3265deae817e7841a2c0d77ea8140b54da24b10dc5884556e3801","id":63307567,"location_subtype":"","month":"2018-02"},{"category":"other-theft","location_type":"Force","location":{"latitude":"51.464297","street":{"id":942791,"name":"On or near Mossbury Road"},"longitude":"-0.167007"},"context":"","outcome_status":{"category":"Status update unavailable","date":"2018-06"},"persistent_id":"51b3126c4d6615a1aff9457c7b27919a921e4519791080e2bde57ea42eced890","id":63307768,"location_subtype":"","month":"2018-02"},{"category":"other-theft","location_type":"Force","location":{"latitude":"51.461467","street":{"id":942888,"name":"On or near Petrol Station"},"longitude":"-0.157460"},"context":"","outcome_status":{"category":"Investigation complete; no suspect identified","date":"2018-02"},"persistent_id":"d419789a121ab7c7973fb334aa33eabe81c02cd696cb040f8d4bb2d4ab1bcef6","id":63295759,"location_subtype":"","month":"2018-02"},{"category":"other-theft","location_type":"Force","location":{"latitude":"51.462871","street":{"id":942811,"name":"On or near Elspeth Road"},"longitude":"-0.160945"},"context":"","outcome_status":{"category":"Status update unavailable","date":"2018-06"},"persistent_id":"a76680052065614b60d8ef682f639e5698221e60e0c82c0ee261bcb90aaa2674","id":63336200,"location_subtype":"","month":"2018-02"},{"category":"other-theft","location_type":"Force","location":{"latitude":"51.463959","street":{"id":942835,"name":"On or near Theatre\/concert Hall"},"longitude":"-0.162629"},"context":"","outcome_status":{"category":"Status update unavailable","date":"2018-06"},"persistent_id":"fc30831dd45a2101dd33b3d44e43936b3061891d91bb7c141bb88f02b893abd3","id":63335859,"location_subtype":"","month":"2018-02"},{"category":"other-theft","location_type":"Force","location":{"latitude":"51.461467","street":{"id":942888,"name":"On or near Petrol Station"},"longitude":"-0.157460"},"context":"","outcome_status":{"category":"Investigation complete; no suspect identified","date":"2018-04"},"persistent_id":"8ab91f8547ec4a577682ee3380bcd67add59b1d53a9d418c119f51a5bb4e1598","id":63321270,"location_subtype":"","month":"2018-02"},{"category":"other-theft","location_type":"Force","location":{"latitude":"51.464761","street":{"id":942777,"name":"On or near Parking Area"},"longitude":"-0.165030"},"context":"","outcome_status":{"category":"Investigation complete; no suspect identified","date":"2018-05"},"persistent_id":"3b38df0e4f4e1102eed25948162b5f1dc9f037ad932b0f9f4eda6570d39148e4","id":63286856,"location_subtype":"","month":"2018-02"},{"category":"public-order","location_type":"Force","location":{"latitude":"51.462623","street":{"id":942796,"name":"On or near Lavender Walk"},"longitude":"-0.163489"},"context":"","outcome_status":{"category":"Status update unavailable","date":"2018-06"},"persistent_id":"53fb81dadf1deb4fd65995dc4feb0b990191247bd36939da9aba13d42883eb9c","id":63327975,"location_subtype":"","month":"2018-02"},{"category":"public-order","location_type":"Force","location":{"latitude":"51.464761","street":{"id":942777,"name":"On or near Parking Area"},"longitude":"-0.165030"},"context":"","outcome_status":{"category":"Investigation complete; no suspect identified","date":"2018-02"},"persistent_id":"0861e4ce400fc8bd942b3615485857e2688c8c01f72ad711fde072d2d82fbbf0","id":63295865,"location_subtype":"","month":"2018-02"},{"category":"robbery","location_type":"Force","location":{"latitude":"51.464623","street":{"id":942810,"name":"On or near Falcon Lane"},"longitude":"-0.166605"},"context":"","outcome_status":{"category":"Investigation complete; no suspect identified","date":"2018-04"},"persistent_id":"8066ed489c8862a5f39a769e7b2115793e0a5e0688117f143b70e4a9a53cfe03","id":63314894,"location_subtype":"","month":"2018-02"},{"category":"robbery","location_type":"Force","location":{"latitude":"51.462484","street":{"id":942813,"name":"On or near Eccles Road"},"longitude":"-0.163811"},"context":"","outcome_status":{"category":"Status update unavailable","date":"2018-06"},"persistent_id":"cb3c4a343b8fe77affbc07917cabc1cf53815a5b07b13ae5f3e9dca5159ac4d2","id":63302343,"location_subtype":"","month":"2018-02"},{"category":"shoplifting","location_type":"Force","location":{"latitude":"51.464928","street":{"id":942866,"name":"On or near Lavender Hill"},"longitude":"-0.159077"},"context":"","outcome_status":{"category":"Investigation complete; no suspect identified","date":"2018-03"},"persistent_id":"7ec3b70cf685db8a6c8dabd5d18445f86174bdfea28e09c1aa4d16d996e4612b","id":63290837,"location_subtype":"","month":"2018-02"},{"category":"shoplifting","location_type":"Force","location":{"latitude":"51.464761","street":{"id":942777,"name":"On or near Parking Area"},"longitude":"-0.165030"},"context":"","outcome_status":{"category":"Status update unavailable","date":"2018-06"},"persistent_id":"0861e4ce400fc8bd942b3615485857e2688c8c01f72ad711fde072d2d82fbbf0","id":63295739,"location_subtype":"","month":"2018-02"},{"category":"shoplifting","location_type":"Force","location":{"latitude":"51.464761","street":{"id":942777,"name":"On or near Parking Area"},"longitude":"-0.165030"},"context":"","outcome_status":{"category":"Local resolution","date":"2018-02"},"persistent_id":"6b84ccda4db5e52bb53f698732eddfb20cf012e5d12fdeb7da6f675a691672fb","id":63329437,"location_subtype":"","month":"2018-02"},{"category":"shoplifting","location_type":"Force","location":{"latitude":"51.464761","street":{"id":942777,"name":"On or near Parking Area"},"longitude":"-0.165030"},"context":"","outcome_status":{"category":"Offender given a caution","date":"2018-02"},"persistent_id":"c5bae2d931f6f11acf9523504f0ec84d39c389cd7ce2cf89851d3aa37797c01e","id":63318651,"location_subtype":"","month":"2018-02"},{"category":"shoplifting","location_type":"Force","location":{"latitude":"51.464761","street":{"id":942777,"name":"On or near Parking Area"},"longitude":"-0.165030"},"context":"","outcome_status":{"category":"Status update unavailable","date":"2018-06"},"persistent_id":"d365ec092afdc948eb326f4acb1fb570d5d7ed22c94880aa65506a502f1b2345","id":63315065,"location_subtype":"","month":"2018-02"},{"category":"shoplifting","location_type":"Force","location":{"latitude":"51.464761","street":{"id":942777,"name":"On or near Parking Area"},"longitude":"-0.165030"},"context":"","outcome_status":{"category":"Local resolution","date":"2018-02"},"persistent_id":"d7a5989de950d6f4af463da6afc489353bafa080bec3f0aa8ebd54a8f762c7b7","id":63300069,"location_subtype":"","month":"2018-02"},{"category":"shoplifting","location_type":"Force","location":{"latitude":"51.464761","street":{"id":942777,"name":"On or near Parking Area"},"longitude":"-0.165030"},"context":"","outcome_status":{"category":"Status update unavailable","date":"2018-06"},"persistent_id":"a065af6078af7292a6c26f03516b0396b2561cf05a9793354ccb614200174b25","id":63309044,"location_subtype":"","month":"2018-02"},{"category":"shoplifting","location_type":"Force","location":{"latitude":"51.464761","street":{"id":942777,"name":"On or near Parking Area"},"longitude":"-0.165030"},"context":"","outcome_status":{"category":"Status update unavailable","date":"2018-06"},"persistent_id":"5778850bd894250c02d4cccfa8794cc19d425a40cbbd883e69e80fdcf669e2fa","id":63321672,"location_subtype":"","month":"2018-02"},{"category":"theft-from-the-person","location_type":"Force","location":{"latitude":"51.467196","street":{"id":945670,"name":"On or near Queenstown Road"},"longitude":"-0.150636"},"context":"","outcome_status":{"category":"Status update unavailable","date":"2018-06"},"persistent_id":"a005b5d9d492d3ba9fc925c96986b7441fc53db8bfefeda0c6a54c24e761c16b","id":63290469,"location_subtype":"","month":"2018-02"},{"category":"theft-from-the-person","location_type":"Force","location":{"latitude":"51.466164","street":{"id":945661,"name":"On or near Woodmere Close"},"longitude":"-0.153600"},"context":"","outcome_status":{"category":"Status update unavailable","date":"2018-06"},"persistent_id":"bad5654f1e65804cbf1b6e11c70aeeb3d661c93015a466bd7251dbfdf2e983b1","id":63299139,"location_subtype":"","month":"2018-02"},{"category":"theft-from-the-person","location_type":"Force","location":{"latitude":"51.463959","street":{"id":942835,"name":"On or near Theatre\/concert Hall"},"longitude":"-0.162629"},"context":"","outcome_status":{"category":"Status update unavailable","date":"2018-06"},"persistent_id":"448e02ed653b096364cf2444d549074cf4ee8b2704cd42dac10328df6331d859","id":63284025,"location_subtype":"","month":"2018-02"},{"category":"theft-from-the-person","location_type":"Force","location":{"latitude":"51.464761","street":{"id":942777,"name":"On or near Parking Area"},"longitude":"-0.165030"},"context":"","outcome_status":{"category":"Investigation complete; no suspect identified","date":"2018-03"},"persistent_id":"d95589a759dbfad1a96984d2aa0a8c1b93a70c5c4cdd09eddab980031295bba0","id":63326740,"location_subtype":"","month":"2018-02"},{"category":"theft-from-the-person","location_type":"Force","location":{"latitude":"51.464761","street":{"id":942777,"name":"On or near Parking Area"},"longitude":"-0.165030"},"context":"","outcome_status":{"category":"Status update unavailable","date":"2018-06"},"persistent_id":"94d46cc41dfe297c769f3b9b2836eb566a448548d1611cab45da28f20f15d680","id":63336866,"location_subtype":"","month":"2018-02"},{"category":"vehicle-crime","location_type":"Force","location":{"latitude":"51.462176","street":{"id":942864,"name":"On or near Marjorie Grove"},"longitude":"-0.159087"},"context":"","outcome_status":{"category":"Status update unavailable","date":"2018-06"},"persistent_id":"2776a94fb8c8ba641d9155651603162a37c45c3649a5102b724f9a1763c2b02a","id":63325024,"location_subtype":"","month":"2018-02"},{"category":"vehicle-crime","location_type":"Force","location":{"latitude":"51.462776","street":{"id":942861,"name":"On or near Marney Road"},"longitude":"-0.156602"},"context":"","outcome_status":{"category":"Status update unavailable","date":"2018-06"},"persistent_id":"58fe94e4a1dcb3164ea00591bcc4fc7994dedd4806275256040e727bb0607c5b","id":63292610,"location_subtype":"","month":"2018-02"},{"category":"vehicle-crime","location_type":"Force","location":{"latitude":"51.466294","street":{"id":945680,"name":"On or near Eland Road"},"longitude":"-0.160160"},"context":"","outcome_status":{"category":"Status update unavailable","date":"2018-06"},"persistent_id":"7ee7165c9904ddc0041e8c97b429335d4f81ffd4ab9b04ed42b745aaf7d1a1c1","id":63321516,"location_subtype":"","month":"2018-02"},{"category":"vehicle-crime","location_type":"Force","location":{"latitude":"51.462581","street":{"id":942873,"name":"On or near Forthbridge Road"},"longitude":"-0.155055"},"context":"","outcome_status":{"category":"Status update unavailable","date":"2018-06"},"persistent_id":"22d79181810cd98c245a03401c46ee33b7096760a57e6726eb6ec91ee08d4381","id":63338652,"location_subtype":"","month":"2018-02"},{"category":"vehicle-crime","location_type":"Force","location":{"latitude":"51.465379","street":{"id":942870,"name":"On or near Garfield Road"},"longitude":"-0.151760"},"context":"","outcome_status":{"category":"Status update unavailable","date":"2018-06"},"persistent_id":"b1628269f270592d6848ef800779729d640350e666e5e7881299be979871ebba","id":63291026,"location_subtype":"","month":"2018-02"},{"category":"vehicle-crime","location_type":"Force","location":{"latitude":"51.468421","street":{"id":945688,"name":"On or near Ashbury Road"},"longitude":"-0.157583"},"context":"","outcome_status":{"category":"Status update unavailable","date":"2018-06"},"persistent_id":"99683f6683a10bb8bf8686482a94c873a10e62b73c08ed383f212bf305e0212f","id":63286320,"location_subtype":"","month":"2018-02"},{"category":"vehicle-crime","location_type":"Force","location":{"latitude":"51.465060","street":{"id":942803,"name":"On or near Kathleen Road"},"longitude":"-0.162902"},"context":"","outcome_status":{"category":"Status update unavailable","date":"2018-06"},"persistent_id":"a319effdd825346e54c7d645f8f17f2ea3ab95616ff713661213fe3270590895","id":63323386,"location_subtype":"","month":"2018-02"},{"category":"vehicle-crime","location_type":"Force","location":{"latitude":"51.466917","street":{"id":945669,"name":"On or near Queenstown Road"},"longitude":"-0.150633"},"context":"","outcome_status":{"category":"Status update unavailable","date":"2018-06"},"persistent_id":"e0e5d944b1e057129e64bbb80e75068189fee9baee39c12a4edfde2ccdf5f5fb","id":63324994,"location_subtype":"","month":"2018-02"},{"category":"vehicle-crime","location_type":"Force","location":{"latitude":"51.461304","street":{"id":942849,"name":"On or near The Avenue"},"longitude":"-0.156200"},"context":"","outcome_status":{"category":"Status update unavailable","date":"2018-06"},"persistent_id":"4e7315ec018d6f86e8845aa1c700a93e0491a20fb804d40f772699559a6eb414","id":63281713,"location_subtype":"","month":"2018-02"},{"category":"vehicle-crime","location_type":"Force","location":{"latitude":"51.464761","street":{"id":942777,"name":"On or near Parking Area"},"longitude":"-0.165030"},"context":"","outcome_status":{"category":"Investigation complete; no suspect identified","date":"2018-03"},"persistent_id":"2c6fb11439e304dba83d8d74d994794361060ab2bfe29d3961e986209ffc4517","id":63325224,"location_subtype":"","month":"2018-02"},{"category":"vehicle-crime","location_type":"Force","location":{"latitude":"51.462410","street":{"id":942797,"name":"On or near Lavender Sweep"},"longitude":"-0.165412"},"context":"","outcome_status":{"category":"Status update unavailable","date":"2018-06"},"persistent_id":"a6c6efccfeeb0764559f9efae27e272d2a8f3e4b0d306683e2b9b645f7fde06d","id":63325941,"location_subtype":"","month":"2018-02"},{"category":"vehicle-crime","location_type":"Force","location":{"latitude":"51.464680","street":{"id":942841,"name":"On or near Police Station"},"longitude":"-0.162197"},"context":"","outcome_status":{"category":"Status update unavailable","date":"2018-06"},"persistent_id":"194929886b0418517b9278e2eb823a80707bc1e34612b1195a5b364cf3b83646","id":63326030,"location_subtype":"","month":"2018-02"},{"category":"vehicle-crime","location_type":"Force","location":{"latitude":"51.462176","street":{"id":942864,"name":"On or near Marjorie Grove"},"longitude":"-0.159087"},"context":"","outcome_status":{"category":"Status update unavailable","date":"2018-06"},"persistent_id":"33b993b3bb578094792e1f3cbc3c6c461e879e89e1cf95d661df8bfb28b29312","id":63326715,"location_subtype":"","month":"2018-02"},{"category":"vehicle-crime","location_type":"Force","location":{"latitude":"51.462623","street":{"id":942796,"name":"On or near Lavender Walk"},"longitude":"-0.163489"},"context":"","outcome_status":{"category":"Status update unavailable","date":"2018-06"},"persistent_id":"b80932c483c3bc2b485d65e72a2f729439a89b5db40aeb3079f0512c8a095bc2","id":63329608,"location_subtype":"","month":"2018-02"},{"category":"vehicle-crime","location_type":"Force","location":{"latitude":"51.464446","street":{"id":942872,"name":"On or near Freke Road"},"longitude":"-0.151855"},"context":"","outcome_status":{"category":"Status update unavailable","date":"2018-06"},"persistent_id":"a80acb3c5e3ba5790c6c6af706e0bd1d0fbfc1afcd40a8e71ab5150de856778c","id":63332163,"location_subtype":"","month":"2018-02"},{"category":"vehicle-crime","location_type":"Force","location":{"latitude":"51.465016","street":{"id":942890,"name":"On or near Theatre\/concert Hall"},"longitude":"-0.156655"},"context":"","outcome_status":{"category":"Status update unavailable","date":"2018-06"},"persistent_id":"4128aba9f81eed500ea623390838477da81580be681dc2a60667a4d9f479eb71","id":63332236,"location_subtype":"","month":"2018-02"},{"category":"vehicle-crime","location_type":"Force","location":{"latitude":"51.462776","street":{"id":942861,"name":"On or near Marney Road"},"longitude":"-0.156602"},"context":"","outcome_status":{"category":"Status update unavailable","date":"2018-06"},"persistent_id":"c261df0f122e6c303a41416045614e3d62baeecec2f0534e9bbc9ad96283d45a","id":63314095,"location_subtype":"","month":"2018-02"},{"category":"vehicle-crime","location_type":"Force","location":{"latitude":"51.463006","street":{"id":942854,"name":"On or near Sisters Avenue"},"longitude":"-0.159212"},"context":"","outcome_status":{"category":"Status update unavailable","date":"2018-06"},"persistent_id":"fc34ad9b44586edb0f98f19790b86547f79a0b571fbcb244b7ba6c9035099762","id":63304526,"location_subtype":"","month":"2018-02"},{"category":"vehicle-crime","location_type":"Force","location":{"latitude":"51.464446","street":{"id":942872,"name":"On or near Freke Road"},"longitude":"-0.151855"},"context":"","outcome_status":{"category":"Status update unavailable","date":"2018-06"},"persistent_id":"79fe32f3c59ef3703693091ecdbb543aa426d4f1d3ab2222b5c982dca2e6bd32","id":63338756,"location_subtype":"","month":"2018-02"},{"category":"vehicle-crime","location_type":"Force","location":{"latitude":"51.462564","street":{"id":942798,"name":"On or near Lavender Sweep"},"longitude":"-0.165464"},"context":"","outcome_status":{"category":"Status update unavailable","date":"2018-06"},"persistent_id":"5cb93858cf4b3309ee21eab7f52c7fff3569786be8ab896da203733f2613d9e3","id":63336917,"location_subtype":"","month":"2018-02"},{"category":"vehicle-crime","location_type":"Force","location":{"latitude":"51.464761","street":{"id":942777,"name":"On or near Parking Area"},"longitude":"-0.165030"},"context":"","outcome_status":{"category":"Investigation complete; no suspect identified","date":"2018-02"},"persistent_id":"09260fda4b2c00e27c8dc64478f3caee39ad3bb532de535b1ec588f104dbd360","id":63307601,"location_subtype":"","month":"2018-02"},{"category":"violent-crime","location_type":"Force","location":{"latitude":"51.467068","street":{"id":945679,"name":"On or near Elsley Road"},"longitude":"-0.157912"},"context":"","outcome_status":{"category":"Investigation complete; no suspect identified","date":"2018-05"},"persistent_id":"63b5cc9cfb3c20505c997be50d1f6592a4a43591e850d24e3368f1f2fc63f093","id":63336618,"location_subtype":"","month":"2018-02"},{"category":"violent-crime","location_type":"Force","location":{"latitude":"51.468896","street":{"id":945673,"name":"On or near Holden Street"},"longitude":"-0.156960"},"context":"","outcome_status":{"category":"Investigation complete; no suspect identified","date":"2018-02"},"persistent_id":"f88ba2800fc39850b070416486d8a909f46af9dff9b47f5797b526252bbda5a9","id":63303434,"location_subtype":"","month":"2018-02"},{"category":"violent-crime","location_type":"Force","location":{"latitude":"51.465737","street":{"id":942886,"name":"On or near Acanthus Road"},"longitude":"-0.157893"},"context":"","outcome_status":{"category":"Status update unavailable","date":"2018-06"},"persistent_id":"9dd04e1e525c02bb1343547672276794a57d0a1f6fa5b206c5e57104d11baea4","id":63331147,"location_subtype":"","month":"2018-02"},{"category":"violent-crime","location_type":"Force","location":{"latitude":"51.464187","street":{"id":942865,"name":"On or near Longbeach Road"},"longitude":"-0.158877"},"context":"","outcome_status":{"category":"Investigation complete; no suspect identified","date":"2018-05"},"persistent_id":"9017941ea9bd756d9dfae99d627c03400b81d98ab313a4ed51e789c4fb06cad1","id":63328789,"location_subtype":"","month":"2018-02"},{"category":"violent-crime","location_type":"Force","location":{"latitude":"51.466408","street":{"id":945667,"name":"On or near Shirley Grove"},"longitude":"-0.154252"},"context":"","outcome_status":{"category":"Status update unavailable","date":"2018-06"},"persistent_id":"7c48aa03436f9468de391a22bb6d79cb8a49acc99f5ce007b93d81c8d5d802c9","id":63319143,"location_subtype":"","month":"2018-02"},{"category":"violent-crime","location_type":"Force","location":{"latitude":"51.467980","street":{"id":945682,"name":"On or near Brassey Square"},"longitude":"-0.157587"},"context":"","outcome_status":{"category":"Investigation complete; no suspect identified","date":"2018-02"},"persistent_id":"14c3ae3c3dae84f36f776b532c9732ee7b0782f0e497e8e634852547f46c8e35","id":63339154,"location_subtype":"","month":"2018-02"},{"category":"violent-crime","location_type":"Force","location":{"latitude":"51.464761","street":{"id":942777,"name":"On or near Parking Area"},"longitude":"-0.165030"},"context":"","outcome_status":{"category":"Investigation complete; no suspect identified","date":"2018-03"},"persistent_id":"06068358417a2fbfa6060b02de8529d68a358957cfba1cd6d685ee41e1f2905c","id":63286032,"location_subtype":"","month":"2018-02"},{"category":"violent-crime","location_type":"Force","location":{"latitude":"51.465646","street":{"id":942856,"name":"On or near Rush Hill Mews"},"longitude":"-0.153822"},"context":"","outcome_status":{"category":"Status update unavailable","date":"2018-06"},"persistent_id":"ac1b1c4c33254b9025e6c767fda254c542d4a78a93bedd1d945ea3d32fc16d2c","id":63296581,"location_subtype":"","month":"2018-02"},{"category":"violent-crime","location_type":"Force","location":{"latitude":"51.465646","street":{"id":942856,"name":"On or near Rush Hill Mews"},"longitude":"-0.153822"},"context":"","outcome_status":{"category":"Status update unavailable","date":"2018-06"},"persistent_id":"ac1b1c4c33254b9025e6c767fda254c542d4a78a93bedd1d945ea3d32fc16d2c","id":63296580,"location_subtype":"","month":"2018-02"},{"category":"violent-crime","location_type":"Force","location":{"latitude":"51.465646","street":{"id":942856,"name":"On or near Rush Hill Mews"},"longitude":"-0.153822"},"context":"","outcome_status":{"category":"Status update unavailable","date":"2018-06"},"persistent_id":"ac1b1c4c33254b9025e6c767fda254c542d4a78a93bedd1d945ea3d32fc16d2c","id":63295777,"location_subtype":"","month":"2018-02"},{"category":"violent-crime","location_type":"Force","location":{"latitude":"51.465060","street":{"id":942803,"name":"On or near Kathleen Road"},"longitude":"-0.162902"},"context":"","outcome_status":{"category":"Investigation complete; no suspect identified","date":"2018-05"},"persistent_id":"bdc847955b375f0062d82da51ef8388bffe0d66fe27ace817d0e5a32ca78dccd","id":63281288,"location_subtype":"","month":"2018-02"},{"category":"violent-crime","location_type":"Force","location":{"latitude":"51.465060","street":{"id":942803,"name":"On or near Kathleen Road"},"longitude":"-0.162902"},"context":"","outcome_status":{"category":"Investigation complete; no suspect identified","date":"2018-05"},"persistent_id":"3b0af211c3579a8022e2ac6f15c94034d098545f3103b81fb9641a211ea17543","id":63284615,"location_subtype":"","month":"2018-02"},{"category":"violent-crime","location_type":"Force","location":{"latitude":"51.466917","street":{"id":945669,"name":"On or near Queenstown Road"},"longitude":"-0.150633"},"context":"","outcome_status":{"category":"Status update unavailable","date":"2018-06"},"persistent_id":"0bb5cd4240ebdcb8721bb17f383d13bb2b7dfa806e153c54ea1286dd22423296","id":63338931,"location_subtype":"","month":"2018-02"},{"category":"other-crime","location_type":"Force","location":{"latitude":"51.464928","street":{"id":942866,"name":"On or near Lavender Hill"},"longitude":"-0.159077"},"context":"","outcome_status":{"category":"Awaiting court outcome","date":"2018-02"},"persistent_id":"8efe860c45eaa8b1677016402d2c5d1d94896f2e3a97e06e19b46c6d545f833a","id":63329944,"location_subtype":"","month":"2018-02"}]