[{"category":"anti-social-behaviour","location_type":"Force","location":{"latitude":"51.509263","street":{"id":951428,"name":"On or near Golden Crescent"},"longitude":"-0.422718"},"context":"","outcome_status":null,"persistent_id":"","id":63277010,"location_subtype":"","month":"2018-02"},{"category":"anti-social-behaviour","location_type":"Force","location":{"latitude":"51.508618","street":{"id":951434,"name":"On or near Shopping Area"},"longitude":"-0.424225"},"context":"","outcome_status":null,"persistent_id":"","id":63277017,"location_subtype":"","month":"2018-02"},{"category":"anti-social-behaviour","location_type":"Force","location":{"latitude":"51.501988","street":{"id":951426,"name":"On or near Albert Road"},"longitude":"-0.424050"},"context":"","outcome_status":null,"persistent_id":"","id":63277018,"location_subtype":"","month":"2018-02"},{"category":"anti-social-behaviour","location_type":"Force","location":{"latitude":"51.513201","street":{"id":958600,"name":"On or near Botwell Lane"},"longitude":"-0.424658"},"context":"","outcome_status":null,"persistent_id":"","id":63277025,"location_subtype":"","month":"2018-02"},{"category":"anti-social-behaviour","location_type":"Force","location":{"latitude":"51.505572","street":{"id":951427,"name":"On or near Trevor Road"},"longitude":"-0.427125"},"context":"","outcome_status":null,"persistent_id":"","id":63277030,"location_subtype":"","month":"2018-02"},{"category":"anti-social-behaviour","location_type":"Force","location":{"latitude":"51.498864","street":{"id":951539,"name":"On or near Gordon Crescent"},"longitude":"-0.415715"},"context":"","outcome_status":null,"persistent_id":"","id":63276942,"location_subtype":"","month":"2018-02"},{"category":"anti-social-behaviour","location_type":"Force","location":{"latitude":"51.507440","street":{"id":951525,"name":"On or near Nield Road"},"longitude":"-0.422248"},"context":"","outcome_status":null,"persistent_id":"","id":63277009,"location_subtype":"","month":"2018-02"},{"category":"anti-social-behaviour","location_type":"Force","location":{"latitude":"51.504313","street":{"id":951430,"name":"On or near Clarendon Road"},"longitude":"-0.423033"},"context":"","outcome_status":null,"persistent_id":"","id":63277013,"location_subtype":"","month":"2018-02"},{"category":"anti-social-behaviour","location_type":"Force","location":{"latitude":"51.512200","street":{"id":958675,"name":"On or near Park\/open Space"},"longitude":"-0.446727"},"context":"","outcome_status":null,"persistent_id":"","id":63277293,"location_subtype":"","month":"2018-02"},{"category":"anti-social-behaviour","location_type":"Force","location":{"latitude":"51.518652","street":{"id":958542,"name":"On or near St Jerome's Grove"},"longitude":"-0.440929"},"context":"","outcome_status":null,"persistent_id":"","id":63277078,"location_subtype":"","month":"2018-02"},{"category":"anti-social-behaviour","location_type":"Force","location":{"latitude":"51.505572","street":{"id":951427,"name":"On or near Trevor Road"},"longitude":"-0.427125"},"context":"","outcome_status":null,"persistent_id":"","id":63277031,"location_subtype":"","month":"2018-02"},{"category":"anti-social-behaviour","location_type":"Force","location":{"latitude":"51.504444","street":{"id":951522,"name":"On or near Western View"},"longitude":"-0.418793"},"context":"","outcome_status":null,"persistent_id":"","id":63276956,"location_subtype":"","month":"2018-02"},{"category":"anti-social-behaviour","location_type":"Force","location":{"latitude":"51.521428","street":{"id":958579,"name":"On or near Cranmer Road"},"longitude":"-0.434017"},"context":"","outcome_status":null,"persistent_id":"","id":63277062,"location_subtype":"","month":"2018-02"},{"category":"anti-social-behaviour","location_type":"Force","location":{"latitude":"51.504444","street":{"id":951522,"name":"On or near Western View"},"longitude":"-0.418793"},"context":"","outcome_status":null,"persistent_id":"","id":63276957,"location_subtype":"","month":"2018-02"},{"category":"anti-social-behaviour","location_type":"Force","location":{"latitude":"51.507917","street":{"id":951361,"name":"On or near Park\/open Space"},"longitude":"-0.443789"},"context":"","outcome_status":null,"persistent_id":"","id":63277288,"location_subtype":"","month":"2018-02"},{"category":"anti-social-behaviour","location_type":"Force","location":{"latitude":"51.507917","street":{"id":951361,"name":"On or near Park\/open Space"},"longitude":"-0.443789"},"context":"","outcome_status":null,"persistent_id":"","id":63277287,"location_subtype":"","month":"2018-02"},{"category":"anti-social-behaviour","location_type":"Force","location":{"latitude":"51.515623","street":{"id":958556,"name":"On or near Dallega Close"},"longitude":"-0.437689"},"context":"","outcome_status":null,"persistent_id":"","id":63277073,"location_subtype":"","month":"2018-02"},{"category":"anti-social-behaviour","location_type":"Force","location":{"latitude":"51.504444","street":{"id":951522,"name":"On or near Western View"},"longitude":"-0.418793"},"context":"","outcome_status":null,"persistent_id":"","id":63276958,"location_subtype":"","month":"2018-02"},{"category":"anti-social-behaviour","location_type":"Force","location":{"latitude":"51.498351","street":{"id":951545,"name":"On or near Sutherland Avenue"},"longitude":"-0.413716"},"context":"","outcome_status":null,"persistent_id":"","id":63276789,"location_subtype":"","month":"2018-02"},{"category":"anti-social-behaviour","location_type":"Force","location":{"latitude":"51.504444","street":{"id":951522,"name":"On or near Western View"},"longitude":"-0.418793"},"context":"","outcome_status":null,"persistent_id":"","id":63276959,"location_subtype":"","month":"2018-02"},{"category":"anti-social-behaviour","location_type":"Force","location":{"latitude":"51.504444","street":{"id":951522,"name":"On or near Western View"},"longitude":"-0.418793"},"context":"","outcome_status":null,"persistent_id":"","id":63276960,"location_subtype":"","month":"2018-02"},{"category":"anti-social-behaviour","location_type":"Force","location":{"latitude":"51.516188","street":{"id":958552,"name":"On or near Juniper Way"},"longitude":"-0.430867"},"context":"","outcome_status":null,"persistent_id":"","id":63277046,"location_subtype":"","month":"2018-02"},{"category":"anti-social-behaviour","location_type":"Force","location":{"latitude":"51.525174","street":{"id":959076,"name":"On or near Police Station"},"longitude":"-0.435085"},"context":"","outcome_status":null,"persistent_id":"","id":63277064,"location_subtype":"","month":"2018-02"},{"category":"anti-social-behaviour","location_type":"Force","location":{"latitude":"51.499053","street":{"id":951534,"name":"On or near North Hyde Road"},"longitude":"-0.417798"},"context":"","outcome_status":null,"persistent_id":"","id":63276949,"location_subtype":"","month":"2018-02"},{"category":"anti-social-behaviour","location_type":"Force","location":{"latitude":"51.518652","street":{"id":958542,"name":"On or near St Jerome's Grove"},"longitude":"-0.440929"},"context":"","outcome_status":null,"persistent_id":"","id":63277075,"location_subtype":"","month":"2018-02"},{"category":"anti-social-behaviour","location_type":"Force","location":{"latitude":"51.518652","street":{"id":958542,"name":"On or near St Jerome's Grove"},"longitude":"-0.440929"},"context":"","outcome_status":null,"persistent_id":"","id":63277076,"location_subtype":"","month":"2018-02"},{"category":"anti-social-behaviour","location_type":"Force","location":{"latitude":"51.515623","street":{"id":958556,"name":"On or near Dallega Close"},"longitude":"-0.437689"},"context":"","outcome_status":null,"persistent_id":"","id":63277072,"location_subtype":"","month":"2018-02"},{"category":"anti-social-behaviour","location_type":"Force","location":{"latitude":"51.525496","street":{"id":959061,"name":"On or near Uxbridge Road"},"longitude":"-0.436313"},"context":"","outcome_status":null,"persistent_id":"","id":63277069,"location_subtype":"","month":"2018-02"},{"category":"anti-social-behaviour","location_type":"Force","location":{"latitude":"51.518652","street":{"id":958542,"name":"On or near St Jerome's Grove"},"longitude":"-0.440929"},"context":"","outcome_status":null,"persistent_id":"","id":63277077,"location_subtype":"","month":"2018-02"},{"category":"anti-social-behaviour","location_type":"Force","location":{"latitude":"51.504444","street":{"id":951522,"name":"On or near Western View"},"longitude":"-0.418793"},"context":"","outcome_status":null,"persistent_id":"","id":63276979,"location_subtype":"","month":"2018-02"},{"category":"anti-social-behaviour","location_type":"Force","location":{"latitude":"51.504444","street":{"id":951522,"name":"On or near Western View"},"longitude":"-0.418793"},"context":"","outcome_status":null,"persistent_id":"","id":63276991,"location_subtype":"","month":"2018-02"},{"category":"anti-social-behaviour","location_type":"Force","location":{"latitude":"51.525496","street":{"id":959061,"name":"On or near Uxbridge Road"},"longitude":"-0.436313"},"context":"","outcome_status":null,"persistent_id":"","id":63277068,"location_subtype":"","month":"2018-02"},{"category":"anti-social-behaviour","location_type":"Force","location":{"latitude":"51.525174","street":{"id":959076,"name":"On or near Police Station"},"longitude":"-0.435085"},"context":"","outcome_status":null,"persistent_id":"","id":63277059,"location_subtype":"","month":"2018-02"},{"category":"anti-social-behaviour","location_type":"Force","location":{"latitude":"51.512937","street":{"id":958562,"name":"On or near Sports\/recreation Area"},"longitude":"-0.433818"},"context":"","outcome_status":null,"persistent_id":"","id":63277051,"location_subtype":"","month":"2018-02"},{"category":"anti-social-behaviour","location_type":"Force","location":{"latitude":"51.523153","street":{"id":959066,"name":"On or near Middleton Road"},"longitude":"-0.431853"},"context":"","outcome_status":null,"persistent_id":"","id":63277050,"location_subtype":"","month":"2018-02"},{"category":"anti-social-behaviour","location_type":"Force","location":{"latitude":"51.504444","street":{"id":951522,"name":"On or near Western View"},"longitude":"-0.418793"},"context":"","outcome_status":null,"persistent_id":"","id":63276992,"location_subtype":"","month":"2018-02"},{"category":"anti-social-behaviour","location_type":"Force","location":{"latitude":"51.504444","street":{"id":951522,"name":"On or near Western View"},"longitude":"-0.418793"},"context":"","outcome_status":null,"persistent_id":"","id":63276993,"location_subtype":"","month":"2018-02"},{"category":"anti-social-behaviour","location_type":"Force","location":{"latitude":"51.503061","street":{"id":951493,"name":"On or near Station Road"},"longitude":"-0.420944"},"context":"","outcome_status":null,"persistent_id":"","id":63276997,"location_subtype":"","month":"2018-02"},{"category":"anti-social-behaviour","location_type":"Force","location":{"latitude":"51.503061","street":{"id":951493,"name":"On or near Station Road"},"longitude":"-0.420944"},"context":"","outcome_status":null,"persistent_id":"","id":63276998,"location_subtype":"","month":"2018-02"},{"category":"anti-social-behaviour","location_type":"Force","location":{"latitude":"51.503061","street":{"id":951493,"name":"On or near Station Road"},"longitude":"-0.420944"},"context":"","outcome_status":null,"persistent_id":"","id":63276999,"location_subtype":"","month":"2018-02"},{"category":"anti-social-behaviour","location_type":"Force","location":{"latitude":"51.503061","street":{"id":951493,"name":"On or near Station Road"},"longitude":"-0.420944"},"context":"","outcome_status":null,"persistent_id":"","id":63277000,"location_subtype":"","month":"2018-02"},{"category":"anti-social-behaviour","location_type":"Force","location":{"latitude":"51.503061","street":{"id":951493,"name":"On or near Station Road"},"longitude":"-0.420944"},"context":"","outcome_status":null,"persistent_id":"","id":63277001,"location_subtype":"","month":"2018-02"},{"category":"anti-social-behaviour","location_type":"Force","location":{"latitude":"51.500684","street":{"id":951500,"name":"On or near Petrol Station"},"longitude":"-0.421343"},"context":"","outcome_status":null,"persistent_id":"","id":63277005,"location_subtype":"","month":"2018-02"},{"category":"anti-social-behaviour","location_type":"Force","location":{"latitude":"51.507440","street":{"id":951525,"name":"On or near Nield Road"},"longitude":"-0.422248"},"context":"","outcome_status":null,"persistent_id":"","id":63277008,"location_subtype":"","month":"2018-02"},{"category":"bicycle-theft","location_type":"BTP","location":{"latitude":"51.503000","street":{"id":1486699,"name":"Hayes & Harlington (station)"},"longitude":"-0.420337"},"context":"","outcome_status":{"category":"Status update unavailable","date":"2018-06"},"persistent_id":"","id":66315038,"location_subtype":"STATION","month":"2018-02"},{"category":"bicycle-theft","location_type":"Force","location":{"latitude":"51.504444","street":{"id":951522,"name":"On or near Western View"},"longitude":"-0.418793"},"context":"","outcome_status":{"category":"Status update unavailable","date":"2018-06"},"persistent_id":"fb4aaf935157aa9ea7f9773b5d19816fdae1efad94746bf13103475559b1d446","id":63317002,"location_subtype":"","month":"2018-02"},{"category":"burglary","location_type":"Force","location":{"latitude":"51.519149","street":{"id":958566,"name":"On or near Corwell Gardens"},"longitude":"-0.442512"},"context":"","outcome_status":{"category":"Status update unavailable","date":"2018-06"},"persistent_id":"9a11aea22962fff5820e83c28045221227f3e08549d9c10b3b24063ae9844b49","id":63288331,"location_subtype":"","month":"2018-02"},{"category":"burglary","location_type":"Force","location":{"latitude":"51.523293","street":{"id":959067,"name":"On or near Melina Close"},"longitude":"-0.433621"},"context":"","outcome_status":{"category":"Status update unavailable","date":"2018-06"},"persistent_id":"e2145a0db03ec16927c801373f57e20d5d8069397f3a315798a8dbb7d41e6225","id":63308382,"location_subtype":"","month":"2018-02"},{"category":"burglary","location_type":"Force","location":{"latitude":"51.513201","street":{"id":958600,"name":"On or near Botwell Lane"},"longitude":"-0.424658"},"context":"","outcome_status":{"category":"Status update unavailable","date":"2018-06"},"persistent_id":"9c3dd2b29817e4dbc2ac5bdbafce378679f97ae09ea58b4b02bc864a73fc9cb1","id":63309281,"location_subtype":"","month":"2018-02"},{"category":"burglary","location_type":"Force","location":{"latitude":"51.504444","street":{"id":951522,"name":"On or near Western View"},"longitude":"-0.418793"},"context":"","outcome_status":{"category":"Status update unavailable","date":"2018-06"},"persistent_id":"165bded1541923e74b2ce11ab5b2e16de76b687393437adb76c1b088cc57e4a6","id":63336767,"location_subtype":"","month":"2018-02"},{"category":"burglary","location_type":"Force","location":{"latitude":"51.515965","street":{"id":958585,"name":"On or near Sycamore Avenue"},"longitude":"-0.427618"},"context":"","outcome_status":{"category":"Status update unavailable","date":"2018-06"},"persistent_id":"89b0b42b07042a032695f56e4ef00324d789b383a0e31047407b4e21dbe0860a","id":63339230,"location_subtype":"","month":"2018-02"},{"category":"burglary","location_type":"Force","location":{"latitude":"51.504444","street":{"id":951522,"name":"On or near Western View"},"longitude":"-0.418793"},"context":"","outcome_status":{"category":"Status update unavailable","date":"2018-06"},"persistent_id":"966df64c748a27d773f67b37e95c6fc4fae61fc64af1f08a7179a37e7a392c65","id":63298746,"location_subtype":"","month":"2018-02"},{"category":"burglary","location_type":"Force","location":{"latitude":"51.504444","street":{"id":951522,"name":"On or near Western View"},"longitude":"-0.418793"},"context":"","outcome_status":{"category":"Status update unavailable","date":"2018-06"},"persistent_id":"d13e6393313155a11a94da30cd6c15177ce28ceaaa441b957613022939d4135b","id":63313099,"location_subtype":"","month":"2018-02"},{"category":"burglary","location_type":"Force","location":{"latitude":"51.522696","street":{"id":958572,"name":"On or near Waylands"},"longitude":"-0.434680"},"context":"","outcome_status":{"category":"Investigation complete; no suspect identified","date":"2018-03"},"persistent_id":"0159403b06687652534434a98592b059e258a2da9af06077e72694247ecb8d53","id":63325687,"location_subtype":"","month":"2018-02"},{"category":"criminal-damage-arson","location_type":"Force","location":{"latitude":"51.520297","street":{"id":958616,"name":"On or near Bishop's Road"},"longitude":"-0.439590"},"context":"","outcome_status":{"category":"Status update unavailable","date":"2018-06"},"persistent_id":"14272fd94ca7f98c79364f1ca3c3de81cbadcd670701da86e4cbf1881410f41b","id":63278988,"location_subtype":"","month":"2018-02"},{"category":"criminal-damage-arson","location_type":"Force","location":{"latitude":"51.501988","street":{"id":951426,"name":"On or near Albert Road"},"longitude":"-0.424050"},"context":"","outcome_status":{"category":"Status update unavailable","date":"2018-06"},"persistent_id":"b042d2c8a64acf8dec739ec511b40f0299f76161e2d1e29ace750af326f7d067","id":63314431,"location_subtype":"","month":"2018-02"},{"category":"criminal-damage-arson","location_type":"Force","location":{"latitude":"51.520297","street":{"id":958616,"name":"On or near Bishop's Road"},"longitude":"-0.439590"},"context":"","outcome_status":{"category":"Awaiting court outcome","date":"2018-02"},"persistent_id":"2c74fbd1627fa6ca3f35f24cc447672fbae98899ac016a38965dc24ebf153093","id":63288891,"location_subtype":"","month":"2018-02"},{"category":"criminal-damage-arson","location_type":"Force","location":{"latitude":"51.515965","street":{"id":958585,"name":"On or near Sycamore Avenue"},"longitude":"-0.427618"},"context":"","outcome_status":{"category":"Offender given a caution","date":"2018-02"},"persistent_id":"7fff4b39e5d483225e1cb68971de8ba46f8a0ef35623498bb62e66a1ccb77d36","id":63280375,"location_subtype":"","month":"2018-02"},{"category":"criminal-damage-arson","location_type":"Force","location":{"latitude":"51.512002","street":{"id":958614,"name":"On or near Forris Avenue"},"longitude":"-0.423114"},"context":"","outcome_status":{"category":"Status update unavailable","date":"2018-06"},"persistent_id":"6cd4eb297df5a9028eb488703e4a568b685c62be5f82dedff60668f6a3e25c08","id":63298348,"location_subtype":"","month":"2018-02"},{"category":"criminal-damage-arson","location_type":"Force","location":{"latitude":"51.522696","street":{"id":958572,"name":"On or near Waylands"},"longitude":"-0.434680"},"context":"","outcome_status":{"category":"Investigation complete; no suspect identified","date":"2018-03"},"persistent_id":"fcb671ab71190be5e855f9f4fed4b10aca357991503579c7bd31a41456bb8281","id":63328956,"location_subtype":"","month":"2018-02"},{"category":"criminal-damage-arson","location_type":"Force","location":{"latitude":"51.522696","street":{"id":958572,"name":"On or near Waylands"},"longitude":"-0.434680"},"context":"","outcome_status":{"category":"Offender given conditional discharge","date":"2018-03"},"persistent_id":"0dc65a9e0d66c0fed6aede83a651c59eb656586c8b04865ad7ab36a9499a3b09","id":63330875,"location_subtype":"","month":"2018-02"},{"category":"criminal-damage-arson","location_type":"Force","location":{"latitude":"51.498177","street":{"id":951546,"name":"On or near North Hyde Road"},"longitude":"-0.414831"},"context":"","outcome_status":{"category":"Investigation complete; no suspect identified","date":"2018-03"},"persistent_id":"2dd48ec2ec0e42add79797019d0e105333f3a016476e07070633be2ca4b808a0","id":63286249,"location_subtype":"","month":"2018-02"},{"category":"drugs","location_type":"Force","location":{"latitude":"51.505572","street":{"id":951427,"name":"On or near Trevor Road"},"longitude":"-0.427125"},"context":"","outcome_status":{"category":"Offender given a drugs possession warning","date":"2018-02"},"persistent_id":"d3d2d9bc6e30da6c036e8ef8868d0f51a9212d21919afba6b61387ac0c10f743","id":63322313,"location_subtype":"","month":"2018-02"},{"category":"drugs","location_type":"Force","location":{"latitude":"51.525174","street":{"id":959076,"name":"On or near Police Station"},"longitude":"-0.435085"},"context":"","outcome_status":{"category":"Offender given a drugs possession warning","date":"2018-02"},"persistent_id":"7603111f1fdd380d04f52f87feab1c8cb63156362bfea6948780ec61ee28c09b","id":63325408,"location_subtype":"","month":"2018-02"},{"category":"drugs","location_type":"Force","location":{"latitude":"51.501772","street":{"id":951421,"name":"On or near North Hyde Road"},"longitude":"-0.425383"},"context":"","outcome_status":{"category":"Awaiting court outcome","date":"2018-02"},"persistent_id":"b31f1afc18aaeabd86d7641f9d9b4e508a5a416e9e244bbc769257656a2b85e8","id":63308052,"location_subtype":"","month":"2018-02"},{"category":"drugs","location_type":"Force","location":{"latitude":"51.498177","street":{"id":951546,"name":"On or near North Hyde Road"},"longitude":"-0.414831"},"context":"","outcome_status":{"category":"Offender given a drugs possession warning","date":"2018-02"},"persistent_id":"54dbfa514d2977b52fcc63271a759390566498fcd86cb3bcbdc403a5ef943b21","id":63318592,"location_subtype":"","month":"2018-02"},{"category":"drugs","location_type":"Force","location":{"latitude":"51.506557","street":{"id":951460,"name":"On or near Betam Road"},"longitude":"-0.433532"},"context":"","outcome_status":{"category":"Offender sent to prison","date":"2018-03"},"persistent_id":"3655ffd2ed168ae24727a1c82c1b9c5b94b02355f2ae6af933897af04a7ea935","id":63288768,"location_subtype":"","month":"2018-02"},{"category":"drugs","location_type":"Force","location":{"latitude":"51.503558","street":{"id":951492,"name":"On or near Pedestrian Subway"},"longitude":"-0.420423"},"context":"","outcome_status":{"category":"Status update unavailable","date":"2018-06"},"persistent_id":"bf1bdf26fbff595ba95513db8f3e50609480b6649665104fd2ec880c4ee40ba5","id":63303288,"location_subtype":"","month":"2018-02"},{"category":"other-theft","location_type":"Force","location":{"latitude":"51.501340","street":{"id":951417,"name":"On or near Station Road"},"longitude":"-0.424000"},"context":"","outcome_status":{"category":"Status update unavailable","date":"2018-06"},"persistent_id":"5b3af5458f1e85845566d12576e96424684974cafc468811570ee0dad831af18","id":63303727,"location_subtype":"","month":"2018-02"},{"category":"other-theft","location_type":"Force","location":{"latitude":"51.503558","street":{"id":951492,"name":"On or near Pedestrian Subway"},"longitude":"-0.420423"},"context":"","outcome_status":{"category":"Investigation complete; no suspect identified","date":"2018-03"},"persistent_id":"73f9568cecf66c456f488a447e167f1b7765e801be317ee726fcc926aa3822d8","id":63314248,"location_subtype":"","month":"2018-02"},{"category":"other-theft","location_type":"Force","location":{"latitude":"51.508618","street":{"id":951434,"name":"On or near Shopping Area"},"longitude":"-0.424225"},"context":"","outcome_status":{"category":"Investigation complete; no suspect identified","date":"2018-03"},"persistent_id":"68e0480836209d2d9b4d30f69748f87078511d83494dd9716df9cf0e6a2caf49","id":63281120,"location_subtype":"","month":"2018-02"},{"category":"other-theft","location_type":"Force","location":{"latitude":"51.501355","street":{"id":951494,"name":"On or near Sandow Crescent"},"longitude":"-0.421118"},"context":"","outcome_status":{"category":"Status update unavailable","date":"2018-06"},"persistent_id":"5252c299fdb2998cc92a0184707fcb4ce2b2faf456b8e92b0727a52890168824","id":63300602,"location_subtype":"","month":"2018-02"},{"category":"other-theft","location_type":"Force","location":{"latitude":"51.505572","street":{"id":951427,"name":"On or near Trevor Road"},"longitude":"-0.427125"},"context":"","outcome_status":{"category":"Status update unavailable","date":"2018-06"},"persistent_id":"bd8da274e645c31e821b1cd2509b5b57a5883c365f805444b09b1c6e47cad8b2","id":63290856,"location_subtype":"","month":"2018-02"},{"category":"other-theft","location_type":"Force","location":{"latitude":"51.515623","street":{"id":958556,"name":"On or near Dallega Close"},"longitude":"-0.437689"},"context":"","outcome_status":{"category":"Status update unavailable","date":"2018-06"},"persistent_id":"eb967a7fc2e2132c60bb7711043a619faabe5859cb6286f705a8c0d8c3cfc127","id":63331259,"location_subtype":"","month":"2018-02"},{"category":"other-theft","location_type":"Force","location":{"latitude":"51.503903","street":{"id":951519,"name":"On or near Parking Area"},"longitude":"-0.420641"},"context":"","outcome_status":{"category":"Status update unavailable","date":"2018-06"},"persistent_id":"032131b66485e0b7b053420fc7354fcbeb8031ae411327cbf1d2c9f923a5bc2c","id":63331542,"location_subtype":"","month":"2018-02"},{"category":"other-theft","location_type":"Force","location":{"latitude":"51.510505","street":{"id":958524,"name":"On or near Second Avenue"},"longitude":"-0.419476"},"context":"","outcome_status":{"category":"Investigation complete; no suspect identified","date":"2018-03"},"persistent_id":"8a7a309b3814094e09d693ef70b7f869d088cf2f86efb4372cb2346eaa67438d","id":63330505,"location_subtype":"","month":"2018-02"},{"category":"other-theft","location_type":"Force","location":{"latitude":"51.501772","street":{"id":951421,"name":"On or near North Hyde Road"},"longitude":"-0.425383"},"context":"","outcome_status":{"category":"Investigation complete; no suspect identified","date":"2018-03"},"persistent_id":"f6d9c63e30173912ce2b486220e5d29936791368b3977188dc7a81884b4c75ed","id":63300833,"location_subtype":"","month":"2018-02"},{"category":"other-theft","location_type":"Force","location":{"latitude":"51.518200","street":{"id":958563,"name":"On or near Sports\/recreation Area"},"longitude":"-0.433378"},"context":"","outcome_status":{"category":"Investigation complete; no suspect identified","date":"2018-03"},"persistent_id":"029fee4f3bf9714521eaf517588259ccc63945df31abd10372b862e7daadb9b4","id":63299322,"location_subtype":"","month":"2018-02"},{"category":"other-theft","location_type":"Force","location":{"latitude":"51.503903","street":{"id":951519,"name":"On or near Parking Area"},"longitude":"-0.420641"},"context":"","outcome_status":{"category":"Status update unavailable","date":"2018-06"},"persistent_id":"aefe77ecb12690cad8fc23ee7e1c7e0502cc388676aa69fbdf39d6a8710434e1","id":63315642,"location_subtype":"","month":"2018-02"},{"category":"other-theft","location_type":"Force","location":{"latitude":"51.503558","street":{"id":951492,"name":"On or near Pedestrian Subway"},"longitude":"-0.420423"},"context":"","outcome_status":{"category":"Investigation complete; no suspect identified","date":"2018-02"},"persistent_id":"cca3f5107d394cf9c4f6ce8ffb75b9b9167e1ebe6a3a2798a5eb671ea50e90b4","id":63295503,"location_subtype":"","month":"2018-02"},{"category":"other-theft","location_type":"Force","location":{"latitude":"51.499053","street":{"id":951534,"name":"On or near North Hyde Road"},"longitude":"-0.417798"},"context":"","outcome_status":{"category":"Investigation complete; no suspect identified","date":"2018-02"},"persistent_id":"6a4054cc44be6536e27277156e67f7bd342a1c9196f6720485ea6dbc4fd29234","id":63339261,"location_subtype":"","month":"2018-02"},{"category":"other-theft","location_type":"Force","location":{"latitude":"51.505474","street":{"id":951429,"name":"On or near Clayton Road"},"longitude":"-0.425169"},"context":"","outcome_status":{"category":"Investigation complete; no suspect identified","date":"2018-03"},"persistent_id":"477b0575a5618283f72a313bc34aa4fbe796df5682412a18f8914eb5628461b6","id":63279623,"location_subtype":"","month":"2018-02"},{"category":"other-theft","location_type":"Force","location":{"latitude":"51.502437","street":{"id":951422,"name":"On or near North Hyde Road"},"longitude":"-0.426671"},"context":"","outcome_status":{"category":"Status update unavailable","date":"2018-06"},"persistent_id":"c9e52124a416f835e26a703c03a18ffcbc250782ce96fbc22d7420c6d2a68293","id":63304697,"location_subtype":"","month":"2018-02"},{"category":"possession-of-weapons","location_type":"Force","location":{"latitude":"51.519456","street":{"id":958591,"name":"On or near Leven Way"},"longitude":"-0.428420"},"context":"","outcome_status":{"category":"Investigation complete; no suspect identified","date":"2018-03"},"persistent_id":"d1d65a1e3d77e7beb19e19eb187fb0b4905f309c08333ec582ee2b7cbf494b80","id":63317046,"location_subtype":"","month":"2018-02"},{"category":"possession-of-weapons","location_type":"Force","location":{"latitude":"51.515965","street":{"id":958585,"name":"On or near Sycamore Avenue"},"longitude":"-0.427618"},"context":"","outcome_status":{"category":"Status update unavailable","date":"2018-06"},"persistent_id":"7fff4b39e5d483225e1cb68971de8ba46f8a0ef35623498bb62e66a1ccb77d36","id":63279401,"location_subtype":"","month":"2018-02"},{"category":"public-order","location_type":"Force","location":{"latitude":"51.524920","street":{"id":959068,"name":"On or near Hayes End Road"},"longitude":"-0.432210"},"context":"","outcome_status":{"category":"Investigation complete; no suspect identified","date":"2018-03"},"persistent_id":"947381e71e8be182811f1bcdab36ac52308f88ca5d25b53f72e54d80a7bfe9ef","id":63281220,"location_subtype":"","month":"2018-02"},{"category":"public-order","location_type":"Force","location":{"latitude":"51.522696","street":{"id":958572,"name":"On or near Waylands"},"longitude":"-0.434680"},"context":"","outcome_status":{"category":"Status update unavailable","date":"2018-06"},"persistent_id":"0dc65a9e0d66c0fed6aede83a651c59eb656586c8b04865ad7ab36a9499a3b09","id":63327837,"location_subtype":"","month":"2018-02"},{"category":"public-order","location_type":"Force","location":{"latitude":"51.506411","street":{"id":951524,"name":"On or near St Anselms Road"},"longitude":"-0.420583"},"context":"","outcome_status":{"category":"Investigation complete; no suspect identified","date":"2018-03"},"persistent_id":"182843b0dd31a05c80e755b81682bb3619adbddeeed6cb7e66c0430fe97f409c","id":63329856,"location_subtype":"","month":"2018-02"},{"category":"public-order","location_type":"Force","location":{"latitude":"51.522079","street":{"id":958669,"name":"On or near Hardinge Close"},"longitude":"-0.445122"},"context":"","outcome_status":{"category":"Status update unavailable","date":"2018-06"},"persistent_id":"e884e327bf7c1c36f86b8959263f4e2fa622b3b6bbc2393c6b7a5e33bc5b5724","id":63327723,"location_subtype":"","month":"2018-02"},{"category":"public-order","location_type":"Force","location":{"latitude":"51.510817","street":{"id":958528,"name":"On or near Glebe Road"},"longitude":"-0.419278"},"context":"","outcome_status":{"category":"Status update unavailable","date":"2018-06"},"persistent_id":"935a8550da545aae36e5e3e9a5de7b41a095a25bff896a9e5ad03a7ac25a233e","id":63279775,"location_subtype":"","month":"2018-02"},{"category":"public-order","location_type":"Force","location":{"latitude":"51.510505","street":{"id":958524,"name":"On or near Second Avenue"},"longitude":"-0.419476"},"context":"","outcome_status":{"category":"Investigation complete; no suspect identified","date":"2018-04"},"persistent_id":"4e71daef0cee3448e06a2370c591b208262acd356ea36ec4a768ce4581804954","id":63314793,"location_subtype":"","month":"2018-02"},{"category":"robbery","location_type":"Force","location":{"latitude":"51.505423","street":{"id":951523,"name":"On or near Walters Close"},"longitude":"-0.420027"},"context":"","outcome_status":{"category":"Investigation complete; no suspect identified","date":"2018-03"},"persistent_id":"a47dd384d4c79de5b4494a8c4f5f1b5093711c080458c3b776e36c4cb2dec5f9","id":63330555,"location_subtype":"","month":"2018-02"},{"category":"robbery","location_type":"Force","location":{"latitude":"51.501988","street":{"id":951426,"name":"On or near Albert Road"},"longitude":"-0.424050"},"context":"","outcome_status":{"category":"Status update unavailable","date":"2018-06"},"persistent_id":"744aebfa28684453895a6f7e9ec1a44d7c2c55f0a08a06394a5f99aa25cd5440","id":63312295,"location_subtype":"","month":"2018-02"},{"category":"robbery","location_type":"Force","location":{"latitude":"51.503558","street":{"id":951492,"name":"On or near Pedestrian Subway"},"longitude":"-0.420423"},"context":"","outcome_status":{"category":"Investigation complete; no suspect identified","date":"2018-05"},"persistent_id":"7dee41f8ddc8b2d33795d9bd3725b457ad66699345877bae2633f683bbe019e6","id":63301328,"location_subtype":"","month":"2018-02"},{"category":"robbery","location_type":"Force","location":{"latitude":"51.503903","street":{"id":951519,"name":"On or near Parking Area"},"longitude":"-0.420641"},"context":"","outcome_status":{"category":"Investigation complete; no suspect identified","date":"2018-04"},"persistent_id":"0fdbecff4b4c3e1fa289377e01afab60efb55cfaa58a1ee41b3ccbe433d88679","id":63330206,"location_subtype":"","month":"2018-02"},{"category":"robbery","location_type":"Force","location":{"latitude":"51.513190","street":{"id":958596,"name":"On or near Compton Road"},"longitude":"-0.422539"},"context":"","outcome_status":{"category":"Investigation complete; no suspect identified","date":"2018-03"},"persistent_id":"2371a069b11d44dd0b0d2ffae374aeec036e645e968989023766fd770b713e47","id":63306541,"location_subtype":"","month":"2018-02"},{"category":"robbery","location_type":"Force","location":{"latitude":"51.518919","street":{"id":958558,"name":"On or near Commonwealth Avenue"},"longitude":"-0.436063"},"context":"","outcome_status":{"category":"Status update unavailable","date":"2018-06"},"persistent_id":"f83c9b67ad24233cf1b22627341ebaea07844b69fe8a01568765652e4bf04222","id":63336768,"location_subtype":"","month":"2018-02"},{"category":"shoplifting","location_type":"Force","location":{"latitude":"51.510505","street":{"id":958524,"name":"On or near Second Avenue"},"longitude":"-0.419476"},"context":"","outcome_status":{"category":"Investigation complete; no suspect identified","date":"2018-03"},"persistent_id":"7d99b8f0d3a14cbb4d04bd2c82dd891bc018b0e21bc5785e78cc72f9be392546","id":63333008,"location_subtype":"","month":"2018-02"},{"category":"shoplifting","location_type":"Force","location":{"latitude":"51.510505","street":{"id":958524,"name":"On or near Second Avenue"},"longitude":"-0.419476"},"context":"","outcome_status":{"category":"Status update unavailable","date":"2018-06"},"persistent_id":"b8acef222af0c8685ffc5db84de95063d30ca6a082bec43ca9035b29815635f9","id":63298413,"location_subtype":"","month":"2018-02"},{"category":"shoplifting","location_type":"Force","location":{"latitude":"51.501772","street":{"id":951421,"name":"On or near North Hyde Road"},"longitude":"-0.425383"},"context":"","outcome_status":{"category":"Status update unavailable","date":"2018-06"},"persistent_id":"350a013e36f7d6f7aac5ef9f7f6ead60dc5c0b4695f564eae5684fc31f4f7a0f","id":63328417,"location_subtype":"","month":"2018-02"},{"category":"shoplifting","location_type":"Force","location":{"latitude":"51.510505","street":{"id":958524,"name":"On or near Second Avenue"},"longitude":"-0.419476"},"context":"","outcome_status":{"category":"Investigation complete; no suspect identified","date":"2018-04"},"persistent_id":"f93f952b4e8ed054763498f2a351ad9794ef04cfd45be729c56e9aef19482d83","id":63321815,"location_subtype":"","month":"2018-02"},{"category":"shoplifting","location_type":"Force","location":{"latitude":"51.510505","street":{"id":958524,"name":"On or near Second Avenue"},"longitude":"-0.419476"},"context":"","outcome_status":{"category":"Status update unavailable","date":"2018-06"},"persistent_id":"35f997f4118cd05059a8247ae761e3d3e7d137ccc8d9e764e14cd055d3768e89","id":63336532,"location_subtype":"","month":"2018-02"},{"category":"shoplifting","location_type":"Force","location":{"latitude":"51.501772","street":{"id":951421,"name":"On or near North Hyde Road"},"longitude":"-0.425383"},"context":"","outcome_status":{"category":"Investigation complete; no suspect identified","date":"2018-02"},"persistent_id":"2b31a4e95efa0f9109436742bfeee002aed697f4851964088ebc7337ff7b36dc","id":63304840,"location_subtype":"","month":"2018-02"},{"category":"theft-from-the-person","location_type":"BTP","location":{"latitude":"51.503000","street":{"id":1486699,"name":"Hayes & Harlington (station)"},"longitude":"-0.420337"},"context":"","outcome_status":{"category":"Status update unavailable","date":"2018-06"},"persistent_id":"","id":66315039,"location_subtype":"STATION","month":"2018-02"},{"category":"theft-from-the-person","location_type":"Force","location":{"latitude":"51.522068","street":{"id":958576,"name":"On or near North Road"},"longitude":"-0.433490"},"context":"","outcome_status":{"category":"Investigation complete; no suspect identified","date":"2018-03"},"persistent_id":"88961b09e0717cc6d90d853be3b8618f0b86eeb215d25f72076d7677b97219f7","id":63300788,"location_subtype":"","month":"2018-02"},{"category":"vehicle-crime","location_type":"Force","location":{"latitude":"51.506557","street":{"id":951460,"name":"On or near Betam Road"},"longitude":"-0.433532"},"context":"","outcome_status":{"category":"Status update unavailable","date":"2018-06"},"persistent_id":"fde6b1f5f1e24262cfe2be2b15ba901a2c11f5e783e7b646d0ecf07877782c64","id":63325336,"location_subtype":"","month":"2018-02"},{"category":"vehicle-crime","location_type":"Force","location":{"latitude":"51.521938","street":{"id":958569,"name":"On or near Trinity Drive"},"longitude":"-0.441898"},"context":"","outcome_status":{"category":"Status update unavailable","date":"2018-06"},"persistent_id":"9671103b02312f42e5c8c0bf5468f342422297603df7ffc88f3afcb2e9f42dc3","id":63299956,"location_subtype":"","month":"2018-02"},{"category":"vehicle-crime","location_type":"Force","location":{"latitude":"51.522696","street":{"id":958572,"name":"On or near Waylands"},"longitude":"-0.434680"},"context":"","outcome_status":{"category":"Status update unavailable","date":"2018-06"},"persistent_id":"a43df693815a155c374aa4af7a6d22cef1fbba58e852f6fe75f471a66358072b","id":63304995,"location_subtype":"","month":"2018-02"},{"category":"vehicle-crime","location_type":"Force","location":{"latitude":"51.515798","street":{"id":958603,"name":"On or near Barra Hall Road"},"longitude":"-0.429252"},"context":"","outcome_status":{"category":"Status update unavailable","date":"2018-06"},"persistent_id":"5c3ca4d779cb66ff6965608f349fe07f771249c6ff41c4e3b9997b3dcf383a41","id":63325974,"location_subtype":"","month":"2018-02"},{"category":"vehicle-crime","location_type":"Force","location":{"latitude":"51.516188","street":{"id":958552,"name":"On or near Juniper Way"},"longitude":"-0.430867"},"context":"","outcome_status":{"category":"Status update unavailable","date":"2018-06"},"persistent_id":"29e8235db8820f1c411728d5f00e92544d93a359eee39bb66f9008ba0532823d","id":63327774,"location_subtype":"","month":"2018-02"},{"category":"vehicle-crime","location_type":"Force","location":{"latitude":"51.519205","street":{"id":958551,"name":"On or near Lancaster Walk"},"longitude":"-0.437956"},"context":"","outcome_status":{"category":"Status update unavailable","date":"2018-06"},"persistent_id":"2937a1bceb2883e9b93f527176d59129f1afa988a8994c76a20ea9e0e8bb50cf","id":63338582,"location_subtype":"","month":"2018-02"},{"category":"vehicle-crime","location_type":"Force","location":{"latitude":"51.516589","street":{"id":923870,"name":"On or near Ash Grove"},"longitude":"-0.432583"},"context":"","outcome_status":{"category":"Investigation complete; no suspect identified","date":"2018-02"},"persistent_id":"7775ad4b84d7519dbaaab81fba17a61d339d7d93785aa05688a3a09b14d28691","id":63282902,"location_subtype":"","month":"2018-02"},{"category":"vehicle-crime","location_type":"Force","location":{"latitude":"51.506557","street":{"id":951460,"name":"On or near Betam Road"},"longitude":"-0.433532"},"context":"","outcome_status":{"category":"Status update unavailable","date":"2018-06"},"persistent_id":"51cac2ec6e5c3c532a84947f445b315323fb1e8000c1d6350ca36e20f492db9e","id":63313041,"location_subtype":"","month":"2018-02"},{"category":"vehicle-crime","location_type":"Force","location":{"latitude":"51.510412","street":{"id":958526,"name":"On or near Lannock Road"},"longitude":"-0.421900"},"context":"","outcome_status":{"category":"Status update unavailable","date":"2018-06"},"persistent_id":"021cd685a784980e2df63470e61d8cfa395db871eae075cfa1898f9ba8efea8b","id":63281454,"location_subtype":"","month":"2018-02"},{"category":"vehicle-crime","location_type":"Force","location":{"latitude":"51.511439","street":{"id":958615,"name":"On or near Bolingbroke Way"},"longitude":"-0.434777"},"context":"","outcome_status":{"category":"Status update unavailable","date":"2018-06"},"persistent_id":"5964843e47072a84c78e787fec13f9afa2dc6e55922c1b6ebb63a783766e7194","id":63289340,"location_subtype":"","month":"2018-02"},{"category":"vehicle-crime","location_type":"Force","location":{"latitude":"51.517886","street":{"id":958559,"name":"On or near Burbage Close"},"longitude":"-0.431371"},"context":"","outcome_status":{"category":"Status update unavailable","date":"2018-06"},"persistent_id":"7704a2829487aee51aecb7afda8c8a03e518fc4b4e4da7464d729eb5f8708361","id":63295324,"location_subtype":"","month":"2018-02"},{"category":"vehicle-crime","location_type":"Force","location":{"latitude":"51.508618","street":{"id":951434,"name":"On or near Shopping Area"},"longitude":"-0.424225"},"context":"","outcome_status":{"category":"Status update unavailable","date":"2018-06"},"persistent_id":"f4f8d50cc4b95bc143025adfaf884add7546f33faed08d8442515e5f4f7b90ac","id":63297265,"location_subtype":"","month":"2018-02"},{"category":"vehicle-crime","location_type":"Force","location":{"latitude":"51.521456","street":{"id":958673,"name":"On or near Chester Close"},"longitude":"-0.444884"},"context":"","outcome_status":{"category":"Status update unavailable","date":"2018-06"},"persistent_id":"6d8a1f91cd716991d8628a800344300f516751e605ab741a8b7cd937bb9b19ae","id":63304990,"location_subtype":"","month":"2018-02"},{"category":"vehicle-crime","location_type":"Force","location":{"latitude":"51.505572","street":{"id":951427,"name":"On or near Trevor Road"},"longitude":"-0.427125"},"context":"","outcome_status":{"category":"Investigation complete; no suspect identified","date":"2018-02"},"persistent_id":"d54054a0bcbb992bfcf18fcadf4b1110707b01f3890d10a2cbbb0ecc145a815e","id":63304986,"location_subtype":"","month":"2018-02"},{"category":"vehicle-crime","location_type":"Force","location":{"latitude":"51.521242","street":{"id":958570,"name":"On or near Titmus Close"},"longitude":"-0.442326"},"context":"","outcome_status":{"category":"Investigation complete; no suspect identified","date":"2018-02"},"persistent_id":"f353feb0b8d51a6cd14190f808b0eeb616e3f08ba55c1c79cccf2bb859bfff6c","id":63305794,"location_subtype":"","month":"2018-02"},{"category":"vehicle-crime","location_type":"Force","location":{"latitude":"51.511707","street":{"id":958676,"name":"On or near Park\/open Space"},"longitude":"-0.444135"},"context":"","outcome_status":{"category":"Investigation complete; no suspect identified","date":"2018-02"},"persistent_id":"14718c9e1faaa8b2c96037a6215d2a451d63ce03d5448d3f2230ac0ad67a7ec4","id":63306996,"location_subtype":"","month":"2018-02"},{"category":"vehicle-crime","location_type":"Force","location":{"latitude":"51.498351","street":{"id":951545,"name":"On or near Sutherland Avenue"},"longitude":"-0.413716"},"context":"","outcome_status":{"category":"Status update unavailable","date":"2018-06"},"persistent_id":"ae90d31d6c07a8644a35fd8de04877aff793e363eeb8c227a427c775d42c8877","id":63278948,"location_subtype":"","month":"2018-02"},{"category":"vehicle-crime","location_type":"Force","location":{"latitude":"51.518652","street":{"id":958542,"name":"On or near St Jerome's Grove"},"longitude":"-0.440929"},"context":"","outcome_status":{"category":"Status update unavailable","date":"2018-06"},"persistent_id":"1d558f57d576aef55bf76a36a36b197b76198a94e5c7ef1e491ca526f4ccd01e","id":63286919,"location_subtype":"","month":"2018-02"},{"category":"vehicle-crime","location_type":"Force","location":{"latitude":"51.504313","street":{"id":951430,"name":"On or near Clarendon Road"},"longitude":"-0.423033"},"context":"","outcome_status":{"category":"Status update unavailable","date":"2018-06"},"persistent_id":"9e60335c930e558a33be436bfa66f07ce280d29cf5378368771a46804d37d22d","id":63287801,"location_subtype":"","month":"2018-02"},{"category":"vehicle-crime","location_type":"Force","location":{"latitude":"51.498864","street":{"id":951539,"name":"On or near Gordon Crescent"},"longitude":"-0.415715"},"context":"","outcome_status":{"category":"Status update unavailable","date":"2018-06"},"persistent_id":"6b354a6b8703110e3ffb7be554bac1cb72c51a5cd14ea5828b160f16771e6cd6","id":63326294,"location_subtype":"","month":"2018-02"},{"category":"vehicle-crime","location_type":"Force","location":{"latitude":"51.522119","street":{"id":958574,"name":"On or near Saxony Parade"},"longitude":"-0.437928"},"context":"","outcome_status":{"category":"Status update unavailable","date":"2018-06"},"persistent_id":"ac3bceb84298e59f3dc45fd9f3d1f60682bf1479d5edb51fc1b75febf2ccaa02","id":63326440,"location_subtype":"","month":"2018-02"},{"category":"vehicle-crime","location_type":"Force","location":{"latitude":"51.516188","street":{"id":958552,"name":"On or near Juniper Way"},"longitude":"-0.430867"},"context":"","outcome_status":{"category":"Status update unavailable","date":"2018-06"},"persistent_id":"3b6d7adf2560dbc3f5af9beb44586629fdc7dc8f880487cdbe1d964fc667ce8d","id":63326853,"location_subtype":"","month":"2018-02"},{"category":"vehicle-crime","location_type":"Force","location":{"latitude":"51.509263","street":{"id":951428,"name":"On or near Golden Crescent"},"longitude":"-0.422718"},"context":"","outcome_status":{"category":"Status update unavailable","date":"2018-06"},"persistent_id":"907d46231b504db7b19e4356640f39df0c099f330ee84b5a72d4e304190ba866","id":63328004,"location_subtype":"","month":"2018-02"},{"category":"vehicle-crime","location_type":"Force","location":{"latitude":"51.509263","street":{"id":951428,"name":"On or near Golden Crescent"},"longitude":"-0.422718"},"context":"","outcome_status":{"category":"Status update unavailable","date":"2018-06"},"persistent_id":"65081bcd0c6b88d134f4910b7d460aa5b8f8c2c96cd69463d15012f3596d3e34","id":63330925,"location_subtype":"","month":"2018-02"},{"category":"vehicle-crime","location_type":"Force","location":{"latitude":"51.510412","street":{"id":958526,"name":"On or near Lannock Road"},"longitude":"-0.421900"},"context":"","outcome_status":{"category":"Status update unavailable","date":"2018-06"},"persistent_id":"c84ae1bc6f0fc57f0fe144424f4fad132f15a628a7cd4a57060a83f9a9975142","id":63332332,"location_subtype":"","month":"2018-02"},{"category":"vehicle-crime","location_type":"Force","location":{"latitude":"51.517921","street":{"id":958590,"name":"On or near Lilac Gardens"},"longitude":"-0.429294"},"context":"","outcome_status":{"category":"Status update unavailable","date":"2018-06"},"persistent_id":"1285ed6514077883e8d2deec34a682ca953aed0a3945c18507f1641218698dd6","id":63315644,"location_subtype":"","month":"2018-02"},{"category":"vehicle-crime","location_type":"Force","location":{"latitude":"51.509263","street":{"id":951428,"name":"On or near Golden Crescent"},"longitude":"-0.422718"},"context":"","outcome_status":{"category":"Status update unavailable","date":"2018-06"},"persistent_id":"07233e9a518746d0698f39bb9045116a0a9dc072d32414f609254101ce860e34","id":63316709,"location_subtype":"","month":"2018-02"},{"category":"vehicle-crime","location_type":"Force","location":{"latitude":"51.517666","street":{"id":958553,"name":"On or near Judge Heath Lane"},"longitude":"-0.434448"},"context":"","outcome_status":{"category":"Status update unavailable","date":"2018-06"},"persistent_id":"daf7daeba5f9588b6e2bf8d72c2baec8c45ce5be5fb9f3d96ec310108b2f3d62","id":63317070,"location_subtype":"","month":"2018-02"},{"category":"vehicle-crime","location_type":"Force","location":{"latitude":"51.515798","street":{"id":958603,"name":"On or near Barra Hall Road"},"longitude":"-0.429252"},"context":"","outcome_status":{"category":"Status update unavailable","date":"2018-06"},"persistent_id":"3d2b3b8f3a39e6e29c066d5fb55ab4dcdc3e6a4378cf332dc58291e5c2a3f792","id":63317382,"location_subtype":"","month":"2018-02"},{"category":"vehicle-crime","location_type":"Force","location":{"latitude":"51.522969","street":{"id":958577,"name":"On or near Kingsway"},"longitude":"-0.438346"},"context":"","outcome_status":{"category":"Investigation complete; no suspect identified","date":"2018-06"},"persistent_id":"c3b05828e91023cf1c26b08638ec427e3ad5467300f3aecb4260c818474e9ebc","id":63319027,"location_subtype":"","month":"2018-02"},{"category":"vehicle-crime","location_type":"Force","location":{"latitude":"51.521482","street":{"id":958578,"name":"On or near Hanover Circle"},"longitude":"-0.438051"},"context":"","outcome_status":{"category":"Status update unavailable","date":"2018-06"},"persistent_id":"14756a8ef69dfdc75b3c0bcebd6c31da116e27b1cb03a68b57a9f88dccb55b74","id":63300242,"location_subtype":"","month":"2018-02"},{"category":"vehicle-crime","location_type":"Force","location":{"latitude":"51.522969","street":{"id":958577,"name":"On or near Kingsway"},"longitude":"-0.438346"},"context":"","outcome_status":{"category":"Status update unavailable","date":"2018-06"},"persistent_id":"66988e24b99ca623d4a1f9c0eaef9622a744ff2d3f7bf2fa2b29a15aed154e45","id":63300360,"location_subtype":"","month":"2018-02"},{"category":"vehicle-crime","location_type":"Force","location":{"latitude":"51.521457","street":{"id":958571,"name":"On or near Wood End Green Road"},"longitude":"-0.430153"},"context":"","outcome_status":{"category":"Status update unavailable","date":"2018-06"},"persistent_id":"7f00595d8da5a8472d52c97b3dffe157a5312091aafecab143f93c6fb835e33f","id":63301628,"location_subtype":"","month":"2018-02"},{"category":"vehicle-crime","location_type":"Force","location":{"latitude":"51.519149","street":{"id":958566,"name":"On or near Corwell Gardens"},"longitude":"-0.442512"},"context":"","outcome_status":{"category":"Status update unavailable","date":"2018-06"},"persistent_id":"896d12c6844e1ef635ffd90f355d2e2d81cf822e3d915a5eb6c3ece1a1dbf72d","id":63302559,"location_subtype":"","month":"2018-02"},{"category":"vehicle-crime","location_type":"Force","location":{"latitude":"51.499894","street":{"id":951498,"name":"On or near Dallas Terrace"},"longitude":"-0.418763"},"context":"","outcome_status":{"category":"Status update unavailable","date":"2018-06"},"persistent_id":"a62ec954fd4d4af99a0cae60e6c11d40c53fef17f459c33a98b0fbfdb1122508","id":63302566,"location_subtype":"","month":"2018-02"},{"category":"vehicle-crime","location_type":"Force","location":{"latitude":"51.523153","street":{"id":959066,"name":"On or near Middleton Road"},"longitude":"-0.431853"},"context":"","outcome_status":{"category":"Status update unavailable","date":"2018-06"},"persistent_id":"c87eaf0ce06fbcc1727f8261f3ba3eea321279fdee6518a59c62c2210a52755d","id":63334167,"location_subtype":"","month":"2018-02"},{"category":"vehicle-crime","location_type":"Force","location":{"latitude":"51.498351","street":{"id":951545,"name":"On or near Sutherland Avenue"},"longitude":"-0.413716"},"context":"","outcome_status":{"category":"Status update unavailable","date":"2018-06"},"persistent_id":"c6d9183dab6a9037aebec83eeb9c76b3b1d5ee7da3feb1a1929e039ad487bd99","id":63334268,"location_subtype":"","month":"2018-02"},{"category":"vehicle-crime","location_type":"Force","location":{"latitude":"51.517666","street":{"id":958553,"name":"On or near Judge Heath Lane"},"longitude":"-0.434448"},"context":"","outcome_status":{"category":"Status update unavailable","date":"2018-06"},"persistent_id":"453636d794b636855c1cd9a0f6a7d0a1227a72b8bea5289180e722c45206d0bb","id":63321898,"location_subtype":"","month":"2018-02"},{"category":"vehicle-crime","location_type":"Force","location":{"latitude":"51.520535","street":{"id":958540,"name":"On or near Tudor Road"},"longitude":"-0.435835"},"context":"","outcome_status":{"category":"Status update unavailable","date":"2018-06"},"persistent_id":"02b42ae1b8898f296510de2132f859b51bdcd88aea6ac420910939541f28b7e5","id":63336912,"location_subtype":"","month":"2018-02"},{"category":"vehicle-crime","location_type":"Force","location":{"latitude":"51.517666","street":{"id":958553,"name":"On or near Judge Heath Lane"},"longitude":"-0.434448"},"context":"","outcome_status":{"category":"Status update unavailable","date":"2018-06"},"persistent_id":"b9e79e48ff7fe72b14f5064c08df42b7d0aafcfada8b863ba9969924ec238a2b","id":63335318,"location_subtype":"","month":"2018-02"},{"category":"vehicle-crime","location_type":"Force","location":{"latitude":"51.518652","street":{"id":958542,"name":"On or near St Jerome's Grove"},"longitude":"-0.440929"},"context":"","outcome_status":{"category":"Investigation complete; no suspect identified","date":"2018-02"},"persistent_id":"578fee017fe83a43b5b31d595657b4578571b33e056def17f2dab1a0326517de","id":63308386,"location_subtype":"","month":"2018-02"},{"category":"vehicle-crime","location_type":"Force","location":{"latitude":"51.506557","street":{"id":951460,"name":"On or near Betam Road"},"longitude":"-0.433532"},"context":"","outcome_status":{"category":"Investigation complete; no suspect identified","date":"2018-02"},"persistent_id":"dfd345c02387f2aa6b47edef971fe890012f9d23be62dfa164b3cf771bc081aa","id":63303056,"location_subtype":"","month":"2018-02"},{"category":"vehicle-crime","location_type":"Force","location":{"latitude":"51.505474","street":{"id":951429,"name":"On or near Clayton Road"},"longitude":"-0.425169"},"context":"","outcome_status":{"category":"Investigation complete; no suspect identified","date":"2018-03"},"persistent_id":"6c429c7a2c2e818aa814f3d5ac413b174bb51fe9fcbd5678fbc8534667bc2661","id":63321613,"location_subtype":"","month":"2018-02"},{"category":"vehicle-crime","location_type":"Force","location":{"latitude":"51.501772","street":{"id":951421,"name":"On or near North Hyde Road"},"longitude":"-0.425383"},"context":"","outcome_status":{"category":"Investigation complete; no suspect identified","date":"2018-04"},"persistent_id":"57b96e0ca822c371676ca1911e0cc99ff255d0cfb25cec9952a905570dc45838","id":63310312,"location_subtype":"","month":"2018-02"},{"category":"vehicle-crime","location_type":"Force","location":{"latitude":"51.511439","street":{"id":958615,"name":"On or near Bolingbroke Way"},"longitude":"-0.434777"},"context":"","outcome_status":{"category":"Investigation complete; no suspect identified","date":"2018-04"},"persistent_id":"5964843e47072a84c78e787fec13f9afa2dc6e55922c1b6ebb63a783766e7194","id":63289341,"location_subtype":"","month":"2018-02"},{"category":"vehicle-crime","location_type":"Force","location":{"latitude":"51.515124","street":{"id":958547,"name":"On or near Princes Park Circle"},"longitude":"-0.435991"},"context":"","outcome_status":{"category":"Investigation complete; no suspect identified","date":"2018-04"},"persistent_id":"59eb68eeaa01c6a6a59620efce30ba402ae34a79225a076834a83cb6e4b9c50b","id":63317760,"location_subtype":"","month":"2018-02"},{"category":"vehicle-crime","location_type":"Force","location":{"latitude":"51.515124","street":{"id":958547,"name":"On or near Princes Park Circle"},"longitude":"-0.435991"},"context":"","outcome_status":{"category":"Investigation complete; no suspect identified","date":"2018-04"},"persistent_id":"68baa62784f92f9138378bdb86310d5180fea7073de59fca97afe1b9b79afb8c","id":63321327,"location_subtype":"","month":"2018-02"},{"category":"violent-crime","location_type":"Force","location":{"latitude":"51.504562","street":{"id":951515,"name":"On or near Parking Area"},"longitude":"-0.420186"},"context":"","outcome_status":{"category":"Investigation complete; no suspect identified","date":"2018-02"},"persistent_id":"8c8ade2e9cb221f9bcfe1933ec8aad0ccb3bfd7c413ce0fb9518cb94bd5aa306","id":63327214,"location_subtype":"","month":"2018-02"},{"category":"violent-crime","location_type":"Force","location":{"latitude":"51.503558","street":{"id":951492,"name":"On or near Pedestrian Subway"},"longitude":"-0.420423"},"context":"","outcome_status":{"category":"Investigation complete; no suspect identified","date":"2018-02"},"persistent_id":"c2fd9674f2c8bcfa349b6d3e0b7554523e4920f5e41fabf03cbedebf2c24d41f","id":63280718,"location_subtype":"","month":"2018-02"},{"category":"violent-crime","location_type":"Force","location":{"latitude":"51.509822","street":{"id":958527,"name":"On or near Holmbury Gardens"},"longitude":"-0.420148"},"context":"","outcome_status":{"category":"Investigation complete; no suspect identified","date":"2018-03"},"persistent_id":"dbb8d6a57767ec7e8180fb755ae929584c5edc97e0746339d22560a167b56442","id":63336473,"location_subtype":"","month":"2018-02"},{"category":"violent-crime","location_type":"Force","location":{"latitude":"51.504444","street":{"id":951522,"name":"On or near Western View"},"longitude":"-0.418793"},"context":"","outcome_status":{"category":"Status update unavailable","date":"2018-06"},"persistent_id":"7766c36610e8b7a3fc6911503c704e5e59e9e9ae5da74679ca894d4d72345f39","id":63288548,"location_subtype":"","month":"2018-02"},{"category":"violent-crime","location_type":"Force","location":{"latitude":"51.517875","street":{"id":958539,"name":"On or near Varcoe Gardens"},"longitude":"-0.432611"},"context":"","outcome_status":{"category":"Offender sent to prison","date":"2018-04"},"persistent_id":"dc225348c638c41c544f5fced6e08136353b02e2476c3b810112491ee8da77b7","id":63327053,"location_subtype":"","month":"2018-02"},{"category":"violent-crime","location_type":"Force","location":{"latitude":"51.517020","street":{"id":958548,"name":"On or near Princes Park Avenue"},"longitude":"-0.435249"},"context":"","outcome_status":{"category":"Defendant found not guilty","date":"2018-04"},"persistent_id":"05c9fd075f5022f0beee30b315e95494d935d95cd1ca6d4427d8d4956fab8c55","id":63322773,"location_subtype":"","month":"2018-02"},{"category":"violent-crime","location_type":"Force","location":{"latitude":"51.498177","street":{"id":951546,"name":"On or near North Hyde Road"},"longitude":"-0.414831"},"context":"","outcome_status":{"category":"Investigation complete; no suspect identified","date":"2018-02"},"persistent_id":"aa35a7740f3f3436c73c8086fba28dcaa26a5f9fd25e0cf1cff75c5c3cb99b7a","id":63313434,"location_subtype":"","month":"2018-02"},{"category":"violent-crime","location_type":"Force","location":{"latitude":"51.504313","street":{"id":951430,"name":"On or near Clarendon Road"},"longitude":"-0.423033"},"context":"","outcome_status":{"category":"Investigation complete; no suspect identified","date":"2018-03"},"persistent_id":"5a99ca760dc7ade3a61dc0d7d9b3cab726ce962697fbf25e91136c86c51a7b4a","id":63335794,"location_subtype":"","month":"2018-02"},{"category":"violent-crime","location_type":"Force","location":{"latitude":"51.504444","street":{"id":951522,"name":"On or near Western View"},"longitude":"-0.418793"},"context":"","outcome_status":{"category":"Status update unavailable","date":"2018-06"},"persistent_id":"d61682944fb30e2d70b6624ec1277a42c559bd03ea4e2649e02effb5c81d27c2","id":63327302,"location_subtype":"","month":"2018-02"},{"category":"violent-crime","location_type":"Force","location":{"latitude":"51.525134","street":{"id":959063,"name":"On or near Newport Road"},"longitude":"-0.433457"},"context":"","outcome_status":{"category":"Investigation complete; no suspect identified","date":"2018-05"},"persistent_id":"4733a3174eaee505eeac31ac60a773dc38039498b69d1c0d0c78cebbeac13bc4","id":63303126,"location_subtype":"","month":"2018-02"},{"category":"violent-crime","location_type":"Force","location":{"latitude":"51.522696","street":{"id":958572,"name":"On or near Waylands"},"longitude":"-0.434680"},"context":"","outcome_status":{"category":"Investigation complete; no suspect identified","date":"2018-03"},"persistent_id":"e1f7e17b5c383507d67403137e47480bade929b92ba46a15cdaf22e9effc7b97","id":63325179,"location_subtype":"","month":"2018-02"},{"category":"violent-crime","location_type":"Force","location":{"latitude":"51.518919","street":{"id":958558,"name":"On or near Commonwealth Avenue"},"longitude":"-0.436063"},"context":"","outcome_status":{"category":"Investigation complete; no suspect identified","date":"2018-03"},"persistent_id":"f390f08c285079ae1f5703a3387645d21658b96d840607250f3197c0ba7240ec","id":63322825,"location_subtype":"","month":"2018-02"},{"category":"violent-crime","location_type":"Force","location":{"latitude":"51.504444","street":{"id":951522,"name":"On or near Western View"},"longitude":"-0.418793"},"context":"","outcome_status":{"category":"Investigation complete; no suspect identified","date":"2018-03"},"persistent_id":"1d78284271b97f3360687dedd4a396091209894a69fa1ea4499cfeb4f08d3974","id":63322595,"location_subtype":"","month":"2018-02"},{"category":"violent-crime","location_type":"Force","location":{"latitude":"51.517886","street":{"id":958559,"name":"On or near Burbage Close"},"longitude":"-0.431371"},"context":"","outcome_status":{"category":"Investigation complete; no suspect identified","date":"2018-03"},"persistent_id":"a20ec609392b7fc64b22ee7322c4c9e37b033f819b131e4f9912b276487a3e47","id":63278805,"location_subtype":"","month":"2018-02"},{"category":"violent-crime","location_type":"Force","location":{"latitude":"51.498177","street":{"id":951546,"name":"On or near North Hyde Road"},"longitude":"-0.414831"},"context":"","outcome_status":{"category":"Status update unavailable","date":"2018-06"},"persistent_id":"35fc310fece6420a53abc04957f5bf8980267d8291276819de909faceaabaa6b","id":63312550,"location_subtype":"","month":"2018-02"},{"category":"violent-crime","location_type":"Force","location":{"latitude":"51.521938","street":{"id":958569,"name":"On or near Trinity Drive"},"longitude":"-0.441898"},"context":"","outcome_status":{"category":"Awaiting court outcome","date":"2018-03"},"persistent_id":"bfe04f8fbb7aeb3b3f65c13aebc19eb42ca5086c395914155a8d06b486629bab","id":63339057,"location_subtype":"","month":"2018-02"},{"category":"violent-crime","location_type":"Force","location":{"latitude":"51.510817","street":{"id":958528,"name":"On or near Glebe Road"},"longitude":"-0.419278"},"context":"","outcome_status":{"category":"Investigation complete; no suspect identified","date":"2018-02"},"persistent_id":"935a8550da545aae36e5e3e9a5de7b41a095a25bff896a9e5ad03a7ac25a233e","id":63280098,"location_subtype":"","month":"2018-02"},{"category":"violent-crime","location_type":"Force","location":{"latitude":"51.516077","street":{"id":958561,"name":"On or near Beechwood Avenue"},"longitude":"-0.433955"},"context":"","outcome_status":{"category":"Investigation complete; no suspect identified","date":"2018-04"},"persistent_id":"99984499a40c87953efa6f00cf5d9aa3c4c6e7486e00efd20373f57702372a8d","id":63311159,"location_subtype":"","month":"2018-02"},{"category":"violent-crime","location_type":"Force","location":{"latitude":"51.513583","street":{"id":958581,"name":"On or near Orwell Close"},"longitude":"-0.427656"},"context":"","outcome_status":{"category":"Investigation complete; no suspect identified","date":"2018-05"},"persistent_id":"c8dbba2374e61c3bf7ac9c74f485447feea4e1f975cc1b8500551a3b98943f93","id":63279529,"location_subtype":"","month":"2018-02"},{"category":"violent-crime","location_type":"Force","location":{"latitude":"51.500684","street":{"id":951500,"name":"On or near Petrol Station"},"longitude":"-0.421343"},"context":"","outcome_status":{"category":"Investigation complete; no suspect identified","date":"2018-04"},"persistent_id":"ed562cfd5f4f3bcb2438b80ee2fd279083cfc6ac0640d2cd45eb1c3e551c04c9","id":63308159,"location_subtype":"","month":"2018-02"},{"category":"violent-crime","location_type":"Force","location":{"latitude":"51.498351","street":{"id":951545,"name":"On or near Sutherland Avenue"},"longitude":"-0.413716"},"context":"","outcome_status":{"category":"Investigation complete; no suspect identified","date":"2018-03"},"persistent_id":"c11b7dd7024c462273820cccb7c82d001eb316d74a0f5f24c76677a13faab57c","id":63307478,"location_subtype":"","month":"2018-02"},{"category":"violent-crime","location_type":"Force","location":{"latitude":"51.518652","street":{"id":958542,"name":"On or near St Jerome's Grove"},"longitude":"-0.440929"},"context":"","outcome_status":{"category":"Investigation complete; no suspect identified","date":"2018-03"},"persistent_id":"6fe479d9aa81e518dcce194683af9eeb7d920220f2a45f5fa8b8371c6f172d29","id":63306537,"location_subtype":"","month":"2018-02"},{"category":"violent-crime","location_type":"Force","location":{"latitude":"51.513817","street":{"id":958599,"name":"On or near Botwell Lane"},"longitude":"-0.425040"},"context":"","outcome_status":{"category":"Status update unavailable","date":"2018-06"},"persistent_id":"2e9ad05efedf5e72575809535dbc8bd4ef1a7eb53227f6755a16f87754c5c697","id":63316086,"location_subtype":"","month":"2018-02"},{"category":"violent-crime","location_type":"Force","location":{"latitude":"51.519456","street":{"id":958591,"name":"On or near Leven Way"},"longitude":"-0.428420"},"context":"","outcome_status":{"category":"Awaiting court outcome","date":"2018-04"},"persistent_id":"c48ec52486175727cf824d3788718f8760e6167d9fb845cacee88d6f9a8bd168","id":63314625,"location_subtype":"","month":"2018-02"},{"category":"violent-crime","location_type":"BTP","location":{"latitude":"51.503000","street":{"id":1486699,"name":"Hayes & Harlington (station)"},"longitude":"-0.420337"},"context":"","outcome_status":{"category":"Status update unavailable","date":"2018-06"},"persistent_id":"","id":66315037,"location_subtype":"STATION","month":"2018-02"},{"category":"violent-crime","location_type":"Force","location":{"latitude":"51.501988","street":{"id":951426,"name":"On or near Albert Road"},"longitude":"-0.424050"},"context":"","outcome_status":{"category":"Investigation complete; no suspect identified","date":"2018-04"},"persistent_id":"22d6b897f2f3e2b874f64848db85de711a39ec92213e1dd1f595775bbbd91754","id":63284711,"location_subtype":"","month":"2018-02"},{"category":"violent-crime","location_type":"Force","location":{"latitude":"51.518652","street":{"id":958542,"name":"On or near St Jerome's Grove"},"longitude":"-0.440929"},"context":"","outcome_status":{"category":"Status update unavailable","date":"2018-06"},"persistent_id":"6fe479d9aa81e518dcce194683af9eeb7d920220f2a45f5fa8b8371c6f172d29","id":63306536,"location_subtype":"","month":"2018-02"},{"category":"violent-crime","location_type":"Force","location":{"latitude":"51.520358","street":{"id":958537,"name":"On or near York Avenue"},"longitude":"-0.440785"},"context":"","outcome_status":{"category":"Investigation complete; no suspect identified","date":"2018-03"},"persistent_id":"16a91f4683214956a8f1b009cb496c9ed1397c8c36006f163220050c01b95077","id":63333929,"location_subtype":"","month":"2018-02"},{"category":"violent-crime","location_type":"Force","location":{"latitude":"51.498177","street":{"id":951546,"name":"On or near North Hyde Road"},"longitude":"-0.414831"},"context":"","outcome_status":{"category":"Investigation complete; no suspect identified","date":"2018-03"},"persistent_id":"9a4af61c89d5b0d95c98417d3c391e6f1732c0240cfe9733eb71be3ef7977a85","id":63333972,"location_subtype":"","month":"2018-02"},{"category":"violent-crime","location_type":"BTP","location":{"latitude":"51.503000","street":{"id":1486699,"name":"Hayes & Harlington (station)"},"longitude":"-0.420337"},"context":"","outcome_status":{"category":"Status update unavailable","date":"2018-06"},"persistent_id":"","id":66315036,"location_subtype":"STATION","month":"2018-02"},{"category":"violent-crime","location_type":"Force","location":{"latitude":"51.507946","street":{"id":951456,"name":"On or near Swallowfield Way"},"longitude":"-0.434522"},"context":"","outcome_status":{"category":"Investigation complete; no suspect identified","date":"2018-02"},"persistent_id":"a23b89b898ffb27e5ebf15454c15cb67e2e4d08d416f5b691af0437f18e77d2a","id":63314699,"location_subtype":"","month":"2018-02"},{"category":"violent-crime","location_type":"Force","location":{"latitude":"51.515965","street":{"id":958585,"name":"On or near Sycamore Avenue"},"longitude":"-0.427618"},"context":"","outcome_status":{"category":"Investigation complete; no suspect identified","date":"2018-04"},"persistent_id":"56c377d61a95f1e67f1eec2bf3079b898ed360cfd6e23b7f0c96f94a7020732d","id":63330227,"location_subtype":"","month":"2018-02"},{"category":"violent-crime","location_type":"Force","location":{"latitude":"51.504444","street":{"id":951522,"name":"On or near Western View"},"longitude":"-0.418793"},"context":"","outcome_status":{"category":"Defendant found not guilty","date":"2018-04"},"persistent_id":"bbdd65cb35583449f8a1d1ece403933db6a8bb8448065bed16ef167c9af1a464","id":63332482,"location_subtype":"","month":"2018-02"},{"category":"violent-crime","location_type":"Force","location":{"latitude":"51.515592","street":{"id":958550,"name":"On or near Lime Grove"},"longitude":"-0.431997"},"context":"","outcome_status":{"category":"Status update unavailable","date":"2018-06"},"persistent_id":"c9442b47c428b0c36eac547825f084874a224250168c5212672b5fad9ebf5f77","id":63338790,"location_subtype":"","month":"2018-02"},{"category":"violent-crime","location_type":"Force","location":{"latitude":"51.511707","street":{"id":958676,"name":"On or near Park\/open Space"},"longitude":"-0.444135"},"context":"","outcome_status":{"category":"Status update unavailable","date":"2018-06"},"persistent_id":"860e180169eb69c21c5725282d5a57a7b1c72c59d62b7f1f53c91fd124ac7d37","id":63299506,"location_subtype":"","month":"2018-02"},{"category":"violent-crime","location_type":"Force","location":{"latitude":"51.513817","street":{"id":958599,"name":"On or near Botwell Lane"},"longitude":"-0.425040"},"context":"","outcome_status":{"category":"Status update unavailable","date":"2018-06"},"persistent_id":"2e9ad05efedf5e72575809535dbc8bd4ef1a7eb53227f6755a16f87754c5c697","id":63316085,"location_subtype":"","month":"2018-02"},{"category":"violent-crime","location_type":"Force","location":{"latitude":"51.521366","street":{"id":958580,"name":"On or near Cavalier Gardens"},"longitude":"-0.436152"},"context":"","outcome_status":{"category":"Investigation complete; no suspect identified","date":"2018-03"},"persistent_id":"991b3f00c67da2e8e87a6111b3d8beb4bdff9b2218d998be35d4839fa4b1e6b4","id":63329797,"location_subtype":"","month":"2018-02"},{"category":"violent-crime","location_type":"BTP","location":{"latitude":"51.503000","street":{"id":1486699,"name":"Hayes & Harlington (station)"},"longitude":"-0.420337"},"context":"","outcome_status":{"category":"Status update unavailable","date":"2018-06"},"persistent_id":"","id":66315035,"location_subtype":"STATION","month":"2018-02"},{"category":"other-crime","location_type":"Force","location":{"latitude":"51.519456","street":{"id":958591,"name":"On or near Leven Way"},"longitude":"-0.428420"},"context":"","outcome_status":{"category":"Investigation complete; no suspect identified","date":"2018-03"},"persistent_id":"2e98683ae42bedc22ed0df738077fcb1940043ccd092c0bee47c3370d823f365","id":63305988,"location_subtype":"","month":"2018-02"}]