[{"category":"anti-social-behaviour","location_type":"Force","location":{"latitude":"51.432329","street":{"id":937440,"name":"On or near Leigham Close"},"longitude":"-0.117128"},"context":"","outcome_status":null,"persistent_id":"","id":54093881,"location_subtype":"","month":"2017-01"},{"category":"anti-social-behaviour","location_type":"Force","location":{"latitude":"51.433242","street":{"id":937404,"name":"On or near Conifer Gardens"},"longitude":"-0.123579"},"context":"","outcome_status":null,"persistent_id":"","id":54094901,"location_subtype":"","month":"2017-01"},{"category":"anti-social-behaviour","location_type":"Force","location":{"latitude":"51.433242","street":{"id":937404,"name":"On or near Conifer Gardens"},"longitude":"-0.123579"},"context":"","outcome_status":null,"persistent_id":"","id":54094902,"location_subtype":"","month":"2017-01"},{"category":"anti-social-behaviour","location_type":"Force","location":{"latitude":"51.433242","street":{"id":937404,"name":"On or near Conifer Gardens"},"longitude":"-0.123579"},"context":"","outcome_status":null,"persistent_id":"","id":54094903,"location_subtype":"","month":"2017-01"},{"category":"anti-social-behaviour","location_type":"Force","location":{"latitude":"51.430539","street":{"id":937417,"name":"On or near Samuel Johnson Close"},"longitude":"-0.117101"},"context":"","outcome_status":null,"persistent_id":"","id":54094171,"location_subtype":"","month":"2017-01"},{"category":"anti-social-behaviour","location_type":"Force","location":{"latitude":"51.423696","street":{"id":935236,"name":"On or near Natal Road"},"longitude":"-0.130040"},"context":"","outcome_status":null,"persistent_id":"","id":54095016,"location_subtype":"","month":"2017-01"},{"category":"anti-social-behaviour","location_type":"Force","location":{"latitude":"51.423696","street":{"id":935236,"name":"On or near Natal Road"},"longitude":"-0.130040"},"context":"","outcome_status":null,"persistent_id":"","id":54095017,"location_subtype":"","month":"2017-01"},{"category":"anti-social-behaviour","location_type":"Force","location":{"latitude":"51.423696","street":{"id":935236,"name":"On or near Natal Road"},"longitude":"-0.130040"},"context":"","outcome_status":null,"persistent_id":"","id":54095018,"location_subtype":"","month":"2017-01"},{"category":"anti-social-behaviour","location_type":"Force","location":{"latitude":"51.433242","street":{"id":937404,"name":"On or near Conifer Gardens"},"longitude":"-0.123579"},"context":"","outcome_status":null,"persistent_id":"","id":54094907,"location_subtype":"","month":"2017-01"},{"category":"anti-social-behaviour","location_type":"Force","location":{"latitude":"51.433242","street":{"id":937404,"name":"On or near Conifer Gardens"},"longitude":"-0.123579"},"context":"","outcome_status":null,"persistent_id":"","id":54094908,"location_subtype":"","month":"2017-01"},{"category":"anti-social-behaviour","location_type":"Force","location":{"latitude":"51.433242","street":{"id":937404,"name":"On or near Conifer Gardens"},"longitude":"-0.123579"},"context":"","outcome_status":null,"persistent_id":"","id":54094909,"location_subtype":"","month":"2017-01"},{"category":"anti-social-behaviour","location_type":"Force","location":{"latitude":"51.433242","street":{"id":937404,"name":"On or near Conifer Gardens"},"longitude":"-0.123579"},"context":"","outcome_status":null,"persistent_id":"","id":54094910,"location_subtype":"","month":"2017-01"},{"category":"anti-social-behaviour","location_type":"Force","location":{"latitude":"51.433242","street":{"id":937404,"name":"On or near Conifer Gardens"},"longitude":"-0.123579"},"context":"","outcome_status":null,"persistent_id":"","id":54094911,"location_subtype":"","month":"2017-01"},{"category":"anti-social-behaviour","location_type":"Force","location":{"latitude":"51.433242","street":{"id":937404,"name":"On or near Conifer Gardens"},"longitude":"-0.123579"},"context":"","outcome_status":null,"persistent_id":"","id":54094912,"location_subtype":"","month":"2017-01"},{"category":"anti-social-behaviour","location_type":"Force","location":{"latitude":"51.433242","street":{"id":937404,"name":"On or near Conifer Gardens"},"longitude":"-0.123579"},"context":"","outcome_status":null,"persistent_id":"","id":54094913,"location_subtype":"","month":"2017-01"},{"category":"anti-social-behaviour","location_type":"Force","location":{"latitude":"51.437435","street":{"id":937383,"name":"On or near Parking Area"},"longitude":"-0.125421"},"context":"","outcome_status":null,"persistent_id":"","id":54094939,"location_subtype":"","month":"2017-01"},{"category":"anti-social-behaviour","location_type":"Force","location":{"latitude":"51.437435","street":{"id":937383,"name":"On or near Parking Area"},"longitude":"-0.125421"},"context":"","outcome_status":null,"persistent_id":"","id":54094940,"location_subtype":"","month":"2017-01"},{"category":"anti-social-behaviour","location_type":"Force","location":{"latitude":"51.437435","street":{"id":937383,"name":"On or near Parking Area"},"longitude":"-0.125421"},"context":"","outcome_status":null,"persistent_id":"","id":54094941,"location_subtype":"","month":"2017-01"},{"category":"anti-social-behaviour","location_type":"Force","location":{"latitude":"51.437435","street":{"id":937383,"name":"On or near Parking Area"},"longitude":"-0.125421"},"context":"","outcome_status":null,"persistent_id":"","id":54094942,"location_subtype":"","month":"2017-01"},{"category":"anti-social-behaviour","location_type":"Force","location":{"latitude":"51.433242","street":{"id":937404,"name":"On or near Conifer Gardens"},"longitude":"-0.123579"},"context":"","outcome_status":null,"persistent_id":"","id":54094904,"location_subtype":"","month":"2017-01"},{"category":"anti-social-behaviour","location_type":"Force","location":{"latitude":"51.430539","street":{"id":937417,"name":"On or near Samuel Johnson Close"},"longitude":"-0.117101"},"context":"","outcome_status":null,"persistent_id":"","id":54093910,"location_subtype":"","month":"2017-01"},{"category":"anti-social-behaviour","location_type":"Force","location":{"latitude":"51.433242","street":{"id":937404,"name":"On or near Conifer Gardens"},"longitude":"-0.123579"},"context":"","outcome_status":null,"persistent_id":"","id":54094905,"location_subtype":"","month":"2017-01"},{"category":"anti-social-behaviour","location_type":"Force","location":{"latitude":"51.433242","street":{"id":937404,"name":"On or near Conifer Gardens"},"longitude":"-0.123579"},"context":"","outcome_status":null,"persistent_id":"","id":54094906,"location_subtype":"","month":"2017-01"},{"category":"anti-social-behaviour","location_type":"Force","location":{"latitude":"51.423696","street":{"id":935236,"name":"On or near Natal Road"},"longitude":"-0.130040"},"context":"","outcome_status":null,"persistent_id":"","id":54095015,"location_subtype":"","month":"2017-01"},{"category":"anti-social-behaviour","location_type":"Force","location":{"latitude":"51.423949","street":{"id":935283,"name":"On or near Deerhurst Road"},"longitude":"-0.122262"},"context":"","outcome_status":null,"persistent_id":"","id":54094323,"location_subtype":"","month":"2017-01"},{"category":"anti-social-behaviour","location_type":"Force","location":{"latitude":"51.433357","street":{"id":937439,"name":"On or near Leigham Court Road"},"longitude":"-0.119517"},"context":"","outcome_status":null,"persistent_id":"","id":54094256,"location_subtype":"","month":"2017-01"},{"category":"anti-social-behaviour","location_type":"Force","location":{"latitude":"51.432329","street":{"id":937440,"name":"On or near Leigham Close"},"longitude":"-0.117128"},"context":"","outcome_status":null,"persistent_id":"","id":54093880,"location_subtype":"","month":"2017-01"},{"category":"anti-social-behaviour","location_type":"Force","location":{"latitude":"51.433242","street":{"id":937404,"name":"On or near Conifer Gardens"},"longitude":"-0.123579"},"context":"","outcome_status":null,"persistent_id":"","id":54094899,"location_subtype":"","month":"2017-01"},{"category":"anti-social-behaviour","location_type":"Force","location":{"latitude":"51.433242","street":{"id":937404,"name":"On or near Conifer Gardens"},"longitude":"-0.123579"},"context":"","outcome_status":null,"persistent_id":"","id":54094900,"location_subtype":"","month":"2017-01"},{"category":"bicycle-theft","location_type":"Force","location":{"latitude":"51.424142","street":{"id":935242,"name":"On or near Maple Mews"},"longitude":"-0.119694"},"context":"","outcome_status":{"category":"Investigation complete; no suspect identified","date":"2017-01"},"persistent_id":"3c069a9a0f9833d5f2eb291c61c0b560f5ab9022c20e19a78c9b82a9b89622cb","id":54158741,"location_subtype":"","month":"2017-01"},{"category":"burglary","location_type":"Force","location":{"latitude":"51.436013","street":{"id":937389,"name":"On or near Mountearl Gardens"},"longitude":"-0.121983"},"context":"","outcome_status":{"category":"Status update unavailable","date":"2017-05"},"persistent_id":"a9e21f0ec565ba5b96963922c3d2a04d23be8f6dc6086e39192fc30f8d1fe3bd","id":54157713,"location_subtype":"","month":"2017-01"},{"category":"burglary","location_type":"Force","location":{"latitude":"51.430538","street":{"id":937382,"name":"On or near Angles Road"},"longitude":"-0.124869"},"context":"","outcome_status":{"category":"Status update unavailable","date":"2017-05"},"persistent_id":"7aefd4479f81f0bd4d45e61b4cbdec7cfe28e1087314ca83de1053d6e261f6a4","id":54136448,"location_subtype":"","month":"2017-01"},{"category":"burglary","location_type":"Force","location":{"latitude":"51.424445","street":{"id":935277,"name":"On or near Hill House Road"},"longitude":"-0.121192"},"context":"","outcome_status":{"category":"Status update unavailable","date":"2017-05"},"persistent_id":"e6e5e1bacfab3d3f1629ee30b588f34b6f666654dafb33279c67571e76c8f97e","id":54137725,"location_subtype":"","month":"2017-01"},{"category":"burglary","location_type":"Force","location":{"latitude":"51.425526","street":{"id":935257,"name":"On or near Benhurst Lane"},"longitude":"-0.115192"},"context":"","outcome_status":{"category":"Investigation complete; no suspect identified","date":"2017-02"},"persistent_id":"b8b3004096b190b72069854025224856f9b024ed4a54b1c2c8a36153dc57fb0d","id":54104972,"location_subtype":"","month":"2017-01"},{"category":"burglary","location_type":"Force","location":{"latitude":"51.434047","street":{"id":937430,"name":"On or near Romeyn Road"},"longitude":"-0.118827"},"context":"","outcome_status":{"category":"Status update unavailable","date":"2017-05"},"persistent_id":"e003981183fa3b0b12871ffa0b4c351767140b78fab712a186a8d3c3545a9ca5","id":54125675,"location_subtype":"","month":"2017-01"},{"category":"burglary","location_type":"Force","location":{"latitude":"51.431131","street":{"id":937379,"name":"On or near Leithcote Gardens"},"longitude":"-0.122040"},"context":"","outcome_status":{"category":"Status update unavailable","date":"2017-05"},"persistent_id":"b443d493e562c663433c5956b7da1299d86def323ff8cfa12a5d651bad017519","id":54119599,"location_subtype":"","month":"2017-01"},{"category":"burglary","location_type":"Force","location":{"latitude":"51.423317","street":{"id":935269,"name":"On or near Streatham Common North"},"longitude":"-0.123194"},"context":"","outcome_status":{"category":"Status update unavailable","date":"2017-05"},"persistent_id":"f101b23ecf9337b0c96625d83bb222659e272e386195670839abf6c4f6ba835d","id":54136846,"location_subtype":"","month":"2017-01"},{"category":"criminal-damage-arson","location_type":"Force","location":{"latitude":"51.436434","street":{"id":937409,"name":"On or near Adare Walk"},"longitude":"-0.122988"},"context":"","outcome_status":{"category":"Status update unavailable","date":"2017-05"},"persistent_id":"3fa7179a4abe525d6ac688c8225d01985f08d839b34f0b8128a9652146babd85","id":54149842,"location_subtype":"","month":"2017-01"},{"category":"criminal-damage-arson","location_type":"Force","location":{"latitude":"51.427096","street":{"id":937493,"name":"On or near Madeira Road"},"longitude":"-0.126161"},"context":"","outcome_status":{"category":"Status update unavailable","date":"2017-05"},"persistent_id":"b9e776e1a4d4c9335060656c5dc4277950d69d5bc2443bb2ae9f78927c150391","id":54108972,"location_subtype":"","month":"2017-01"},{"category":"criminal-damage-arson","location_type":"Force","location":{"latitude":"51.433781","street":{"id":937384,"name":"On or near Woodleigh Gardens"},"longitude":"-0.126923"},"context":"","outcome_status":{"category":"Status update unavailable","date":"2017-05"},"persistent_id":"7f428393b6bdd9b3db552c92804cc5350713408133c97250feb7f4418bdd240f","id":54148550,"location_subtype":"","month":"2017-01"},{"category":"criminal-damage-arson","location_type":"Force","location":{"latitude":"51.427096","street":{"id":937493,"name":"On or near Madeira Road"},"longitude":"-0.126161"},"context":"","outcome_status":{"category":"Investigation complete; no suspect identified","date":"2017-01"},"persistent_id":"aa33d0b434da848e55e5ffeb1b4efd518865ed9e4d416ca53bbe0b279dd216ad","id":54123527,"location_subtype":"","month":"2017-01"},{"category":"drugs","location_type":"Force","location":{"latitude":"51.424861","street":{"id":935272,"name":"On or near Polworth Road"},"longitude":"-0.126986"},"context":"","outcome_status":{"category":"Investigation complete; no suspect identified","date":"2017-02"},"persistent_id":"e32518e6c37aab5aea4dd710aed7c9df5a9a402594170998ff010e7a1ab47fbf","id":54161611,"location_subtype":"","month":"2017-01"},{"category":"drugs","location_type":"Force","location":{"latitude":"51.431305","street":{"id":937377,"name":"On or near Pinfold Road"},"longitude":"-0.127845"},"context":"","outcome_status":{"category":"Offender given penalty notice","date":"2017-03"},"persistent_id":"fe76bf1993b8269f72af85fa3c31a0cb5d16bd422dc23326aa52370a2eaaf860","id":54152176,"location_subtype":"","month":"2017-01"},{"category":"drugs","location_type":"Force","location":{"latitude":"51.436732","street":{"id":937413,"name":"On or near Further\/higher Educational Building"},"longitude":"-0.123637"},"context":"","outcome_status":{"category":"Offender given a drugs possession warning","date":"2017-01"},"persistent_id":"3579a65fc3efcebf9ad8f7b3bc9605ce3ca92f3aa7298d5092edcff398123eac","id":54123757,"location_subtype":"","month":"2017-01"},{"category":"drugs","location_type":"Force","location":{"latitude":"51.436434","street":{"id":937409,"name":"On or near Adare Walk"},"longitude":"-0.122988"},"context":"","outcome_status":{"category":"Offender given conditional discharge","date":"2017-03"},"persistent_id":"110ecc0d9bf8c882b55b9201df2e8b227af8991e8f08518ac82937d33f17f1fa","id":54143871,"location_subtype":"","month":"2017-01"},{"category":"drugs","location_type":"Force","location":{"latitude":"51.435960","street":{"id":937406,"name":"On or near Chalcot Mews"},"longitude":"-0.127136"},"context":"","outcome_status":{"category":"Offender given a drugs possession warning","date":"2017-01"},"persistent_id":"55b32999980f30ed4b64d1f24a5e9f97c79c3b4e860e61cebc70f1bdefa3d75a","id":54127394,"location_subtype":"","month":"2017-01"},{"category":"drugs","location_type":"Force","location":{"latitude":"51.436013","street":{"id":937389,"name":"On or near Mountearl Gardens"},"longitude":"-0.121983"},"context":"","outcome_status":{"category":"Offender given a caution","date":"2017-01"},"persistent_id":"3ad131fd780300b3d704d7511086f20abd96484975998d8c2dc5fed4451ef799","id":54140522,"location_subtype":"","month":"2017-01"},{"category":"drugs","location_type":"Force","location":{"latitude":"51.436013","street":{"id":937389,"name":"On or near Mountearl Gardens"},"longitude":"-0.121983"},"context":"","outcome_status":{"category":"Court result unavailable","date":"2017-08"},"persistent_id":"aa49ceffeb02fe0a77c706645c515350794cb9077b3728da288685478b812f6c","id":54141507,"location_subtype":"","month":"2017-01"},{"category":"other-theft","location_type":"Force","location":{"latitude":"51.432683","street":{"id":937458,"name":"On or near Petrol Station"},"longitude":"-0.117358"},"context":"","outcome_status":{"category":"Local resolution","date":"2017-01"},"persistent_id":"83ec0a73d5f7e93e87630f68b6cea7bd23cce387df3ae6e2483ae6eb08f90f9e","id":54115530,"location_subtype":"","month":"2017-01"},{"category":"other-theft","location_type":"Force","location":{"latitude":"51.432683","street":{"id":937458,"name":"On or near Petrol Station"},"longitude":"-0.117358"},"context":"","outcome_status":{"category":"Investigation complete; no suspect identified","date":"2017-02"},"persistent_id":"f61ce08739dcb44dc78a6297db0cdf7d26557f37e0df1ec4d2eeeccdcb5cadd5","id":54144633,"location_subtype":"","month":"2017-01"},{"category":"other-theft","location_type":"Force","location":{"latitude":"51.423317","street":{"id":935269,"name":"On or near Streatham Common North"},"longitude":"-0.123194"},"context":"","outcome_status":{"category":"Status update unavailable","date":"2017-05"},"persistent_id":"62ab9ed96d4b95f402f4738d7d1b08fb22fc17ae0ad34d64fac430fddb5ffd2b","id":54104497,"location_subtype":"","month":"2017-01"},{"category":"other-theft","location_type":"Force","location":{"latitude":"51.428705","street":{"id":937488,"name":"On or near Wellfield Road"},"longitude":"-0.123865"},"context":"","outcome_status":{"category":"Court result unavailable","date":"2017-10"},"persistent_id":"473b89be0379bf7ffd9c6427da61ef9463bc642fad78f59c1c4a54ecd3fa6c4d","id":54111865,"location_subtype":"","month":"2017-01"},{"category":"other-theft","location_type":"Force","location":{"latitude":"51.425570","street":{"id":935271,"name":"On or near Rutford Road"},"longitude":"-0.127993"},"context":"","outcome_status":{"category":"Investigation complete; no suspect identified","date":"2017-01"},"persistent_id":"5b7ada7d41c2d784f0f29247b1d1e3cee4c595d429015c9acf926823ebc37013","id":54135896,"location_subtype":"","month":"2017-01"},{"category":"other-theft","location_type":"Force","location":{"latitude":"51.432683","street":{"id":937458,"name":"On or near Petrol Station"},"longitude":"-0.117358"},"context":"","outcome_status":{"category":"Investigation complete; no suspect identified","date":"2017-01"},"persistent_id":"fa41249e7b49ea15a93f727aff7a2444f2cf819ef402f48b9f347eb25a3c61d6","id":54154216,"location_subtype":"","month":"2017-01"},{"category":"other-theft","location_type":"Force","location":{"latitude":"51.432683","street":{"id":937458,"name":"On or near Petrol Station"},"longitude":"-0.117358"},"context":"","outcome_status":{"category":"Investigation complete; no suspect identified","date":"2017-03"},"persistent_id":"b5cb9303ebefcd598623a02867de115e5ef67801eba6f415bc2ac08683ef8bbf","id":54148139,"location_subtype":"","month":"2017-01"},{"category":"other-theft","location_type":"Force","location":{"latitude":"51.433781","street":{"id":937384,"name":"On or near Woodleigh Gardens"},"longitude":"-0.126923"},"context":"","outcome_status":{"category":"Status update unavailable","date":"2017-05"},"persistent_id":"14a67da9434106c90a9f899cd7e9fe7d77f2504cb60ba8b2b1725c6a9acf6b0e","id":54160019,"location_subtype":"","month":"2017-01"},{"category":"public-order","location_type":"Force","location":{"latitude":"51.433781","street":{"id":937384,"name":"On or near Woodleigh Gardens"},"longitude":"-0.126923"},"context":"","outcome_status":{"category":"Investigation complete; no suspect identified","date":"2017-01"},"persistent_id":"029ee2bb83c80b372d64990a93065d6818b370dda4772488a719691357b11492","id":54099321,"location_subtype":"","month":"2017-01"},{"category":"public-order","location_type":"Force","location":{"latitude":"51.430538","street":{"id":937382,"name":"On or near Angles Road"},"longitude":"-0.124869"},"context":"","outcome_status":{"category":"Investigation complete; no suspect identified","date":"2017-01"},"persistent_id":"2a7d323610111eae53d517fdab6b834d726fb6c610105ac97709c8e30de98eac","id":54123260,"location_subtype":"","month":"2017-01"},{"category":"robbery","location_type":"Force","location":{"latitude":"51.431305","street":{"id":937377,"name":"On or near Pinfold Road"},"longitude":"-0.127845"},"context":"","outcome_status":{"category":"Investigation complete; no suspect identified","date":"2017-05"},"persistent_id":"fb2e850e846265dd222b855a7d025ae7baf8c1da81fc64e8ad3797dd26ec3965","id":54122951,"location_subtype":"","month":"2017-01"},{"category":"robbery","location_type":"Force","location":{"latitude":"51.423968","street":{"id":935288,"name":"On or near Albert Carr Gardens"},"longitude":"-0.129051"},"context":"","outcome_status":{"category":"Status update unavailable","date":"2017-05"},"persistent_id":"46d1598480efc45479b17d346cb6c21647f7d1910d93e8a002c6b3c99a56102d","id":54144499,"location_subtype":"","month":"2017-01"},{"category":"robbery","location_type":"Force","location":{"latitude":"51.423968","street":{"id":935288,"name":"On or near Albert Carr Gardens"},"longitude":"-0.129051"},"context":"","outcome_status":{"category":"Investigation complete; no suspect identified","date":"2017-02"},"persistent_id":"46d1598480efc45479b17d346cb6c21647f7d1910d93e8a002c6b3c99a56102d","id":54144500,"location_subtype":"","month":"2017-01"},{"category":"robbery","location_type":"Force","location":{"latitude":"51.425855","street":{"id":935275,"name":"On or near Hopton Road"},"longitude":"-0.126744"},"context":"","outcome_status":{"category":"Investigation complete; no suspect identified","date":"2017-01"},"persistent_id":"7d3d5cebaf8668a98ec773a87efe77055031d6435356db5ff6cc9ea0c6828050","id":54131448,"location_subtype":"","month":"2017-01"},{"category":"robbery","location_type":"Force","location":{"latitude":"51.436013","street":{"id":937389,"name":"On or near Mountearl Gardens"},"longitude":"-0.121983"},"context":"","outcome_status":{"category":"Investigation complete; no suspect identified","date":"2017-03"},"persistent_id":"c1947743aa315f68877e920709b626d9512ec0449edbff3044a5ef254eb535af","id":54140958,"location_subtype":"","month":"2017-01"},{"category":"theft-from-the-person","location_type":"Force","location":{"latitude":"51.424861","street":{"id":935272,"name":"On or near Polworth Road"},"longitude":"-0.126986"},"context":"","outcome_status":{"category":"Status update unavailable","date":"2017-05"},"persistent_id":"7a7b15ce214c5db258ae535a505de5fa4cc2a2cc59dc79f589a801fe9ca3f7a2","id":54108712,"location_subtype":"","month":"2017-01"},{"category":"vehicle-crime","location_type":"Force","location":{"latitude":"51.426790","street":{"id":937473,"name":"On or near Normington Close"},"longitude":"-0.114910"},"context":"","outcome_status":{"category":"Status update unavailable","date":"2017-05"},"persistent_id":"6d33d0e7f86cbbee607a85cb9b94de35fb5a137413be26f09680e6b656bb925f","id":54108061,"location_subtype":"","month":"2017-01"},{"category":"vehicle-crime","location_type":"Force","location":{"latitude":"51.423193","street":{"id":935270,"name":"On or near Streatham Common North"},"longitude":"-0.122207"},"context":"","outcome_status":{"category":"Status update unavailable","date":"2017-05"},"persistent_id":"114ffb0c774289fbfa70e45b35bed4b07781817f030e32bcb5346c15bee1d5f8","id":54109355,"location_subtype":"","month":"2017-01"},{"category":"vehicle-crime","location_type":"Force","location":{"latitude":"51.425526","street":{"id":935257,"name":"On or near Benhurst Lane"},"longitude":"-0.115192"},"context":"","outcome_status":{"category":"Status update unavailable","date":"2017-05"},"persistent_id":"503307d82c5048ee59a3da670a23e93b3da43cd7c2509a8ac3d848a281011483","id":54147340,"location_subtype":"","month":"2017-01"},{"category":"vehicle-crime","location_type":"Force","location":{"latitude":"51.430539","street":{"id":937417,"name":"On or near Samuel Johnson Close"},"longitude":"-0.117101"},"context":"","outcome_status":{"category":"Status update unavailable","date":"2017-05"},"persistent_id":"39348f8524a524521a4890862b383f057eb2638ccd64d38dcaabae56de5b6554","id":54136663,"location_subtype":"","month":"2017-01"},{"category":"vehicle-crime","location_type":"Force","location":{"latitude":"51.425526","street":{"id":935257,"name":"On or near Benhurst Lane"},"longitude":"-0.115192"},"context":"","outcome_status":{"category":"Status update unavailable","date":"2017-05"},"persistent_id":"558ceaf6453991da3560dec8d9622de828ef1d6e6815bf91ca04eb97be308d43","id":54111424,"location_subtype":"","month":"2017-01"},{"category":"vehicle-crime","location_type":"Force","location":{"latitude":"51.427096","street":{"id":937493,"name":"On or near Madeira Road"},"longitude":"-0.126161"},"context":"","outcome_status":{"category":"Status update unavailable","date":"2017-05"},"persistent_id":"4c3854a8972b7a10e46b56bbce323838c2d8f33fe1882ce0a874829e4e05adfd","id":54149764,"location_subtype":"","month":"2017-01"},{"category":"vehicle-crime","location_type":"Force","location":{"latitude":"51.433781","street":{"id":937384,"name":"On or near Woodleigh Gardens"},"longitude":"-0.126923"},"context":"","outcome_status":{"category":"Investigation complete; no suspect identified","date":"2017-02"},"persistent_id":"592c1fc31cfe7dd74b43e70b5edf64cff000a497dbc751e1bfbd5f11edf22364","id":54160657,"location_subtype":"","month":"2017-01"},{"category":"vehicle-crime","location_type":"Force","location":{"latitude":"51.423317","street":{"id":935269,"name":"On or near Streatham Common North"},"longitude":"-0.123194"},"context":"","outcome_status":{"category":"Court result unavailable","date":"2017-08"},"persistent_id":"c4602577586f7f24a31a51a6699fb61f14324bf8bf2d8cf439342ddcd72242e9","id":54132921,"location_subtype":"","month":"2017-01"},{"category":"vehicle-crime","location_type":"Force","location":{"latitude":"51.423968","street":{"id":935288,"name":"On or near Albert Carr Gardens"},"longitude":"-0.129051"},"context":"","outcome_status":{"category":"Investigation complete; no suspect identified","date":"2017-01"},"persistent_id":"584e67b8410758a23bb4b852f3934f3076ac5e66b414d32f26a2c63707e1996f","id":54132616,"location_subtype":"","month":"2017-01"},{"category":"violent-crime","location_type":"Force","location":{"latitude":"51.436801","street":{"id":937435,"name":"On or near Lydhurst Avenue"},"longitude":"-0.117836"},"context":"","outcome_status":{"category":"Court result unavailable","date":"2017-07"},"persistent_id":"891c5a3a330b163d1307c1243a4b2323c5b7c886106be3826996c013ae17cb52","id":54159264,"location_subtype":"","month":"2017-01"},{"category":"violent-crime","location_type":"Force","location":{"latitude":"51.432366","street":{"id":937398,"name":"On or near Gracefield Gardens"},"longitude":"-0.125025"},"context":"","outcome_status":{"category":"Investigation complete; no suspect identified","date":"2017-01"},"persistent_id":"0c9752430f4ce33bc56b9338c2c71dbe0a6f4bc2affe4a5f36f7c198df34a056","id":54132890,"location_subtype":"","month":"2017-01"},{"category":"violent-crime","location_type":"Force","location":{"latitude":"51.432626","street":{"id":937395,"name":"On or near Leigh Orchard Close"},"longitude":"-0.121633"},"context":"","outcome_status":{"category":"Status update unavailable","date":"2017-05"},"persistent_id":"3aa38760872087719ddba31534b06f325100f4710b8c62cc5b11c58e0500347b","id":54107349,"location_subtype":"","month":"2017-01"},{"category":"violent-crime","location_type":"Force","location":{"latitude":"51.433781","street":{"id":937384,"name":"On or near Woodleigh Gardens"},"longitude":"-0.126923"},"context":"","outcome_status":{"category":"Investigation complete; no suspect identified","date":"2017-01"},"persistent_id":"838c853c509bc8d9015ccba38e6f0950fdb59e6f30b573a40b65eb49909ecd04","id":54110715,"location_subtype":"","month":"2017-01"},{"category":"violent-crime","location_type":"Force","location":{"latitude":"51.425526","street":{"id":935257,"name":"On or near Benhurst Lane"},"longitude":"-0.115192"},"context":"","outcome_status":{"category":"Investigation complete; no suspect identified","date":"2017-04"},"persistent_id":"cfc18f744a138933604b63dc0882cadfac8f42b03dbd9a7be36f801261594b01","id":54142248,"location_subtype":"","month":"2017-01"},{"category":"violent-crime","location_type":"Force","location":{"latitude":"51.433242","street":{"id":937404,"name":"On or near Conifer Gardens"},"longitude":"-0.123579"},"context":"","outcome_status":{"category":"Status update unavailable","date":"2017-05"},"persistent_id":"45876baedd691257549ad492979166ade2e8a89c274c27bdc7ffe7c494e36fa3","id":54119255,"location_subtype":"","month":"2017-01"},{"category":"violent-crime","location_type":"Force","location":{"latitude":"51.433242","street":{"id":937404,"name":"On or near Conifer Gardens"},"longitude":"-0.123579"},"context":"","outcome_status":{"category":"Status update unavailable","date":"2017-05"},"persistent_id":"45876baedd691257549ad492979166ade2e8a89c274c27bdc7ffe7c494e36fa3","id":54119257,"location_subtype":"","month":"2017-01"},{"category":"violent-crime","location_type":"Force","location":{"latitude":"51.433242","street":{"id":937404,"name":"On or near Conifer Gardens"},"longitude":"-0.123579"},"context":"","outcome_status":{"category":"Investigation complete; no suspect identified","date":"2017-02"},"persistent_id":"149dca9900d0cf9713360e9d7d94218e174b5914b3f6f6be4f64b4d5d2bf6681","id":54105771,"location_subtype":"","month":"2017-01"},{"category":"violent-crime","location_type":"Force","location":{"latitude":"51.432096","street":{"id":924005,"name":"On or near Milford Mews"},"longitude":"-0.118878"},"context":"","outcome_status":{"category":"Investigation complete; no suspect identified","date":"2017-02"},"persistent_id":"954bc492be8ee19f8aba3bad540c4299d764adbddd4fe87fdf5d9f6661d8b11c","id":54101907,"location_subtype":"","month":"2017-01"},{"category":"violent-crime","location_type":"Force","location":{"latitude":"51.430958","street":{"id":937381,"name":"On or near Farm Avenue"},"longitude":"-0.126420"},"context":"","outcome_status":{"category":"Investigation complete; no suspect identified","date":"2017-05"},"persistent_id":"ec78560d808eed4c669807e4b080f90b2365171dde3c71cddc3362031ae6be1e","id":54146651,"location_subtype":"","month":"2017-01"},{"category":"violent-crime","location_type":"Force","location":{"latitude":"51.423696","street":{"id":935236,"name":"On or near Natal Road"},"longitude":"-0.130040"},"context":"","outcome_status":{"category":"Investigation complete; no suspect identified","date":"2017-01"},"persistent_id":"ebf63645056cf41e36db41fdaba31d33ee6a1507318e94154c7e04c01c9d97fd","id":54146285,"location_subtype":"","month":"2017-01"},{"category":"violent-crime","location_type":"Force","location":{"latitude":"51.433781","street":{"id":937384,"name":"On or near Woodleigh Gardens"},"longitude":"-0.126923"},"context":"","outcome_status":{"category":"Investigation complete; no suspect identified","date":"2017-01"},"persistent_id":"ae8dab3c7db306823a6a7dddb1ffa16bcddb0201aa01fa41ed941ba9ed00acce","id":54146343,"location_subtype":"","month":"2017-01"},{"category":"violent-crime","location_type":"Force","location":{"latitude":"51.428705","street":{"id":937488,"name":"On or near Wellfield Road"},"longitude":"-0.123865"},"context":"","outcome_status":{"category":"Court result unavailable","date":"2018-04"},"persistent_id":"f83c7d3571fbd5603c1ff6f2ae9ff699aaf2c8fe1e54493aae2b6fd089885e12","id":54109638,"location_subtype":"","month":"2017-01"},{"category":"violent-crime","location_type":"Force","location":{"latitude":"51.436732","street":{"id":937413,"name":"On or near Further\/higher Educational Building"},"longitude":"-0.123637"},"context":"","outcome_status":{"category":"Investigation complete; no suspect identified","date":"2017-07"},"persistent_id":"2b62227b6f8f7434fd7d26a1afe981c8db3a966cc72cc942dfc6aef30c07adce","id":54151174,"location_subtype":"","month":"2017-01"},{"category":"violent-crime","location_type":"Force","location":{"latitude":"51.436732","street":{"id":937413,"name":"On or near Further\/higher Educational Building"},"longitude":"-0.123637"},"context":"","outcome_status":{"category":"Status update unavailable","date":"2017-05"},"persistent_id":"2b62227b6f8f7434fd7d26a1afe981c8db3a966cc72cc942dfc6aef30c07adce","id":54151173,"location_subtype":"","month":"2017-01"},{"category":"violent-crime","location_type":"Force","location":{"latitude":"51.433242","street":{"id":937404,"name":"On or near Conifer Gardens"},"longitude":"-0.123579"},"context":"","outcome_status":{"category":"Investigation complete; no suspect identified","date":"2017-03"},"persistent_id":"cc914add71ce11436373a1c7e5c592e348cdc61232de65ff8dafbb57d48ee82b","id":54156420,"location_subtype":"","month":"2017-01"},{"category":"violent-crime","location_type":"Force","location":{"latitude":"51.423968","street":{"id":935288,"name":"On or near Albert Carr Gardens"},"longitude":"-0.129051"},"context":"","outcome_status":{"category":"Investigation complete; no suspect identified","date":"2017-04"},"persistent_id":"aa533af44d4727ccb8b632d58d89b70552fe475ac43d68bed80511b3131abc51","id":54156695,"location_subtype":"","month":"2017-01"},{"category":"violent-crime","location_type":"Force","location":{"latitude":"51.434369","street":{"id":937387,"name":"On or near Rosedene Avenue"},"longitude":"-0.119864"},"context":"","outcome_status":{"category":"Offender given a caution","date":"2017-01"},"persistent_id":"bfd54f13ade5c9843b70ea27bc2bf8f6548214af26cacba9377ec8e3e5c19305","id":54133129,"location_subtype":"","month":"2017-01"},{"category":"violent-crime","location_type":"Force","location":{"latitude":"51.436801","street":{"id":937435,"name":"On or near Lydhurst Avenue"},"longitude":"-0.117836"},"context":"","outcome_status":{"category":"Status update unavailable","date":"2017-05"},"persistent_id":"891c5a3a330b163d1307c1243a4b2323c5b7c886106be3826996c013ae17cb52","id":54159262,"location_subtype":"","month":"2017-01"},{"category":"violent-crime","location_type":"Force","location":{"latitude":"51.436801","street":{"id":937435,"name":"On or near Lydhurst Avenue"},"longitude":"-0.117836"},"context":"","outcome_status":{"category":"Status update unavailable","date":"2017-05"},"persistent_id":"891c5a3a330b163d1307c1243a4b2323c5b7c886106be3826996c013ae17cb52","id":54159263,"location_subtype":"","month":"2017-01"},{"category":"other-crime","location_type":"Force","location":{"latitude":"51.432096","street":{"id":924005,"name":"On or near Milford Mews"},"longitude":"-0.118878"},"context":"","outcome_status":{"category":"Investigation complete; no suspect identified","date":"2017-05"},"persistent_id":"2fbca70943cd07c006a6ebbe0370c2c75c313d2f8120951bc7d6d4dc0b75f370","id":54132733,"location_subtype":"","month":"2017-01"}]