[{"category":"anti-social-behaviour","location_type":"Force","location":{"latitude":"51.519261","street":{"id":960504,"name":"On or near Baker Street"},"longitude":"-0.156224"},"context":"","outcome_status":null,"persistent_id":"","id":54095908,"location_subtype":"","month":"2017-01"},{"category":"anti-social-behaviour","location_type":"Force","location":{"latitude":"51.519975","street":{"id":960490,"name":"On or near Kenrick Place"},"longitude":"-0.155907"},"context":"","outcome_status":null,"persistent_id":"","id":54095902,"location_subtype":"","month":"2017-01"},{"category":"anti-social-behaviour","location_type":"Force","location":{"latitude":"51.514983","street":{"id":956949,"name":"On or near Shopping Area"},"longitude":"-0.147822"},"context":"","outcome_status":null,"persistent_id":"","id":54092795,"location_subtype":"","month":"2017-01"},{"category":"anti-social-behaviour","location_type":"Force","location":{"latitude":"51.517892","street":{"id":956906,"name":"On or near Kendall Place"},"longitude":"-0.154925"},"context":"","outcome_status":null,"persistent_id":"","id":54095901,"location_subtype":"","month":"2017-01"},{"category":"anti-social-behaviour","location_type":"Force","location":{"latitude":"51.519261","street":{"id":960504,"name":"On or near Baker Street"},"longitude":"-0.156224"},"context":"","outcome_status":null,"persistent_id":"","id":54095907,"location_subtype":"","month":"2017-01"},{"category":"anti-social-behaviour","location_type":"Force","location":{"latitude":"51.520634","street":{"id":960482,"name":"On or near Paddington Street"},"longitude":"-0.154309"},"context":"","outcome_status":null,"persistent_id":"","id":54095899,"location_subtype":"","month":"2017-01"},{"category":"anti-social-behaviour","location_type":"Force","location":{"latitude":"51.514341","street":{"id":956850,"name":"On or near Granville Place"},"longitude":"-0.155558"},"context":"","outcome_status":null,"persistent_id":"","id":54092838,"location_subtype":"","month":"2017-01"},{"category":"anti-social-behaviour","location_type":"Force","location":{"latitude":"51.514341","street":{"id":956850,"name":"On or near Granville Place"},"longitude":"-0.155558"},"context":"","outcome_status":null,"persistent_id":"","id":54092837,"location_subtype":"","month":"2017-01"},{"category":"anti-social-behaviour","location_type":"Force","location":{"latitude":"51.514341","street":{"id":956850,"name":"On or near Granville Place"},"longitude":"-0.155558"},"context":"","outcome_status":null,"persistent_id":"","id":54092836,"location_subtype":"","month":"2017-01"},{"category":"anti-social-behaviour","location_type":"Force","location":{"latitude":"51.514605","street":{"id":956883,"name":"On or near Shopping Area"},"longitude":"-0.150662"},"context":"","outcome_status":null,"persistent_id":"","id":54092812,"location_subtype":"","month":"2017-01"},{"category":"anti-social-behaviour","location_type":"Force","location":{"latitude":"51.514341","street":{"id":956850,"name":"On or near Granville Place"},"longitude":"-0.155558"},"context":"","outcome_status":null,"persistent_id":"","id":54092835,"location_subtype":"","month":"2017-01"},{"category":"anti-social-behaviour","location_type":"Force","location":{"latitude":"51.514605","street":{"id":956883,"name":"On or near Shopping Area"},"longitude":"-0.150662"},"context":"","outcome_status":null,"persistent_id":"","id":54092813,"location_subtype":"","month":"2017-01"},{"category":"anti-social-behaviour","location_type":"Force","location":{"latitude":"51.514341","street":{"id":956850,"name":"On or near Granville Place"},"longitude":"-0.155558"},"context":"","outcome_status":null,"persistent_id":"","id":54092834,"location_subtype":"","month":"2017-01"},{"category":"anti-social-behaviour","location_type":"Force","location":{"latitude":"51.514341","street":{"id":956850,"name":"On or near Granville Place"},"longitude":"-0.155558"},"context":"","outcome_status":null,"persistent_id":"","id":54092833,"location_subtype":"","month":"2017-01"},{"category":"anti-social-behaviour","location_type":"Force","location":{"latitude":"51.514605","street":{"id":956883,"name":"On or near Shopping Area"},"longitude":"-0.150662"},"context":"","outcome_status":null,"persistent_id":"","id":54092814,"location_subtype":"","month":"2017-01"},{"category":"anti-social-behaviour","location_type":"Force","location":{"latitude":"51.514605","street":{"id":956883,"name":"On or near Shopping Area"},"longitude":"-0.150662"},"context":"","outcome_status":null,"persistent_id":"","id":54092815,"location_subtype":"","month":"2017-01"},{"category":"anti-social-behaviour","location_type":"Force","location":{"latitude":"51.514868","street":{"id":956803,"name":"On or near Parking Area"},"longitude":"-0.153101"},"context":"","outcome_status":null,"persistent_id":"","id":54092829,"location_subtype":"","month":"2017-01"},{"category":"anti-social-behaviour","location_type":"Force","location":{"latitude":"51.514341","street":{"id":956850,"name":"On or near Granville Place"},"longitude":"-0.155558"},"context":"","outcome_status":null,"persistent_id":"","id":54092832,"location_subtype":"","month":"2017-01"},{"category":"anti-social-behaviour","location_type":"Force","location":{"latitude":"51.514341","street":{"id":956850,"name":"On or near Granville Place"},"longitude":"-0.155558"},"context":"","outcome_status":null,"persistent_id":"","id":54092831,"location_subtype":"","month":"2017-01"},{"category":"anti-social-behaviour","location_type":"Force","location":{"latitude":"51.522154","street":{"id":960375,"name":"On or near Further\/higher Educational Building"},"longitude":"-0.154335"},"context":"","outcome_status":null,"persistent_id":"","id":54095898,"location_subtype":"","month":"2017-01"},{"category":"anti-social-behaviour","location_type":"Force","location":{"latitude":"51.517488","street":{"id":956898,"name":"On or near Spanish Place"},"longitude":"-0.152678"},"context":"","outcome_status":null,"persistent_id":"","id":54095896,"location_subtype":"","month":"2017-01"},{"category":"anti-social-behaviour","location_type":"Force","location":{"latitude":"51.519261","street":{"id":960504,"name":"On or near Baker Street"},"longitude":"-0.156224"},"context":"","outcome_status":null,"persistent_id":"","id":54095909,"location_subtype":"","month":"2017-01"},{"category":"anti-social-behaviour","location_type":"Force","location":{"latitude":"51.519975","street":{"id":960490,"name":"On or near Kenrick Place"},"longitude":"-0.155907"},"context":"","outcome_status":null,"persistent_id":"","id":54095906,"location_subtype":"","month":"2017-01"},{"category":"anti-social-behaviour","location_type":"Force","location":{"latitude":"51.521940","street":{"id":960362,"name":"On or near Marylebone High Street"},"longitude":"-0.151619"},"context":"","outcome_status":null,"persistent_id":"","id":54095895,"location_subtype":"","month":"2017-01"},{"category":"anti-social-behaviour","location_type":"Force","location":{"latitude":"51.521940","street":{"id":960362,"name":"On or near Marylebone High Street"},"longitude":"-0.151619"},"context":"","outcome_status":null,"persistent_id":"","id":54095894,"location_subtype":"","month":"2017-01"},{"category":"anti-social-behaviour","location_type":"Force","location":{"latitude":"51.519261","street":{"id":960504,"name":"On or near Baker Street"},"longitude":"-0.156224"},"context":"","outcome_status":null,"persistent_id":"","id":54095910,"location_subtype":"","month":"2017-01"},{"category":"anti-social-behaviour","location_type":"Force","location":{"latitude":"51.521729","street":{"id":960508,"name":"On or near Further\/higher Educational Building"},"longitude":"-0.157062"},"context":"","outcome_status":null,"persistent_id":"","id":54095913,"location_subtype":"","month":"2017-01"},{"category":"anti-social-behaviour","location_type":"Force","location":{"latitude":"51.518552","street":{"id":956899,"name":"On or near Rodmarton Street"},"longitude":"-0.157464"},"context":"","outcome_status":null,"persistent_id":"","id":54095914,"location_subtype":"","month":"2017-01"},{"category":"anti-social-behaviour","location_type":"Force","location":{"latitude":"51.517994","street":{"id":956793,"name":"On or near Gloucester Place Mews"},"longitude":"-0.158567"},"context":"","outcome_status":null,"persistent_id":"","id":54095916,"location_subtype":"","month":"2017-01"},{"category":"anti-social-behaviour","location_type":"Force","location":{"latitude":"51.519792","street":{"id":960478,"name":"On or near Wesley Street"},"longitude":"-0.150567"},"context":"","outcome_status":null,"persistent_id":"","id":54095893,"location_subtype":"","month":"2017-01"},{"category":"anti-social-behaviour","location_type":"Force","location":{"latitude":"51.514341","street":{"id":956850,"name":"On or near Granville Place"},"longitude":"-0.155558"},"context":"","outcome_status":null,"persistent_id":"","id":54095904,"location_subtype":"","month":"2017-01"},{"category":"anti-social-behaviour","location_type":"Force","location":{"latitude":"51.517591","street":{"id":956919,"name":"On or near Further\/higher Educational Building"},"longitude":"-0.150656"},"context":"","outcome_status":null,"persistent_id":"","id":54095892,"location_subtype":"","month":"2017-01"},{"category":"anti-social-behaviour","location_type":"Force","location":{"latitude":"51.516621","street":{"id":956846,"name":"On or near Hinde Mews"},"longitude":"-0.150753"},"context":"","outcome_status":null,"persistent_id":"","id":54095891,"location_subtype":"","month":"2017-01"},{"category":"anti-social-behaviour","location_type":"Force","location":{"latitude":"51.519975","street":{"id":960490,"name":"On or near Kenrick Place"},"longitude":"-0.155907"},"context":"","outcome_status":null,"persistent_id":"","id":54095905,"location_subtype":"","month":"2017-01"},{"category":"anti-social-behaviour","location_type":"Force","location":{"latitude":"51.514341","street":{"id":956850,"name":"On or near Granville Place"},"longitude":"-0.155558"},"context":"","outcome_status":null,"persistent_id":"","id":54095903,"location_subtype":"","month":"2017-01"},{"category":"anti-social-behaviour","location_type":"Force","location":{"latitude":"51.515425","street":{"id":956878,"name":"On or near Nightclub"},"longitude":"-0.149649"},"context":"","outcome_status":null,"persistent_id":"","id":54095890,"location_subtype":"","month":"2017-01"},{"category":"anti-social-behaviour","location_type":"Force","location":{"latitude":"51.517148","street":{"id":956915,"name":"On or near Bentinck Street"},"longitude":"-0.149982"},"context":"","outcome_status":null,"persistent_id":"","id":54095889,"location_subtype":"","month":"2017-01"},{"category":"anti-social-behaviour","location_type":"Force","location":{"latitude":"51.515886","street":{"id":956813,"name":"On or near Welbeck Street"},"longitude":"-0.148621"},"context":"","outcome_status":null,"persistent_id":"","id":54095888,"location_subtype":"","month":"2017-01"},{"category":"anti-social-behaviour","location_type":"Force","location":{"latitude":"51.515886","street":{"id":956813,"name":"On or near Welbeck Street"},"longitude":"-0.148621"},"context":"","outcome_status":null,"persistent_id":"","id":54095887,"location_subtype":"","month":"2017-01"},{"category":"anti-social-behaviour","location_type":"Force","location":{"latitude":"51.518075","street":{"id":956397,"name":"On or near Harley Street"},"longitude":"-0.146572"},"context":"","outcome_status":null,"persistent_id":"","id":54095886,"location_subtype":"","month":"2017-01"},{"category":"anti-social-behaviour","location_type":"Force","location":{"latitude":"51.520670","street":{"id":960714,"name":"On or near Conference\/exhibition Centre"},"longitude":"-0.143497"},"context":"","outcome_status":null,"persistent_id":"","id":54095880,"location_subtype":"","month":"2017-01"},{"category":"anti-social-behaviour","location_type":"Force","location":{"latitude":"51.520680","street":{"id":960734,"name":"On or near Further\/higher Educational Building"},"longitude":"-0.142459"},"context":"","outcome_status":null,"persistent_id":"","id":54095879,"location_subtype":"","month":"2017-01"},{"category":"anti-social-behaviour","location_type":"Force","location":{"latitude":"51.520826","street":{"id":960724,"name":"On or near Hanson Street"},"longitude":"-0.140853"},"context":"","outcome_status":null,"persistent_id":"","id":54095875,"location_subtype":"","month":"2017-01"},{"category":"anti-social-behaviour","location_type":"Force","location":{"latitude":"51.514983","street":{"id":956949,"name":"On or near Shopping Area"},"longitude":"-0.147822"},"context":"","outcome_status":null,"persistent_id":"","id":54092794,"location_subtype":"","month":"2017-01"},{"category":"bicycle-theft","location_type":"Force","location":{"latitude":"51.520680","street":{"id":960734,"name":"On or near Further\/higher Educational Building"},"longitude":"-0.142459"},"context":"","outcome_status":{"category":"Investigation complete; no suspect identified","date":"2017-02"},"persistent_id":"39fe883499ae12390a5f4e31e9a6e4189bd02daa6fee366ee6d71f22a41f08b3","id":54109924,"location_subtype":"","month":"2017-01"},{"category":"bicycle-theft","location_type":"Force","location":{"latitude":"51.521425","street":{"id":960707,"name":"On or near Hallam Street"},"longitude":"-0.144043"},"context":"","outcome_status":{"category":"Investigation complete; no suspect identified","date":"2017-01"},"persistent_id":"d4edae98b702b68ad9d5162fed6b6525a823ad0ba95ddac5f90be5d09af4a283","id":54110538,"location_subtype":"","month":"2017-01"},{"category":"bicycle-theft","location_type":"Force","location":{"latitude":"51.516785","street":{"id":956875,"name":"On or near Baker's Mews"},"longitude":"-0.154335"},"context":"","outcome_status":{"category":"Awaiting court outcome","date":"2018-02"},"persistent_id":"862c496e50697c54459cf84b4883dc348e631aa4359cd1ec17d142b7075aeaab","id":54126006,"location_subtype":"","month":"2017-01"},{"category":"bicycle-theft","location_type":"Force","location":{"latitude":"51.517468","street":{"id":956916,"name":"On or near Bentinck Mews"},"longitude":"-0.150286"},"context":"","outcome_status":{"category":"Investigation complete; no suspect identified","date":"2017-05"},"persistent_id":"4cfa90cd4494af2ed80515bac80668f6af6fec89dedb416187d1dd7cffd1fa22","id":54116617,"location_subtype":"","month":"2017-01"},{"category":"bicycle-theft","location_type":"Force","location":{"latitude":"51.518145","street":{"id":956912,"name":"On or near Bulstrode Place"},"longitude":"-0.150461"},"context":"","outcome_status":{"category":"Investigation complete; no suspect identified","date":"2017-02"},"persistent_id":"5811f0fb4bff80fc8c306e54961321137089e2925b0755ea29517146c5362cef","id":54111336,"location_subtype":"","month":"2017-01"},{"category":"bicycle-theft","location_type":"Force","location":{"latitude":"51.519205","street":{"id":960497,"name":"On or near De Walden Street"},"longitude":"-0.150389"},"context":"","outcome_status":{"category":"Investigation complete; no suspect identified","date":"2017-01"},"persistent_id":"ec128ab076c30cb9c84b8757487ddd439465abc6fd5f1b54326b17adf6722aaa","id":54121376,"location_subtype":"","month":"2017-01"},{"category":"bicycle-theft","location_type":"Force","location":{"latitude":"51.519205","street":{"id":960497,"name":"On or near De Walden Street"},"longitude":"-0.150389"},"context":"","outcome_status":{"category":"Status update unavailable","date":"2017-05"},"persistent_id":"7e3bf941458200f40871deec6238672192d7d84ce49c001d114643dff91d96af","id":54111868,"location_subtype":"","month":"2017-01"},{"category":"bicycle-theft","location_type":"Force","location":{"latitude":"51.514868","street":{"id":956803,"name":"On or near Parking Area"},"longitude":"-0.153101"},"context":"","outcome_status":{"category":"Investigation complete; no suspect identified","date":"2017-03"},"persistent_id":"90361857dfc59c523fc8eeb3a05a9d4863d205a0ad2b139abcdafdd2dc7bc2c4","id":54107506,"location_subtype":"","month":"2017-01"},{"category":"bicycle-theft","location_type":"Force","location":{"latitude":"51.522420","street":{"id":960698,"name":"On or near Further\/higher Educational Building"},"longitude":"-0.140471"},"context":"","outcome_status":{"category":"Investigation complete; no suspect identified","date":"2017-01"},"persistent_id":"f22725fdc8129b272f9a83fd2e527026890aedd7ba5fb634066043c69a8b4cfd","id":54145878,"location_subtype":"","month":"2017-01"},{"category":"bicycle-theft","location_type":"Force","location":{"latitude":"51.516466","street":{"id":956842,"name":"On or near Mandeville Place"},"longitude":"-0.151192"},"context":"","outcome_status":{"category":"Status update unavailable","date":"2017-05"},"persistent_id":"454a7a4cccdf168faea62930d183f3c6ba5fd51cf6c74c1c2ffc60747c086d5c","id":54111354,"location_subtype":"","month":"2017-01"},{"category":"burglary","location_type":"Force","location":{"latitude":"51.521964","street":{"id":960690,"name":"On or near Bolsover Street"},"longitude":"-0.142882"},"context":"","outcome_status":{"category":"Court result unavailable","date":"2017-10"},"persistent_id":"c1e013d1fb0892c8515c5ab2a458f1ddd168fd6ed192d0548a009a2719192418","id":54108780,"location_subtype":"","month":"2017-01"},{"category":"burglary","location_type":"Force","location":{"latitude":"51.517338","street":{"id":956917,"name":"On or near Conference\/exhibition Centre"},"longitude":"-0.154039"},"context":"","outcome_status":{"category":"Status update unavailable","date":"2017-05"},"persistent_id":"1a8ea44ece3be08e5e67840c7f54551fecb416bc70472416e3d65b0ad2443fe0","id":54099111,"location_subtype":"","month":"2017-01"},{"category":"burglary","location_type":"Force","location":{"latitude":"51.520670","street":{"id":960714,"name":"On or near Conference\/exhibition Centre"},"longitude":"-0.143497"},"context":"","outcome_status":{"category":"Investigation complete; no suspect identified","date":"2017-04"},"persistent_id":"08d32cefa76a340b7e12fbeece0ba0c15116d1efb78b8fdf347e1daf070731c7","id":54105083,"location_subtype":"","month":"2017-01"},{"category":"burglary","location_type":"Force","location":{"latitude":"51.521749","street":{"id":960616,"name":"On or near Great Portland Street"},"longitude":"-0.143497"},"context":"","outcome_status":{"category":"Status update unavailable","date":"2017-05"},"persistent_id":"6825c18b6feea61c30588a6410eddf980729e708e162b4d59d5bcb473b50f974","id":54099504,"location_subtype":"","month":"2017-01"},{"category":"burglary","location_type":"Force","location":{"latitude":"51.521940","street":{"id":960362,"name":"On or near Marylebone High Street"},"longitude":"-0.151619"},"context":"","outcome_status":{"category":"Investigation complete; no suspect identified","date":"2017-01"},"persistent_id":"b0e3ad2cc87331c894c8e9f98d34404f5966492fa34d7fe6ace7b7856e56e1e5","id":54104612,"location_subtype":"","month":"2017-01"},{"category":"burglary","location_type":"Force","location":{"latitude":"51.514397","street":{"id":956827,"name":"On or near Portman Street"},"longitude":"-0.156277"},"context":"","outcome_status":{"category":"Investigation complete; no suspect identified","date":"2017-01"},"persistent_id":"337d67206d34459bb4423329171601cf9b0fb0f2410ff6be10ca5d48b03f5602","id":54106310,"location_subtype":"","month":"2017-01"},{"category":"burglary","location_type":"Force","location":{"latitude":"51.519975","street":{"id":960490,"name":"On or near Kenrick Place"},"longitude":"-0.155907"},"context":"","outcome_status":{"category":"Status update unavailable","date":"2017-05"},"persistent_id":"a44efa09edec032dc279bba0d6c1dc72b3fb52bf4c52bc0fdeb228622251233e","id":54118915,"location_subtype":"","month":"2017-01"},{"category":"burglary","location_type":"Force","location":{"latitude":"51.520205","street":{"id":960701,"name":"On or near Parking Area"},"longitude":"-0.145938"},"context":"","outcome_status":{"category":"Investigation complete; no suspect identified","date":"2017-01"},"persistent_id":"2c513692dfd277080011a66625fc7a8342e9469a711c11906afcedc76c41ebc9","id":54107710,"location_subtype":"","month":"2017-01"},{"category":"burglary","location_type":"Force","location":{"latitude":"51.521940","street":{"id":960362,"name":"On or near Marylebone High Street"},"longitude":"-0.151619"},"context":"","outcome_status":{"category":"Investigation complete; no suspect identified","date":"2017-01"},"persistent_id":"0322968635e583fd084156074bd4ecce7153b85581644c98d2a199be6ee1cce2","id":54105509,"location_subtype":"","month":"2017-01"},{"category":"burglary","location_type":"Force","location":{"latitude":"51.518382","street":{"id":956911,"name":"On or near Cross Keys Close"},"longitude":"-0.150653"},"context":"","outcome_status":{"category":"Status update unavailable","date":"2017-05"},"persistent_id":"6c28596a787b9e2e0739e2f2c5a7be6c0aa7e6e6ea4ed81b568d8d8849edd515","id":54110851,"location_subtype":"","month":"2017-01"},{"category":"burglary","location_type":"Force","location":{"latitude":"51.520479","street":{"id":960500,"name":"On or near Clarkes Mews"},"longitude":"-0.150193"},"context":"","outcome_status":{"category":"Status update unavailable","date":"2017-05"},"persistent_id":"3513d8d512c43c8708a720350c52cea8cf3681165dc0d68d7aef98d5c0b0ce6d","id":54116351,"location_subtype":"","month":"2017-01"},{"category":"burglary","location_type":"Force","location":{"latitude":"51.517616","street":{"id":956895,"name":"On or near Welbeck Street"},"longitude":"-0.149387"},"context":"","outcome_status":{"category":"Investigation complete; no suspect identified","date":"2017-08"},"persistent_id":"789c32bbb78362d6404ed798956b631bf4ce25f0d6c801ee9b7ade1711f1b6c9","id":54105806,"location_subtype":"","month":"2017-01"},{"category":"burglary","location_type":"Force","location":{"latitude":"51.521710","street":{"id":960363,"name":"On or near Devonshire Street"},"longitude":"-0.147880"},"context":"","outcome_status":{"category":"Status update unavailable","date":"2017-05"},"persistent_id":"18aec833a151a805ae522301358b7d75efbc704094d310f4444629d7e7e09066","id":54124603,"location_subtype":"","month":"2017-01"},{"category":"burglary","location_type":"Force","location":{"latitude":"51.520140","street":{"id":960702,"name":"On or near Weymouth Mews"},"longitude":"-0.146358"},"context":"","outcome_status":{"category":"Status update unavailable","date":"2017-05"},"persistent_id":"725df9a2b038133bd4e481a6b7ffed6fb0f0a59018e127af43fefec8825b2145","id":54112572,"location_subtype":"","month":"2017-01"},{"category":"burglary","location_type":"Force","location":{"latitude":"51.523313","street":{"id":960647,"name":"On or near Warren Mews"},"longitude":"-0.141746"},"context":"","outcome_status":{"category":"Status update unavailable","date":"2017-05"},"persistent_id":"6a3e8cfce84a5226a62c7fce73c8f458bb879f9dc5d01b8474e3e28330bfb430","id":54151138,"location_subtype":"","month":"2017-01"},{"category":"burglary","location_type":"Force","location":{"latitude":"51.517616","street":{"id":956895,"name":"On or near Welbeck Street"},"longitude":"-0.149387"},"context":"","outcome_status":{"category":"Investigation complete; no suspect identified","date":"2017-01"},"persistent_id":"1e32ea041f463aaa38dbd64d80e0e246beb09cebd0374d718f03b96ae3c7c876","id":54105542,"location_subtype":"","month":"2017-01"},{"category":"burglary","location_type":"Force","location":{"latitude":"51.516127","street":{"id":956812,"name":"On or near Wigmore Street"},"longitude":"-0.150254"},"context":"","outcome_status":{"category":"Offender sent to prison","date":"2018-01"},"persistent_id":"37cf3fdb0e7632ecde26409c48d3b5fe7f78fba098a70b834db8b0144e4673ed","id":54105737,"location_subtype":"","month":"2017-01"},{"category":"burglary","location_type":"Force","location":{"latitude":"51.518964","street":{"id":960485,"name":"On or near New Cavendish Street"},"longitude":"-0.149390"},"context":"","outcome_status":{"category":"Investigation complete; no suspect identified","date":"2017-02"},"persistent_id":"49d1a6cc1313f8be4df7bd10f5e8e566d13994eb2011a0a5f9283548e3423ecb","id":54122085,"location_subtype":"","month":"2017-01"},{"category":"burglary","location_type":"Force","location":{"latitude":"51.521345","street":{"id":960491,"name":"On or near Harley Street"},"longitude":"-0.148068"},"context":"","outcome_status":{"category":"Investigation complete; no suspect identified","date":"2017-02"},"persistent_id":"ad113ecad6e925dc996434ccd78714a0e36c69f94b725c6b687fcbd095c3c640","id":54121589,"location_subtype":"","month":"2017-01"},{"category":"criminal-damage-arson","location_type":"Force","location":{"latitude":"51.516335","street":{"id":956382,"name":"On or near Cavendish Square"},"longitude":"-0.145749"},"context":"","outcome_status":{"category":"Investigation complete; no suspect identified","date":"2017-04"},"persistent_id":"8ea13143396d81eef8036fdcb8ddabe4a3bbbfaebf7c9a8057bd703225f9a00a","id":54123543,"location_subtype":"","month":"2017-01"},{"category":"criminal-damage-arson","location_type":"Force","location":{"latitude":"51.515886","street":{"id":956813,"name":"On or near Welbeck Street"},"longitude":"-0.148621"},"context":"","outcome_status":{"category":"Investigation complete; no suspect identified","date":"2017-10"},"persistent_id":"cb4094e7b0e5779debd98d4157c6894e17836746293deecc37a45131a881be4c","id":54112530,"location_subtype":"","month":"2017-01"},{"category":"criminal-damage-arson","location_type":"Force","location":{"latitude":"51.521656","street":{"id":960489,"name":"On or near Luxborough Street"},"longitude":"-0.154124"},"context":"","outcome_status":{"category":"Status update unavailable","date":"2017-05"},"persistent_id":"0b33e3b1e9608ddc6d30c96f61d6708f885271f215a48eb31e68568fde87c09c","id":54123149,"location_subtype":"","month":"2017-01"},{"category":"criminal-damage-arson","location_type":"Force","location":{"latitude":"51.514868","street":{"id":956803,"name":"On or near Parking Area"},"longitude":"-0.153101"},"context":"","outcome_status":{"category":"Offender given a caution","date":"2017-01"},"persistent_id":"4d0a3ec039f7a27b273175fe454f1b4000fc4bf9eb4ede293643abd91ea5bb5c","id":54122208,"location_subtype":"","month":"2017-01"},{"category":"criminal-damage-arson","location_type":"Force","location":{"latitude":"51.514868","street":{"id":956803,"name":"On or near Parking Area"},"longitude":"-0.153101"},"context":"","outcome_status":{"category":"Investigation complete; no suspect identified","date":"2017-02"},"persistent_id":"2ffe95f909fa1e6c705d1fe2ba06e415ab154b77b34a5c295a4f50d521dea09c","id":54129756,"location_subtype":"","month":"2017-01"},{"category":"criminal-damage-arson","location_type":"Force","location":{"latitude":"51.514724","street":{"id":956832,"name":"On or near Portman Mews South"},"longitude":"-0.155341"},"context":"","outcome_status":{"category":"Investigation complete; no suspect identified","date":"2017-01"},"persistent_id":"4f0246b15ef5db11a28f401fef1c72d903413e0b64eddcd81273e035d8268757","id":54121691,"location_subtype":"","month":"2017-01"},{"category":"criminal-damage-arson","location_type":"Force","location":{"latitude":"51.521729","street":{"id":960508,"name":"On or near Further\/higher Educational Building"},"longitude":"-0.157062"},"context":"","outcome_status":{"category":"Offender given conditional discharge","date":"2018-04"},"persistent_id":"d9582b9ed24dfbc8f691accc817a43fdae39f2a3f2e56d3f3e4af2073eaed5dd","id":54117219,"location_subtype":"","month":"2017-01"},{"category":"criminal-damage-arson","location_type":"Force","location":{"latitude":"51.517182","street":{"id":956893,"name":"On or near Wigmore Place"},"longitude":"-0.147012"},"context":"","outcome_status":{"category":"Investigation complete; no suspect identified","date":"2017-02"},"persistent_id":"78d7cc7881efc52c2c769a7c286aa010dba57428ec248c0e466f534847c2b865","id":54123357,"location_subtype":"","month":"2017-01"},{"category":"criminal-damage-arson","location_type":"Force","location":{"latitude":"51.518824","street":{"id":956920,"name":"On or near Further\/higher Educational Building"},"longitude":"-0.151918"},"context":"","outcome_status":{"category":"Status update unavailable","date":"2017-05"},"persistent_id":"0e1ef65d2af56c56a6d504ef358e48635eacaa025c41a93a30805f3f0e69f9fe","id":54113412,"location_subtype":"","month":"2017-01"},{"category":"drugs","location_type":"Force","location":{"latitude":"51.520655","street":{"id":960480,"name":"On or near Sherlock Mews"},"longitude":"-0.156240"},"context":"","outcome_status":{"category":"Offender given a drugs possession warning","date":"2017-03"},"persistent_id":"476a4a06e9c254df07762a8d2c0488bc41076707f3220edf7efc490c727cd747","id":54116551,"location_subtype":"","month":"2017-01"},{"category":"drugs","location_type":"Force","location":{"latitude":"51.520826","street":{"id":960724,"name":"On or near Hanson Street"},"longitude":"-0.140853"},"context":"","outcome_status":{"category":"Offender given a drugs possession warning","date":"2017-01"},"persistent_id":"7db998150d7892b50276325fc32293c412208f800bbe3a42e6f03c3b036850e6","id":54111920,"location_subtype":"","month":"2017-01"},{"category":"drugs","location_type":"Force","location":{"latitude":"51.515886","street":{"id":956813,"name":"On or near Welbeck Street"},"longitude":"-0.148621"},"context":"","outcome_status":{"category":"Offender given a drugs possession warning","date":"2017-01"},"persistent_id":"b6527bb2b8a4c7de015eecc5e83ca7144c7384f34662767f8d3814cff6aada96","id":54116553,"location_subtype":"","month":"2017-01"},{"category":"drugs","location_type":"Force","location":{"latitude":"51.516163","street":{"id":956856,"name":"On or near Duke's Mews"},"longitude":"-0.151939"},"context":"","outcome_status":{"category":"Offender given conditional discharge","date":"2017-02"},"persistent_id":"5e736a5dfaf854af9e192d00d6b2bd5f6a609d5b3ea19c5a83b10b6e8aae0765","id":54117808,"location_subtype":"","month":"2017-01"},{"category":"drugs","location_type":"Force","location":{"latitude":"51.514605","street":{"id":956883,"name":"On or near Shopping Area"},"longitude":"-0.150662"},"context":"","outcome_status":{"category":"Offender given a caution","date":"2017-01"},"persistent_id":"dcd994b8ce8b5f21c6390cb50740b7598b5b4c5e4a60f6a43c0cd2b3005fbd04","id":54105839,"location_subtype":"","month":"2017-01"},{"category":"drugs","location_type":"Force","location":{"latitude":"51.514983","street":{"id":956949,"name":"On or near Shopping Area"},"longitude":"-0.147822"},"context":"","outcome_status":{"category":"Offender otherwise dealt with","date":"2017-01"},"persistent_id":"4a3e099b557b903521fe4a37577556bf6eb22d52a34ba6c650e31cf7e9d030e4","id":54106807,"location_subtype":"","month":"2017-01"},{"category":"other-theft","location_type":"Force","location":{"latitude":"51.522023","street":{"id":960376,"name":"On or near Further\/higher Educational Building"},"longitude":"-0.154614"},"context":"","outcome_status":{"category":"Investigation complete; no suspect identified","date":"2017-01"},"persistent_id":"0f164df77c6414767594b3d1ca217effddbf3155c89192a4a9757530c6b2caa6","id":54107245,"location_subtype":"","month":"2017-01"},{"category":"other-theft","location_type":"Force","location":{"latitude":"51.516065","street":{"id":956822,"name":"On or near Seymour Mews"},"longitude":"-0.153701"},"context":"","outcome_status":{"category":"Investigation complete; no suspect identified","date":"2017-03"},"persistent_id":"e5b723796950d081650b2c33a8080318b248c2326f2b74fdbe4788af86deaa5b","id":54114101,"location_subtype":"","month":"2017-01"},{"category":"other-theft","location_type":"Force","location":{"latitude":"51.518552","street":{"id":956899,"name":"On or near Rodmarton Street"},"longitude":"-0.157464"},"context":"","outcome_status":{"category":"Investigation complete; no suspect identified","date":"2017-01"},"persistent_id":"60189a781b0edd6ff3c421f2a44e51a05bb83285432f60b0714baad7d6df3a80","id":54127135,"location_subtype":"","month":"2017-01"},{"category":"other-theft","location_type":"Force","location":{"latitude":"51.514709","street":{"id":956869,"name":"On or near Bird Street"},"longitude":"-0.150960"},"context":"","outcome_status":{"category":"Investigation complete; no suspect identified","date":"2017-01"},"persistent_id":"f6089e7bc353e1c207ad616c38adf05ee6aa7f90df54dd5cea90d696d201c9f8","id":54103139,"location_subtype":"","month":"2017-01"},{"category":"other-theft","location_type":"Force","location":{"latitude":"51.515065","street":{"id":956815,"name":"On or near Vere Street"},"longitude":"-0.147343"},"context":"","outcome_status":{"category":"Investigation complete; no suspect identified","date":"2017-01"},"persistent_id":"fe1c7fe5b0b78a967dbb8c67f610b72a008483163c6aba6b7100247980433bfa","id":54104889,"location_subtype":"","month":"2017-01"},{"category":"other-theft","location_type":"Force","location":{"latitude":"51.521964","street":{"id":960690,"name":"On or near Bolsover Street"},"longitude":"-0.142882"},"context":"","outcome_status":{"category":"Investigation complete; no suspect identified","date":"2017-01"},"persistent_id":"04bd6af98fd646fb760f9a3bb0967c08233e8e8d5b574c42a6705b3dedea8fc9","id":54105376,"location_subtype":"","month":"2017-01"},{"category":"other-theft","location_type":"Force","location":{"latitude":"51.521580","street":{"id":960481,"name":"On or near Porter Street"},"longitude":"-0.156736"},"context":"","outcome_status":{"category":"Investigation complete; no suspect identified","date":"2017-01"},"persistent_id":"dc99418c59bbb99fedcaf890d3b34b45d27bb64bdadc09c44f9b2f5d67130dbf","id":54107364,"location_subtype":"","month":"2017-01"},{"category":"other-theft","location_type":"Force","location":{"latitude":"51.514724","street":{"id":956832,"name":"On or near Portman Mews South"},"longitude":"-0.155341"},"context":"","outcome_status":{"category":"Investigation complete; no suspect identified","date":"2017-01"},"persistent_id":"4ca6f05a9fab9b79ee0c8b38b8080c81a87043c0208418421f53eda3df5cfb75","id":54111648,"location_subtype":"","month":"2017-01"},{"category":"other-theft","location_type":"Force","location":{"latitude":"51.514724","street":{"id":956832,"name":"On or near Portman Mews South"},"longitude":"-0.155341"},"context":"","outcome_status":{"category":"Investigation complete; no suspect identified","date":"2017-01"},"persistent_id":"236534e63f37fd8b6be6fbcb304704253d8ef5a3b7610cb8c44eac51c9ebf412","id":54113745,"location_subtype":"","month":"2017-01"},{"category":"other-theft","location_type":"Force","location":{"latitude":"51.523313","street":{"id":960647,"name":"On or near Warren Mews"},"longitude":"-0.141746"},"context":"","outcome_status":{"category":"Status update unavailable","date":"2017-05"},"persistent_id":"7c91469cbf78a47a9e237a0b8f0b2e8d68239c545c71e9466986143623d45c06","id":54157472,"location_subtype":"","month":"2017-01"},{"category":"other-theft","location_type":"Force","location":{"latitude":"51.514983","street":{"id":956949,"name":"On or near Shopping Area"},"longitude":"-0.147822"},"context":"","outcome_status":{"category":"Investigation complete; no suspect identified","date":"2017-01"},"persistent_id":"0bb4a39fe9efa13a87ebed1a8edb445756e0e1f1f53274231b211ef8a1a4e955","id":54108269,"location_subtype":"","month":"2017-01"},{"category":"other-theft","location_type":"Force","location":{"latitude":"51.514724","street":{"id":956832,"name":"On or near Portman Mews South"},"longitude":"-0.155341"},"context":"","outcome_status":{"category":"Investigation complete; no suspect identified","date":"2017-02"},"persistent_id":"81ebc9600dd715ada82060440fea4bff03bb1a99f093b18f7ba50f4370cb5c2e","id":54109019,"location_subtype":"","month":"2017-01"},{"category":"other-theft","location_type":"Force","location":{"latitude":"51.518552","street":{"id":956899,"name":"On or near Rodmarton Street"},"longitude":"-0.157464"},"context":"","outcome_status":{"category":"Status update unavailable","date":"2017-05"},"persistent_id":"2209f6d156304ce7ca30d96a445d98870566d5070dea53cc1c258dea3e93a48d","id":54099416,"location_subtype":"","month":"2017-01"},{"category":"other-theft","location_type":"Force","location":{"latitude":"51.518552","street":{"id":956899,"name":"On or near Rodmarton Street"},"longitude":"-0.157464"},"context":"","outcome_status":{"category":"Status update unavailable","date":"2017-05"},"persistent_id":"ce3623b4fc36ce1ca32e5b5f946b96f593ffb4ddd80b5fad3a2f9c3eba424626","id":54099365,"location_subtype":"","month":"2017-01"},{"category":"other-theft","location_type":"BTP","location":{"latitude":"51.523800","street":{"id":1488624,"name":"Great Portland Street (lu Station)"},"longitude":"-0.144004"},"context":"","outcome_status":{"category":"Status update unavailable","date":"2017-05"},"persistent_id":"","id":66347423,"location_subtype":"LU STATION","month":"2017-01"},{"category":"other-theft","location_type":"Force","location":{"latitude":"51.514341","street":{"id":956850,"name":"On or near Granville Place"},"longitude":"-0.155558"},"context":"","outcome_status":{"category":"Investigation complete; no suspect identified","date":"2017-02"},"persistent_id":"84f147d05c961a527e424701df7fdf538e61b87fbc5dffca0baa2e5d1a02891f","id":54100884,"location_subtype":"","month":"2017-01"},{"category":"other-theft","location_type":"Force","location":{"latitude":"51.523128","street":{"id":960360,"name":"On or near Marylebone Road"},"longitude":"-0.150533"},"context":"","outcome_status":{"category":"Status update unavailable","date":"2017-05"},"persistent_id":"3b7189be0291eb723cbf07f5e63d275fd41bc9bf14d8c9f6566fd13d291c5ffd","id":54101510,"location_subtype":"","month":"2017-01"},{"category":"other-theft","location_type":"Force","location":{"latitude":"51.515937","street":{"id":956830,"name":"On or near Portman Square"},"longitude":"-0.157022"},"context":"","outcome_status":{"category":"Status update unavailable","date":"2017-05"},"persistent_id":"954a64baaa30131d71dbc03350f5c0de831a8a6053ed25a63f3bb4adecb14a9a","id":54103131,"location_subtype":"","month":"2017-01"},{"category":"other-theft","location_type":"Force","location":{"latitude":"51.521729","street":{"id":960508,"name":"On or near Further\/higher Educational Building"},"longitude":"-0.157062"},"context":"","outcome_status":{"category":"Investigation complete; no suspect identified","date":"2017-02"},"persistent_id":"a9a14eaa5101b35eb583ea43be6f22d5cf7755e4c9c566ba98131025fb398fa2","id":54104922,"location_subtype":"","month":"2017-01"},{"category":"other-theft","location_type":"Force","location":{"latitude":"51.516163","street":{"id":956829,"name":"On or near Portman Square"},"longitude":"-0.155946"},"context":"","outcome_status":{"category":"Status update unavailable","date":"2017-05"},"persistent_id":"df557fef31ba66f4db507981159d9013e74db2a2d20c2c2e37b94e03f4c0c3ae","id":54105273,"location_subtype":"","month":"2017-01"},{"category":"other-theft","location_type":"Force","location":{"latitude":"51.523949","street":{"id":960618,"name":"On or near Euston Road"},"longitude":"-0.143883"},"context":"","outcome_status":{"category":"Status update unavailable","date":"2017-05"},"persistent_id":"02f4ee8162f2b7b8f1f5d59eb7460818ed26c7560425dac6ca84823ff4dfa15b","id":54105275,"location_subtype":"","month":"2017-01"},{"category":"other-theft","location_type":"Force","location":{"latitude":"51.520013","street":{"id":960492,"name":"On or near Garbutt Place"},"longitude":"-0.152576"},"context":"","outcome_status":{"category":"Investigation complete; no suspect identified","date":"2017-01"},"persistent_id":"e5cbd487b7ad9a12886f5d32a3054fe2d5d8bbf9d6e2c7476fca54a74da1344c","id":54105307,"location_subtype":"","month":"2017-01"},{"category":"other-theft","location_type":"Force","location":{"latitude":"51.522208","street":{"id":960366,"name":"On or near Devonshire Mews West"},"longitude":"-0.149186"},"context":"","outcome_status":{"category":"Investigation complete; no suspect identified","date":"2017-01"},"persistent_id":"a2acc65ff581d82236b92bf7d5d6907067167597bcab261953fe0c308639091f","id":54104728,"location_subtype":"","month":"2017-01"},{"category":"other-theft","location_type":"Force","location":{"latitude":"51.519358","street":{"id":960487,"name":"On or near Marylebone Street"},"longitude":"-0.150988"},"context":"","outcome_status":{"category":"Status update unavailable","date":"2017-05"},"persistent_id":"203a29aa7006ae402feb45623b8079b5d4bba6dfa8b8288a897cd062e7d45c25","id":54105237,"location_subtype":"","month":"2017-01"},{"category":"other-theft","location_type":"Force","location":{"latitude":"51.514983","street":{"id":956949,"name":"On or near Shopping Area"},"longitude":"-0.147822"},"context":"","outcome_status":{"category":"Investigation complete; no suspect identified","date":"2017-01"},"persistent_id":"cb42d38c48f1f791e4d86aa1240f9a9030b089edf3c2391e9357da1d2ad49b07","id":54104911,"location_subtype":"","month":"2017-01"},{"category":"other-theft","location_type":"Force","location":{"latitude":"51.514862","street":{"id":956819,"name":"On or near Stratford Place"},"longitude":"-0.149297"},"context":"","outcome_status":{"category":"Investigation complete; no suspect identified","date":"2017-01"},"persistent_id":"d1e39a525f1cc718524440984519dcb5e7abc93511f188459ee5d9c5a00d476a","id":54104919,"location_subtype":"","month":"2017-01"},{"category":"other-theft","location_type":"Force","location":{"latitude":"51.514983","street":{"id":956949,"name":"On or near Shopping Area"},"longitude":"-0.147822"},"context":"","outcome_status":{"category":"Investigation complete; no suspect identified","date":"2017-03"},"persistent_id":"fa06d2944c552fec681b5bcbe4b78ec42b68de3de4c73a51e04835f8feb1cded","id":54105686,"location_subtype":"","month":"2017-01"},{"category":"other-theft","location_type":"Force","location":{"latitude":"51.521940","street":{"id":960362,"name":"On or near Marylebone High Street"},"longitude":"-0.151619"},"context":"","outcome_status":{"category":"Status update unavailable","date":"2017-05"},"persistent_id":"285e0deab8ff76cba275c1186ce185a9bad4535009d75c430bdb53f6ec51bd63","id":54105389,"location_subtype":"","month":"2017-01"},{"category":"other-theft","location_type":"Force","location":{"latitude":"51.514341","street":{"id":956850,"name":"On or near Granville Place"},"longitude":"-0.155558"},"context":"","outcome_status":{"category":"Status update unavailable","date":"2017-05"},"persistent_id":"64bb72b6a78e036bd4b1380e4e73e358b2ee4754b41a3d43543a854ec77fb560","id":54105444,"location_subtype":"","month":"2017-01"},{"category":"other-theft","location_type":"Force","location":{"latitude":"51.522023","street":{"id":960376,"name":"On or near Further\/higher Educational Building"},"longitude":"-0.154614"},"context":"","outcome_status":{"category":"Investigation complete; no suspect identified","date":"2017-04"},"persistent_id":"80b7aedda8c29be8d08e3344a869bd9f406bf34190db3092caab7b9384b1e2bb","id":54107377,"location_subtype":"","month":"2017-01"},{"category":"other-theft","location_type":"Force","location":{"latitude":"51.520013","street":{"id":960492,"name":"On or near Garbutt Place"},"longitude":"-0.152576"},"context":"","outcome_status":{"category":"Investigation complete; no suspect identified","date":"2017-01"},"persistent_id":"2aeb0d7e974de3ecf0378976d6566f8d845d5018d5b9713f14dab387087b18cc","id":54107129,"location_subtype":"","month":"2017-01"},{"category":"other-theft","location_type":"Force","location":{"latitude":"51.520013","street":{"id":960492,"name":"On or near Garbutt Place"},"longitude":"-0.152576"},"context":"","outcome_status":{"category":"Investigation complete; no suspect identified","date":"2017-01"},"persistent_id":"e44f454541181359e0cca9add97afe767fafe7b9fd8321e42b4b76676908d6d8","id":54107044,"location_subtype":"","month":"2017-01"},{"category":"other-theft","location_type":"Force","location":{"latitude":"51.514341","street":{"id":956850,"name":"On or near Granville Place"},"longitude":"-0.155558"},"context":"","outcome_status":{"category":"Status update unavailable","date":"2017-05"},"persistent_id":"7f0f91f211e4a9f1fb68aa421224fe5889eafb2ddd06211f7fa533353b02f5cc","id":54107385,"location_subtype":"","month":"2017-01"},{"category":"other-theft","location_type":"Force","location":{"latitude":"51.514341","street":{"id":956850,"name":"On or near Granville Place"},"longitude":"-0.155558"},"context":"","outcome_status":{"category":"Investigation complete; no suspect identified","date":"2017-02"},"persistent_id":"3b67898ef227f06e947794f25d3d3fb16f8f25f3a8050610bc853464b10a96af","id":54108055,"location_subtype":"","month":"2017-01"},{"category":"other-theft","location_type":"Force","location":{"latitude":"51.514868","street":{"id":956803,"name":"On or near Parking Area"},"longitude":"-0.153101"},"context":"","outcome_status":{"category":"Investigation complete; no suspect identified","date":"2017-03"},"persistent_id":"a664c418c169e7605035f19c22f7c908fc9475299921f147dd49384b161d2715","id":54109226,"location_subtype":"","month":"2017-01"},{"category":"other-theft","location_type":"Force","location":{"latitude":"51.515127","street":{"id":956845,"name":"On or near James Street"},"longitude":"-0.150684"},"context":"","outcome_status":{"category":"Investigation complete; no suspect identified","date":"2017-03"},"persistent_id":"32dc4997b3266a1d0fa35f36800de14fb5d8f4e8933170a41b36da51b0c75d58","id":54109267,"location_subtype":"","month":"2017-01"},{"category":"other-theft","location_type":"Force","location":{"latitude":"51.522940","street":{"id":960668,"name":"On or near Greenwell Street"},"longitude":"-0.142612"},"context":"","outcome_status":{"category":"Investigation complete; no suspect identified","date":"2017-02"},"persistent_id":"3e044d50c6036841482e3b3f3080b1a8972f0f4dbeea7bff63b210d02ad470f0","id":54109445,"location_subtype":"","month":"2017-01"},{"category":"other-theft","location_type":"Force","location":{"latitude":"51.521078","street":{"id":960730,"name":"On or near Clipstone Street"},"longitude":"-0.141463"},"context":"","outcome_status":{"category":"Investigation complete; no suspect identified","date":"2017-01"},"persistent_id":"1652e54908a34457511fb788ac00e65260a8edcc3e3517a7089710cb6166fd9a","id":54130097,"location_subtype":"","month":"2017-01"},{"category":"other-theft","location_type":"Force","location":{"latitude":"51.514868","street":{"id":956803,"name":"On or near Parking Area"},"longitude":"-0.153101"},"context":"","outcome_status":{"category":"Investigation complete; no suspect identified","date":"2017-01"},"persistent_id":"f94b3630426dfcbc208309bd33ee14805fba8b0a32a2ea9c8eb6914a59727ff1","id":54110494,"location_subtype":"","month":"2017-01"},{"category":"other-theft","location_type":"Force","location":{"latitude":"51.514724","street":{"id":956832,"name":"On or near Portman Mews South"},"longitude":"-0.155341"},"context":"","outcome_status":{"category":"Investigation complete; no suspect identified","date":"2017-01"},"persistent_id":"0f7a8ed5ce98ca9adca86fc1ac453317c2f4aaac886fe3deda84bbdac66533e1","id":54110756,"location_subtype":"","month":"2017-01"},{"category":"other-theft","location_type":"Force","location":{"latitude":"51.514862","street":{"id":956819,"name":"On or near Stratford Place"},"longitude":"-0.149297"},"context":"","outcome_status":{"category":"Status update unavailable","date":"2017-05"},"persistent_id":"c7f517afc5ea1dde8c24ac3b365ef0da55f9f84267b06df06d307f2a1066252b","id":54112046,"location_subtype":"","month":"2017-01"},{"category":"other-theft","location_type":"Force","location":{"latitude":"51.515886","street":{"id":956813,"name":"On or near Welbeck Street"},"longitude":"-0.148621"},"context":"","outcome_status":{"category":"Status update unavailable","date":"2017-05"},"persistent_id":"1494b1aaa4c5c99a2fc07f1a760488f7573247486ebcfff4b39856a77b25be6a","id":54112904,"location_subtype":"","month":"2017-01"},{"category":"other-theft","location_type":"Force","location":{"latitude":"51.515886","street":{"id":956813,"name":"On or near Welbeck Street"},"longitude":"-0.148621"},"context":"","outcome_status":{"category":"Investigation complete; no suspect identified","date":"2017-03"},"persistent_id":"1494b1aaa4c5c99a2fc07f1a760488f7573247486ebcfff4b39856a77b25be6a","id":54112905,"location_subtype":"","month":"2017-01"},{"category":"other-theft","location_type":"Force","location":{"latitude":"51.514868","street":{"id":956803,"name":"On or near Parking Area"},"longitude":"-0.153101"},"context":"","outcome_status":{"category":"Investigation complete; no suspect identified","date":"2017-01"},"persistent_id":"c91a773f8fbb4f8058e49c078a6e462a2c00540f4e3b642ee0c9cc3a80c7a803","id":54113442,"location_subtype":"","month":"2017-01"},{"category":"other-theft","location_type":"Force","location":{"latitude":"51.518145","street":{"id":956912,"name":"On or near Bulstrode Place"},"longitude":"-0.150461"},"context":"","outcome_status":{"category":"Status update unavailable","date":"2017-05"},"persistent_id":"552ee73d479d70501d870d6b8ce95caf85f5fa8fd914bb0f1c2b59f4e1656a04","id":54113060,"location_subtype":"","month":"2017-01"},{"category":"other-theft","location_type":"Force","location":{"latitude":"51.514868","street":{"id":956803,"name":"On or near Parking Area"},"longitude":"-0.153101"},"context":"","outcome_status":{"category":"Investigation complete; no suspect identified","date":"2017-02"},"persistent_id":"9bdb9e976d1e6b399d59459db24ea4832b61c7fe40fd4f4926b580b97208ccaa","id":54113843,"location_subtype":"","month":"2017-01"},{"category":"other-theft","location_type":"Force","location":{"latitude":"51.514724","street":{"id":956832,"name":"On or near Portman Mews South"},"longitude":"-0.155341"},"context":"","outcome_status":{"category":"Investigation complete; no suspect identified","date":"2017-03"},"persistent_id":"e1b5711eb985946438f8ecf11800f4964506fd5d800555e488bc8a706633f39c","id":54113645,"location_subtype":"","month":"2017-01"},{"category":"other-theft","location_type":"Force","location":{"latitude":"51.514988","street":{"id":956881,"name":"On or near Nightclub"},"longitude":"-0.151540"},"context":"","outcome_status":{"category":"Investigation complete; no suspect identified","date":"2017-02"},"persistent_id":"4f377bbf72b699fa586231a57d7c09c47fec87060f6f5e2cf6cedbe09d49b602","id":54114041,"location_subtype":"","month":"2017-01"},{"category":"other-theft","location_type":"Force","location":{"latitude":"51.514341","street":{"id":956850,"name":"On or near Granville Place"},"longitude":"-0.155558"},"context":"","outcome_status":{"category":"Investigation complete; no suspect identified","date":"2017-02"},"persistent_id":"e80a0981a10c0ae760e19daef0f5fa5401b3bfd4768b76a2f90137d4232c1e4d","id":54114046,"location_subtype":"","month":"2017-01"},{"category":"other-theft","location_type":"Force","location":{"latitude":"51.514868","street":{"id":956803,"name":"On or near Parking Area"},"longitude":"-0.153101"},"context":"","outcome_status":{"category":"Offender given a caution","date":"2017-01"},"persistent_id":"9356fe81f070e7d565620826892a703a96bbf185edc1c799a4f941f16d4e7ef9","id":54114127,"location_subtype":"","month":"2017-01"},{"category":"other-theft","location_type":"Force","location":{"latitude":"51.516065","street":{"id":956822,"name":"On or near Seymour Mews"},"longitude":"-0.153701"},"context":"","outcome_status":{"category":"Investigation complete; no suspect identified","date":"2017-02"},"persistent_id":"1404f776ec87f5e69fb60729d33ffd415b3ac203d1cda5f1964b57d703037d09","id":54114202,"location_subtype":"","month":"2017-01"},{"category":"other-theft","location_type":"Force","location":{"latitude":"51.518145","street":{"id":956912,"name":"On or near Bulstrode Place"},"longitude":"-0.150461"},"context":"","outcome_status":{"category":"Status update unavailable","date":"2017-05"},"persistent_id":"23c6a3bbdb4e069c83f1f9bca00342dbb1d71f64f26f084023e998168630d584","id":54114865,"location_subtype":"","month":"2017-01"},{"category":"other-theft","location_type":"Force","location":{"latitude":"51.516920","street":{"id":956908,"name":"On or near Hinde Street"},"longitude":"-0.151447"},"context":"","outcome_status":{"category":"Investigation complete; no suspect identified","date":"2017-02"},"persistent_id":"a53d7671d713d2fd2e6354818b70e040ae3381547fba6a7852e97f0b776859f3","id":54114871,"location_subtype":"","month":"2017-01"},{"category":"other-theft","location_type":"Force","location":{"latitude":"51.514868","street":{"id":956803,"name":"On or near Parking Area"},"longitude":"-0.153101"},"context":"","outcome_status":{"category":"Investigation complete; no suspect identified","date":"2017-02"},"persistent_id":"043d67726505ead24a989980276764a670b645253a7845ec2507de3afc9f5966","id":54115476,"location_subtype":"","month":"2017-01"},{"category":"other-theft","location_type":"Force","location":{"latitude":"51.516335","street":{"id":956382,"name":"On or near Cavendish Square"},"longitude":"-0.145749"},"context":"","outcome_status":{"category":"Status update unavailable","date":"2017-05"},"persistent_id":"cde69ea1d1124cfb92b9c1cc59ade937ac2bc510e92a9006247903ee53bff000","id":54117170,"location_subtype":"","month":"2017-01"},{"category":"other-theft","location_type":"Force","location":{"latitude":"51.518145","street":{"id":956912,"name":"On or near Bulstrode Place"},"longitude":"-0.150461"},"context":"","outcome_status":{"category":"Status update unavailable","date":"2017-05"},"persistent_id":"da1fdec73d1b1bc5285dfeb1d8b8a3936f9e442193069b105d04d921586da949","id":54117192,"location_subtype":"","month":"2017-01"},{"category":"other-theft","location_type":"Force","location":{"latitude":"51.521580","street":{"id":960481,"name":"On or near Porter Street"},"longitude":"-0.156736"},"context":"","outcome_status":{"category":"Status update unavailable","date":"2017-05"},"persistent_id":"b897b2861220cf7d44e6ff092ba3819220fb47a78f5beb6b602eedc561e33ec4","id":54117329,"location_subtype":"","month":"2017-01"},{"category":"other-theft","location_type":"Force","location":{"latitude":"51.521306","street":{"id":960484,"name":"On or near Nottingham Street"},"longitude":"-0.153057"},"context":"","outcome_status":{"category":"Status update unavailable","date":"2017-05"},"persistent_id":"c709a3bc181b0585ccb7c1dc1ef99d42130217651cb17fcdfa41c9b790712d14","id":54117598,"location_subtype":"","month":"2017-01"},{"category":"other-theft","location_type":"Force","location":{"latitude":"51.514868","street":{"id":956803,"name":"On or near Parking Area"},"longitude":"-0.153101"},"context":"","outcome_status":{"category":"Investigation complete; no suspect identified","date":"2017-10"},"persistent_id":"74f900774de163b00ee93e45e45f22ba0a0864122a3d0ff4ec4fc9af59565a5d","id":54118535,"location_subtype":"","month":"2017-01"},{"category":"other-theft","location_type":"Force","location":{"latitude":"51.522643","street":{"id":960602,"name":"On or near Parking Area"},"longitude":"-0.144902"},"context":"","outcome_status":{"category":"Status update unavailable","date":"2017-05"},"persistent_id":"620e05735fbb037dba0f00c47950da4c634df5dc69f67c8c3be2697daa95f776","id":54123423,"location_subtype":"","month":"2017-01"},{"category":"other-theft","location_type":"Force","location":{"latitude":"51.519424","street":{"id":960488,"name":"On or near Marylebone High Street"},"longitude":"-0.151749"},"context":"","outcome_status":{"category":"Status update unavailable","date":"2017-05"},"persistent_id":"16e76dd3aca3940a5e6cccbea0a76a81c167a7adcd865081cd8c712279343094","id":54124018,"location_subtype":"","month":"2017-01"},{"category":"other-theft","location_type":"Force","location":{"latitude":"51.522940","street":{"id":960668,"name":"On or near Greenwell Street"},"longitude":"-0.142612"},"context":"","outcome_status":{"category":"Investigation complete; no suspect identified","date":"2017-02"},"persistent_id":"b19d50ebf146fef3a5f082657a5f9640b2ecbf9eee090777e2618f2477b2d2e7","id":54125027,"location_subtype":"","month":"2017-01"},{"category":"other-theft","location_type":"Force","location":{"latitude":"51.521940","street":{"id":960362,"name":"On or near Marylebone High Street"},"longitude":"-0.151619"},"context":"","outcome_status":{"category":"Status update unavailable","date":"2017-05"},"persistent_id":"35c821381d411093e79780685ad7c27e7177c5726046318194d3ed4e49eba615","id":54126264,"location_subtype":"","month":"2017-01"},{"category":"other-theft","location_type":"Force","location":{"latitude":"51.515318","street":{"id":956858,"name":"On or near Duke Street"},"longitude":"-0.151944"},"context":"","outcome_status":{"category":"Investigation complete; no suspect identified","date":"2017-02"},"persistent_id":"6a5dde4026ffdc17e0e04e157787ecd4e53396cd221479903923e3d9c8fb9c13","id":54127224,"location_subtype":"","month":"2017-01"},{"category":"other-theft","location_type":"Force","location":{"latitude":"51.514341","street":{"id":956850,"name":"On or near Granville Place"},"longitude":"-0.155558"},"context":"","outcome_status":{"category":"Investigation complete; no suspect identified","date":"2017-02"},"persistent_id":"fa1f89f2990104b4b4c5a706f21e1518168857e245cd319ad696279c4059fd2c","id":54127043,"location_subtype":"","month":"2017-01"},{"category":"other-theft","location_type":"Force","location":{"latitude":"51.514397","street":{"id":956827,"name":"On or near Portman Street"},"longitude":"-0.156277"},"context":"","outcome_status":{"category":"Investigation complete; no suspect identified","date":"2017-03"},"persistent_id":"542df58525acac6202b111e737e08bee7e99471f20121597d6f3a6f7ef5dd5fe","id":54127116,"location_subtype":"","month":"2017-01"},{"category":"other-theft","location_type":"Force","location":{"latitude":"51.514862","street":{"id":956819,"name":"On or near Stratford Place"},"longitude":"-0.149297"},"context":"","outcome_status":{"category":"Investigation complete; no suspect identified","date":"2017-01"},"persistent_id":"8ca36457afc7590fb148d10ff1efe6f016f4243892cad9b16157beaa9181dbd0","id":54103715,"location_subtype":"","month":"2017-01"},{"category":"other-theft","location_type":"Force","location":{"latitude":"51.515065","street":{"id":956815,"name":"On or near Vere Street"},"longitude":"-0.147343"},"context":"","outcome_status":{"category":"Investigation complete; no suspect identified","date":"2017-01"},"persistent_id":"7d9821a63ceb6e43855c1ac46b34d7a08e2a66e5f4b480c45323cf497b724a22","id":54105363,"location_subtype":"","month":"2017-01"},{"category":"other-theft","location_type":"Force","location":{"latitude":"51.514868","street":{"id":956803,"name":"On or near Parking Area"},"longitude":"-0.153101"},"context":"","outcome_status":{"category":"Investigation complete; no suspect identified","date":"2017-01"},"persistent_id":"68bb77648c07805efd580e2688fb66f1a0d03b24ae06396103a67d408d8cffa8","id":54124702,"location_subtype":"","month":"2017-01"},{"category":"other-theft","location_type":"Force","location":{"latitude":"51.521729","street":{"id":960508,"name":"On or near Further\/higher Educational Building"},"longitude":"-0.157062"},"context":"","outcome_status":{"category":"Investigation complete; no suspect identified","date":"2017-04"},"persistent_id":"92bee3ff656f34c6fe41792fb5a7442404ad9e5b4903ce4a4d2fc67042274eea","id":54106360,"location_subtype":"","month":"2017-01"},{"category":"possession-of-weapons","location_type":"Force","location":{"latitude":"51.516466","street":{"id":956842,"name":"On or near Mandeville Place"},"longitude":"-0.151192"},"context":"","outcome_status":{"category":"Court result unavailable","date":"2018-03"},"persistent_id":"83ef51698db166d663e41b72ce83ba094a9bbc9e78342e79c6cb905fb8b016b2","id":54117135,"location_subtype":"","month":"2017-01"},{"category":"public-order","location_type":"Force","location":{"latitude":"51.517994","street":{"id":956793,"name":"On or near Gloucester Place Mews"},"longitude":"-0.158567"},"context":"","outcome_status":{"category":"Court result unavailable","date":"2017-07"},"persistent_id":"eea8f1298671ce507ae01eaf691c1c27260bfb40012fa722adc5a8cefb89e601","id":54113135,"location_subtype":"","month":"2017-01"},{"category":"public-order","location_type":"Force","location":{"latitude":"51.521078","street":{"id":960730,"name":"On or near Clipstone Street"},"longitude":"-0.141463"},"context":"","outcome_status":{"category":"Status update unavailable","date":"2017-05"},"persistent_id":"f2bd208261a9cde89a06973f4852886c8afff3bf5c05e8486a03b64d82ed07e9","id":54113938,"location_subtype":"","month":"2017-01"},{"category":"public-order","location_type":"Force","location":{"latitude":"51.518552","street":{"id":956899,"name":"On or near Rodmarton Street"},"longitude":"-0.157464"},"context":"","outcome_status":{"category":"Offender given community sentence","date":"2017-08"},"persistent_id":"7ea05eb1019d5107aacc853673edece126da37ed00a1b71b5398037d8439a43a","id":54107987,"location_subtype":"","month":"2017-01"},{"category":"public-order","location_type":"Force","location":{"latitude":"51.521920","street":{"id":960357,"name":"On or near Oldbury Place"},"longitude":"-0.152629"},"context":"","outcome_status":{"category":"Status update unavailable","date":"2017-05"},"persistent_id":"a8af1d148a9ce976d84ece883fb11279ba0e5a7ad25c254d64134626b72468ab","id":54113951,"location_subtype":"","month":"2017-01"},{"category":"public-order","location_type":"Force","location":{"latitude":"51.520140","street":{"id":960702,"name":"On or near Weymouth Mews"},"longitude":"-0.146358"},"context":"","outcome_status":{"category":"Offender given community sentence","date":"2017-05"},"persistent_id":"9d6afbb837270e35d06783c119e59a95ae48318a353e1e513e98c5de67fe0fb8","id":54112547,"location_subtype":"","month":"2017-01"},{"category":"public-order","location_type":"Force","location":{"latitude":"51.514868","street":{"id":956803,"name":"On or near Parking Area"},"longitude":"-0.153101"},"context":"","outcome_status":{"category":"Status update unavailable","date":"2017-05"},"persistent_id":"c8c68be1da2ea4bea10a64d6f1ac552bfc368a76b75ba8034f48db7dbea900c4","id":54104739,"location_subtype":"","month":"2017-01"},{"category":"robbery","location_type":"Force","location":{"latitude":"51.519671","street":{"id":960509,"name":"On or near Hospital"},"longitude":"-0.149736"},"context":"","outcome_status":{"category":"Investigation complete; no suspect identified","date":"2017-03"},"persistent_id":"5bcffe9a70ff13b35ca626e7a26c7cc99284ad7b32ad1d3a596fcc817048389b","id":54100398,"location_subtype":"","month":"2017-01"},{"category":"robbery","location_type":"Force","location":{"latitude":"51.516163","street":{"id":956829,"name":"On or near Portman Square"},"longitude":"-0.155946"},"context":"","outcome_status":{"category":"Status update unavailable","date":"2017-05"},"persistent_id":"b68f66d102e6b70a6d23c8360f0853c424d4738a34751449245164a4fb689875","id":54116776,"location_subtype":"","month":"2017-01"},{"category":"robbery","location_type":"Force","location":{"latitude":"51.515886","street":{"id":956813,"name":"On or near Welbeck Street"},"longitude":"-0.148621"},"context":"","outcome_status":{"category":"Investigation complete; no suspect identified","date":"2017-01"},"persistent_id":"eb214f338918c59ec29fedd8acbe9901cf871ea1e09769c4042c4bea5416e8a3","id":54113970,"location_subtype":"","month":"2017-01"},{"category":"robbery","location_type":"Force","location":{"latitude":"51.515886","street":{"id":956813,"name":"On or near Welbeck Street"},"longitude":"-0.148621"},"context":"","outcome_status":{"category":"Investigation complete; no suspect identified","date":"2017-02"},"persistent_id":"34724500af1e3a5c11c5ae5c90c918318fab1a4093910d78c2cf7a088d58abe6","id":54125076,"location_subtype":"","month":"2017-01"},{"category":"robbery","location_type":"Force","location":{"latitude":"51.515937","street":{"id":956830,"name":"On or near Portman Square"},"longitude":"-0.157022"},"context":"","outcome_status":{"category":"Investigation complete; no suspect identified","date":"2017-02"},"persistent_id":"683fd929c467e0b13604797aab402a8af122f283f67f6b9413a10968986d9e2e","id":54105492,"location_subtype":"","month":"2017-01"},{"category":"robbery","location_type":"Force","location":{"latitude":"51.514868","street":{"id":956803,"name":"On or near Parking Area"},"longitude":"-0.153101"},"context":"","outcome_status":{"category":"Investigation complete; no suspect identified","date":"2017-01"},"persistent_id":"ac40ea0a1134497450ec1ab6ef3e7c04e52ae0716604c23cb73432e7949c42ac","id":54125786,"location_subtype":"","month":"2017-01"},{"category":"robbery","location_type":"Force","location":{"latitude":"51.514983","street":{"id":956949,"name":"On or near Shopping Area"},"longitude":"-0.147822"},"context":"","outcome_status":{"category":"Investigation complete; no suspect identified","date":"2017-01"},"persistent_id":"93d61ed4f82d57b0a2126bd4c0a5c16946fd2bfb508f808a4315fb469970c09d","id":54125596,"location_subtype":"","month":"2017-01"},{"category":"robbery","location_type":"Force","location":{"latitude":"51.522940","street":{"id":960668,"name":"On or near Greenwell Street"},"longitude":"-0.142612"},"context":"","outcome_status":{"category":"Investigation complete; no suspect identified","date":"2017-02"},"persistent_id":"7f9cd1705617ca8813bbf8235c4b349f1d0dac8a06f816810302bfda26344f36","id":54115718,"location_subtype":"","month":"2017-01"},{"category":"shoplifting","location_type":"Force","location":{"latitude":"51.514868","street":{"id":956803,"name":"On or near Parking Area"},"longitude":"-0.153101"},"context":"","outcome_status":{"category":"Investigation complete; no suspect identified","date":"2017-02"},"persistent_id":"7d94c11fa6ca4600c7421cd5e9f14888be36cba0f91fe5c02bdc3d428334e901","id":54107531,"location_subtype":"","month":"2017-01"},{"category":"shoplifting","location_type":"Force","location":{"latitude":"51.515065","street":{"id":956815,"name":"On or near Vere Street"},"longitude":"-0.147343"},"context":"","outcome_status":{"category":"Offender sent to prison","date":"2017-01"},"persistent_id":"6ec0c3b948fa0ee806d6c04bc468cbb55e92e45c43973cf2f260bfc06f98833d","id":54111821,"location_subtype":"","month":"2017-01"},{"category":"shoplifting","location_type":"Force","location":{"latitude":"51.514983","street":{"id":956949,"name":"On or near Shopping Area"},"longitude":"-0.147822"},"context":"","outcome_status":{"category":"Status update unavailable","date":"2017-05"},"persistent_id":"e203f6aa067c60715e02fe2ed5fb16c135e809669b9f7cb1832ea71342770a3b","id":54104712,"location_subtype":"","month":"2017-01"},{"category":"shoplifting","location_type":"Force","location":{"latitude":"51.514868","street":{"id":956803,"name":"On or near Parking Area"},"longitude":"-0.153101"},"context":"","outcome_status":{"category":"Offender fined","date":"2017-01"},"persistent_id":"6ed223d75adf2f056f0a7d45ace6ff2157f7ad0e2886bf334452eb15aedc9686","id":54116258,"location_subtype":"","month":"2017-01"},{"category":"shoplifting","location_type":"Force","location":{"latitude":"51.514605","street":{"id":956883,"name":"On or near Shopping Area"},"longitude":"-0.150662"},"context":"","outcome_status":{"category":"Offender fined","date":"2017-06"},"persistent_id":"ff3bf10742623f87474a82efb12a95fdc168917acb99d57a9e62bfbc38460c9a","id":54103218,"location_subtype":"","month":"2017-01"},{"category":"shoplifting","location_type":"Force","location":{"latitude":"51.514724","street":{"id":956832,"name":"On or near Portman Mews South"},"longitude":"-0.155341"},"context":"","outcome_status":{"category":"Offender given suspended prison sentence","date":"2017-03"},"persistent_id":"c7874131d4a7a3c6405c7ae28c0f91b93fb2c4e06052a6cf39f6296210a6fa44","id":54128065,"location_subtype":"","month":"2017-01"},{"category":"shoplifting","location_type":"Force","location":{"latitude":"51.514983","street":{"id":956949,"name":"On or near Shopping Area"},"longitude":"-0.147822"},"context":"","outcome_status":{"category":"Offender given a caution","date":"2017-02"},"persistent_id":"204fff29aadae83855359eb5dbeb878e7168759dfda69166acfaa3c18169384d","id":54112774,"location_subtype":"","month":"2017-01"},{"category":"shoplifting","location_type":"Force","location":{"latitude":"51.514983","street":{"id":956949,"name":"On or near Shopping Area"},"longitude":"-0.147822"},"context":"","outcome_status":{"category":"Status update unavailable","date":"2017-05"},"persistent_id":"3d1e11343c82612d2b7f5322c2e65b26e8ca7b95e82e87b9661fcbc8647f5a0e","id":54119207,"location_subtype":"","month":"2017-01"},{"category":"shoplifting","location_type":"Force","location":{"latitude":"51.519439","street":{"id":960507,"name":"On or near Supermarket"},"longitude":"-0.152138"},"context":"","outcome_status":{"category":"Investigation complete; no suspect identified","date":"2017-01"},"persistent_id":"d0032a533fa97d73850f88bfb8b372a2bf4a4d0266fce12f1f5c0b2081dfbc61","id":54114964,"location_subtype":"","month":"2017-01"},{"category":"shoplifting","location_type":"Force","location":{"latitude":"51.514341","street":{"id":956850,"name":"On or near Granville Place"},"longitude":"-0.155558"},"context":"","outcome_status":{"category":"Court result unavailable","date":"2017-07"},"persistent_id":"5bd344a01dec5eae639a38a94f032713d61194a8977e1e4d8d407fe19749db9e","id":54106395,"location_subtype":"","month":"2017-01"},{"category":"shoplifting","location_type":"Force","location":{"latitude":"51.514868","street":{"id":956803,"name":"On or near Parking Area"},"longitude":"-0.153101"},"context":"","outcome_status":{"category":"Investigation complete; no suspect identified","date":"2017-06"},"persistent_id":"d55afc9637d8a3ac4f62a23fc37ce1ea4f1bd5cf1d0106706365b90d3df0779c","id":54112952,"location_subtype":"","month":"2017-01"},{"category":"shoplifting","location_type":"Force","location":{"latitude":"51.514868","street":{"id":956803,"name":"On or near Parking Area"},"longitude":"-0.153101"},"context":"","outcome_status":{"category":"Investigation complete; no suspect identified","date":"2017-08"},"persistent_id":"6c4580dfecf4cbae7c30fa81ce0dad3659f0bdefd4cf633af452f659b74b30c9","id":54115835,"location_subtype":"","month":"2017-01"},{"category":"shoplifting","location_type":"Force","location":{"latitude":"51.514341","street":{"id":956850,"name":"On or near Granville Place"},"longitude":"-0.155558"},"context":"","outcome_status":{"category":"Court result unavailable","date":"2017-07"},"persistent_id":"f0859f51af0a7075e87e1e82d7a1ba0264a37924530e60e9c376c0613183edf7","id":54105846,"location_subtype":"","month":"2017-01"},{"category":"shoplifting","location_type":"Force","location":{"latitude":"51.514605","street":{"id":956883,"name":"On or near Shopping Area"},"longitude":"-0.150662"},"context":"","outcome_status":{"category":"Status update unavailable","date":"2017-05"},"persistent_id":"ff3bf10742623f87474a82efb12a95fdc168917acb99d57a9e62bfbc38460c9a","id":54103217,"location_subtype":"","month":"2017-01"},{"category":"shoplifting","location_type":"Force","location":{"latitude":"51.514868","street":{"id":956803,"name":"On or near Parking Area"},"longitude":"-0.153101"},"context":"","outcome_status":{"category":"Investigation complete; no suspect identified","date":"2018-01"},"persistent_id":"c3e9e975f4ba29c4c5fa00b9bb9bf57a336e5796a7069bdb3099dd715714b569","id":54114562,"location_subtype":"","month":"2017-01"},{"category":"shoplifting","location_type":"Force","location":{"latitude":"51.514983","street":{"id":956949,"name":"On or near Shopping Area"},"longitude":"-0.147822"},"context":"","outcome_status":{"category":"Local resolution","date":"2017-03"},"persistent_id":"22a18b5faa2d2b106fdd338d5c04515f52629e9bc9daa334e0d28a4ff7cafeca","id":54115496,"location_subtype":"","month":"2017-01"},{"category":"shoplifting","location_type":"Force","location":{"latitude":"51.514983","street":{"id":956949,"name":"On or near Shopping Area"},"longitude":"-0.147822"},"context":"","outcome_status":{"category":"Offender given a caution","date":"2017-01"},"persistent_id":"95e6ec740b52b37f615ed0df1c57d935e62efbe43fe83840a35ad801d4bc0232","id":54114851,"location_subtype":"","month":"2017-01"},{"category":"shoplifting","location_type":"Force","location":{"latitude":"51.514868","street":{"id":956803,"name":"On or near Parking Area"},"longitude":"-0.153101"},"context":"","outcome_status":{"category":"Court result unavailable","date":"2017-09"},"persistent_id":"9635a58e6886815ebeb6ede8d740b32622afd103e0ca01120ae3849dc3875f26","id":54128138,"location_subtype":"","month":"2017-01"},{"category":"shoplifting","location_type":"Force","location":{"latitude":"51.514868","street":{"id":956803,"name":"On or near Parking Area"},"longitude":"-0.153101"},"context":"","outcome_status":{"category":"Investigation complete; no suspect identified","date":"2017-03"},"persistent_id":"17f3e78444a9e4b0fa143288aace37013bb08cf77cefec53b65f4c5b035e723b","id":54115083,"location_subtype":"","month":"2017-01"},{"category":"shoplifting","location_type":"Force","location":{"latitude":"51.514983","street":{"id":956949,"name":"On or near Shopping Area"},"longitude":"-0.147822"},"context":"","outcome_status":{"category":"Investigation complete; no suspect identified","date":"2017-08"},"persistent_id":"12c212a0b30ed061daad724416cb38df5dd47a108e07ddee862c1b8f884e528c","id":54106719,"location_subtype":"","month":"2017-01"},{"category":"shoplifting","location_type":"Force","location":{"latitude":"51.514983","street":{"id":956949,"name":"On or near Shopping Area"},"longitude":"-0.147822"},"context":"","outcome_status":{"category":"Offender given a caution","date":"2017-01"},"persistent_id":"dc826d5f5cd65ed9c18f37593ac3a520a5e52fbd64973899104550107bc84581","id":54115602,"location_subtype":"","month":"2017-01"},{"category":"shoplifting","location_type":"Force","location":{"latitude":"51.514724","street":{"id":956832,"name":"On or near Portman Mews South"},"longitude":"-0.155341"},"context":"","outcome_status":{"category":"Offender given a caution","date":"2017-01"},"persistent_id":"ca2daba4bad5d046c5ce354da3bfd8dcbff5cd043418d57509605e127ea896f0","id":54116426,"location_subtype":"","month":"2017-01"},{"category":"shoplifting","location_type":"Force","location":{"latitude":"51.514868","street":{"id":956803,"name":"On or near Parking Area"},"longitude":"-0.153101"},"context":"","outcome_status":{"category":"Court result unavailable","date":"2017-08"},"persistent_id":"0180fd3451ae8a96661783d0fb655021fb24c2efeec6498a73d9a66f10d7286b","id":54116449,"location_subtype":"","month":"2017-01"},{"category":"shoplifting","location_type":"Force","location":{"latitude":"51.517182","street":{"id":956893,"name":"On or near Wigmore Place"},"longitude":"-0.147012"},"context":"","outcome_status":{"category":"Investigation complete; no suspect identified","date":"2017-02"},"persistent_id":"59ced7bbdcfb5e51c25db11196ca27ca0c9366eb720f999667f1a6758e5d89c1","id":54115840,"location_subtype":"","month":"2017-01"},{"category":"shoplifting","location_type":"Force","location":{"latitude":"51.514868","street":{"id":956803,"name":"On or near Parking Area"},"longitude":"-0.153101"},"context":"","outcome_status":{"category":"Investigation complete; no suspect identified","date":"2017-03"},"persistent_id":"fe7066f6aa37113e610c7dfa234bc0ad3026bd8f3bc0cc7e85d0929801efed91","id":54103198,"location_subtype":"","month":"2017-01"},{"category":"shoplifting","location_type":"Force","location":{"latitude":"51.514868","street":{"id":956803,"name":"On or near Parking Area"},"longitude":"-0.153101"},"context":"","outcome_status":{"category":"Investigation complete; no suspect identified","date":"2017-01"},"persistent_id":"29027d78a7e6b67c556a468fcfaf6c506a89b5e757e34deb7b6d9542b1deab0f","id":54110208,"location_subtype":"","month":"2017-01"},{"category":"shoplifting","location_type":"Force","location":{"latitude":"51.514868","street":{"id":956803,"name":"On or near Parking Area"},"longitude":"-0.153101"},"context":"","outcome_status":{"category":"Investigation complete; no suspect identified","date":"2017-02"},"persistent_id":"533c4ce650938eecce01c2ff7bfdc8099041ba3a258204e272538db5d688d952","id":54116411,"location_subtype":"","month":"2017-01"},{"category":"shoplifting","location_type":"Force","location":{"latitude":"51.515065","street":{"id":956815,"name":"On or near Vere Street"},"longitude":"-0.147343"},"context":"","outcome_status":{"category":"Offender given suspended prison sentence","date":"2017-01"},"persistent_id":"7dd388230668f77026267919511f9728e1b06f68107fd4a25a5f8bbf21e56fee","id":54113112,"location_subtype":"","month":"2017-01"},{"category":"shoplifting","location_type":"Force","location":{"latitude":"51.519439","street":{"id":960507,"name":"On or near Supermarket"},"longitude":"-0.152138"},"context":"","outcome_status":{"category":"Status update unavailable","date":"2017-05"},"persistent_id":"14851b0b4b9c5fa53d3bfadd55943829d8730ed592eff843d4a6a39751709361","id":54101695,"location_subtype":"","month":"2017-01"},{"category":"shoplifting","location_type":"Force","location":{"latitude":"51.514605","street":{"id":956883,"name":"On or near Shopping Area"},"longitude":"-0.150662"},"context":"","outcome_status":{"category":"Offender given a caution","date":"2017-01"},"persistent_id":"b5731073295624aadc1430f617adfc81cb428672c458830e2875146d30643111","id":54109089,"location_subtype":"","month":"2017-01"},{"category":"shoplifting","location_type":"Force","location":{"latitude":"51.514983","street":{"id":956949,"name":"On or near Shopping Area"},"longitude":"-0.147822"},"context":"","outcome_status":{"category":"Offender given conditional discharge","date":"2017-10"},"persistent_id":"8c8b7926246a7130632e582c2d103297499632c0ed504d308c49a30643569482","id":54110087,"location_subtype":"","month":"2017-01"},{"category":"shoplifting","location_type":"Force","location":{"latitude":"51.516213","street":{"id":956841,"name":"On or near Marylebone Lane"},"longitude":"-0.149991"},"context":"","outcome_status":{"category":"Investigation complete; no suspect identified","date":"2017-03"},"persistent_id":"e6d5b5895129f874aa4a930977db3c7e1630652932f8118a00157c8f83ee8570","id":54101051,"location_subtype":"","month":"2017-01"},{"category":"shoplifting","location_type":"Force","location":{"latitude":"51.514868","street":{"id":956803,"name":"On or near Parking Area"},"longitude":"-0.153101"},"context":"","outcome_status":{"category":"Investigation complete; no suspect identified","date":"2017-03"},"persistent_id":"3d05ad29bafc22ff2427cd4b994284f340eb74b388fa365ddd130351c965e051","id":54117835,"location_subtype":"","month":"2017-01"},{"category":"shoplifting","location_type":"Force","location":{"latitude":"51.514868","street":{"id":956803,"name":"On or near Parking Area"},"longitude":"-0.153101"},"context":"","outcome_status":{"category":"Investigation complete; no suspect identified","date":"2017-02"},"persistent_id":"4e96a5fe5841ba5520583cad4cc165f57b525a8449b4949f4e592a1bc0d27009","id":54117834,"location_subtype":"","month":"2017-01"},{"category":"shoplifting","location_type":"Force","location":{"latitude":"51.514868","street":{"id":956803,"name":"On or near Parking Area"},"longitude":"-0.153101"},"context":"","outcome_status":{"category":"Investigation complete; no suspect identified","date":"2017-01"},"persistent_id":"9245d1688e4ebbd5a04cae8d50b4f256e5fd399548c1a2699f46e15903577066","id":54103127,"location_subtype":"","month":"2017-01"},{"category":"shoplifting","location_type":"Force","location":{"latitude":"51.514983","street":{"id":956949,"name":"On or near Shopping Area"},"longitude":"-0.147822"},"context":"","outcome_status":{"category":"Investigation complete; no suspect identified","date":"2017-02"},"persistent_id":"c8b61198bc6aec3fa6726a47a2cff51dc0bf279ff412ceabce9467bca51522ce","id":54099893,"location_subtype":"","month":"2017-01"},{"category":"shoplifting","location_type":"Force","location":{"latitude":"51.514983","street":{"id":956949,"name":"On or near Shopping Area"},"longitude":"-0.147822"},"context":"","outcome_status":{"category":"Status update unavailable","date":"2017-05"},"persistent_id":"53968a3047294b7fff9a29e4ec323a293931420fab2d5e501fff0e5f54c083ca","id":54099020,"location_subtype":"","month":"2017-01"},{"category":"shoplifting","location_type":"Force","location":{"latitude":"51.515065","street":{"id":956815,"name":"On or near Vere Street"},"longitude":"-0.147343"},"context":"","outcome_status":{"category":"Defendant found not guilty","date":"2017-03"},"persistent_id":"09df1694ee6818d020dec3dda01f268efcf80bf7ad72bf0523634564f3961607","id":54104721,"location_subtype":"","month":"2017-01"},{"category":"shoplifting","location_type":"Force","location":{"latitude":"51.514868","street":{"id":956803,"name":"On or near Parking Area"},"longitude":"-0.153101"},"context":"","outcome_status":{"category":"Investigation complete; no suspect identified","date":"2017-02"},"persistent_id":"3b732d483aaf6ccdb04b11bada74bcee3b0c75850e172988c95d3bfa3e794685","id":54106083,"location_subtype":"","month":"2017-01"},{"category":"shoplifting","location_type":"Force","location":{"latitude":"51.514868","street":{"id":956803,"name":"On or near Parking Area"},"longitude":"-0.153101"},"context":"","outcome_status":{"category":"Offender given community sentence","date":"2017-02"},"persistent_id":"4eab68af08f43b4a98a873f3ed0c7d91c0d9c7c1960f5556242e0f0a61ad87b6","id":54106453,"location_subtype":"","month":"2017-01"},{"category":"shoplifting","location_type":"Force","location":{"latitude":"51.514868","street":{"id":956803,"name":"On or near Parking Area"},"longitude":"-0.153101"},"context":"","outcome_status":{"category":"Investigation complete; no suspect identified","date":"2017-01"},"persistent_id":"2a43534ac8d744eab592e20a1268be46e2692f54341831778234e081875de5a5","id":54106451,"location_subtype":"","month":"2017-01"},{"category":"shoplifting","location_type":"Force","location":{"latitude":"51.515065","street":{"id":956815,"name":"On or near Vere Street"},"longitude":"-0.147343"},"context":"","outcome_status":{"category":"Investigation complete; no suspect identified","date":"2017-04"},"persistent_id":"d01196787797ee30220a961c68d2ceef5a3334fa8c25fac6dd53ba64753b88ad","id":54120496,"location_subtype":"","month":"2017-01"},{"category":"shoplifting","location_type":"Force","location":{"latitude":"51.516213","street":{"id":956841,"name":"On or near Marylebone Lane"},"longitude":"-0.149991"},"context":"","outcome_status":{"category":"Offender sent to prison","date":"2017-01"},"persistent_id":"3afbe6b3cf89bd4902cb2c3557ed5dd851707a22b1b94020443ccee3541157e5","id":54107533,"location_subtype":"","month":"2017-01"},{"category":"shoplifting","location_type":"Force","location":{"latitude":"51.514724","street":{"id":956832,"name":"On or near Portman Mews South"},"longitude":"-0.155341"},"context":"","outcome_status":{"category":"Offender sent to prison","date":"2017-01"},"persistent_id":"37e12db9b0610ff34244e679483b1c50e219c53e68d508e13c86252fceadccf0","id":54117837,"location_subtype":"","month":"2017-01"},{"category":"shoplifting","location_type":"Force","location":{"latitude":"51.514983","street":{"id":956949,"name":"On or near Shopping Area"},"longitude":"-0.147822"},"context":"","outcome_status":{"category":"Offender given penalty notice","date":"2017-01"},"persistent_id":"281bdd39a47c9fbe5450f803c9109c60138507b2845f6da593e67bbfe9a458c7","id":54125622,"location_subtype":"","month":"2017-01"},{"category":"shoplifting","location_type":"Force","location":{"latitude":"51.514983","street":{"id":956949,"name":"On or near Shopping Area"},"longitude":"-0.147822"},"context":"","outcome_status":{"category":"Offender given a caution","date":"2017-01"},"persistent_id":"2350493468a5eac14c1a407d918864da2ee5ee4b4ccee87802c0af8bd0adb45b","id":54114255,"location_subtype":"","month":"2017-01"},{"category":"shoplifting","location_type":"Force","location":{"latitude":"51.514724","street":{"id":956832,"name":"On or near Portman Mews South"},"longitude":"-0.155341"},"context":"","outcome_status":{"category":"Investigation complete; no suspect identified","date":"2017-08"},"persistent_id":"e835dffb642d0ab239085c17eb481e108dc94e51243f52b868cb113cad1bc6b3","id":54116914,"location_subtype":"","month":"2017-01"},{"category":"shoplifting","location_type":"Force","location":{"latitude":"51.519424","street":{"id":960488,"name":"On or near Marylebone High Street"},"longitude":"-0.151749"},"context":"","outcome_status":{"category":"Investigation complete; no suspect identified","date":"2017-02"},"persistent_id":"7413e13fe6923f2b011153ad4fd9eadefe155968487e3bb0d3205616e0fd2b37","id":54103725,"location_subtype":"","month":"2017-01"},{"category":"shoplifting","location_type":"Force","location":{"latitude":"51.514983","street":{"id":956949,"name":"On or near Shopping Area"},"longitude":"-0.147822"},"context":"","outcome_status":{"category":"Offender given conditional discharge","date":"2017-01"},"persistent_id":"cd506562a1449627a20f078314a6d687217edeb5afa7e1c388936e67bbaadc1b","id":54106542,"location_subtype":"","month":"2017-01"},{"category":"shoplifting","location_type":"Force","location":{"latitude":"51.516466","street":{"id":956842,"name":"On or near Mandeville Place"},"longitude":"-0.151192"},"context":"","outcome_status":{"category":"Investigation complete; no suspect identified","date":"2017-04"},"persistent_id":"436f2d8dea4aec8abc17b863a2114f3229e390026245cd2460dc212d7ec4be2f","id":54107579,"location_subtype":"","month":"2017-01"},{"category":"shoplifting","location_type":"Force","location":{"latitude":"51.514605","street":{"id":956883,"name":"On or near Shopping Area"},"longitude":"-0.150662"},"context":"","outcome_status":{"category":"Investigation complete; no suspect identified","date":"2017-03"},"persistent_id":"10fd01599cc3b23581a9994ea856d1b998b2df96aa7a9c92847b5017e37e98cf","id":54123983,"location_subtype":"","month":"2017-01"},{"category":"shoplifting","location_type":"Force","location":{"latitude":"51.519439","street":{"id":960507,"name":"On or near Supermarket"},"longitude":"-0.152138"},"context":"","outcome_status":{"category":"Investigation complete; no suspect identified","date":"2017-02"},"persistent_id":"ee9f1ae7ef5a002b88bcabc2530f4e635d48be2f4a8ca6bea8d05ef28172ff68","id":54123963,"location_subtype":"","month":"2017-01"},{"category":"shoplifting","location_type":"Force","location":{"latitude":"51.514724","street":{"id":956832,"name":"On or near Portman Mews South"},"longitude":"-0.155341"},"context":"","outcome_status":{"category":"Offender fined","date":"2017-03"},"persistent_id":"eb7298a2b7b1b627d1ffc024823456e12caa0525b6f3fd6b8d2030d20e0a2cbe","id":54114273,"location_subtype":"","month":"2017-01"},{"category":"shoplifting","location_type":"Force","location":{"latitude":"51.514868","street":{"id":956803,"name":"On or near Parking Area"},"longitude":"-0.153101"},"context":"","outcome_status":{"category":"Investigation complete; no suspect identified","date":"2017-03"},"persistent_id":"62a909c862a76492e584def2c5ed23996b6a75c4e92b07243556f36aa05d1bee","id":54106736,"location_subtype":"","month":"2017-01"},{"category":"shoplifting","location_type":"Force","location":{"latitude":"51.514983","street":{"id":956949,"name":"On or near Shopping Area"},"longitude":"-0.147822"},"context":"","outcome_status":{"category":"Offender sent to prison","date":"2017-02"},"persistent_id":"70c3f1cfa04758d9caab801f3b557333bb878f8641ca4ea15633577ba1108696","id":54102218,"location_subtype":"","month":"2017-01"},{"category":"shoplifting","location_type":"Force","location":{"latitude":"51.514868","street":{"id":956803,"name":"On or near Parking Area"},"longitude":"-0.153101"},"context":"","outcome_status":{"category":"Investigation complete; no suspect identified","date":"2017-01"},"persistent_id":"8bd2902b406947b2b0c549cfd95da00a50c5b605f7a92b6111159baa669249cb","id":54104900,"location_subtype":"","month":"2017-01"},{"category":"shoplifting","location_type":"Force","location":{"latitude":"51.514983","street":{"id":956949,"name":"On or near Shopping Area"},"longitude":"-0.147822"},"context":"","outcome_status":{"category":"Offender given a caution","date":"2017-01"},"persistent_id":"cb182b7fdb719905e308166b23a6fc205b8be17e9610b4d244d9450cd89d256a","id":54103130,"location_subtype":"","month":"2017-01"},{"category":"shoplifting","location_type":"Force","location":{"latitude":"51.514605","street":{"id":956883,"name":"On or near Shopping Area"},"longitude":"-0.150662"},"context":"","outcome_status":{"category":"Status update unavailable","date":"2017-05"},"persistent_id":"b5731073295624aadc1430f617adfc81cb428672c458830e2875146d30643111","id":54109087,"location_subtype":"","month":"2017-01"},{"category":"shoplifting","location_type":"Force","location":{"latitude":"51.514605","street":{"id":956883,"name":"On or near Shopping Area"},"longitude":"-0.150662"},"context":"","outcome_status":{"category":"Status update unavailable","date":"2017-05"},"persistent_id":"b5731073295624aadc1430f617adfc81cb428672c458830e2875146d30643111","id":54109088,"location_subtype":"","month":"2017-01"},{"category":"shoplifting","location_type":"Force","location":{"latitude":"51.514983","street":{"id":956949,"name":"On or near Shopping Area"},"longitude":"-0.147822"},"context":"","outcome_status":{"category":"Offender given a caution","date":"2017-01"},"persistent_id":"02ad6219a809725313a1267473b526588962dac4b787036a2b89a476845e412d","id":54109094,"location_subtype":"","month":"2017-01"},{"category":"shoplifting","location_type":"Force","location":{"latitude":"51.514983","street":{"id":956949,"name":"On or near Shopping Area"},"longitude":"-0.147822"},"context":"","outcome_status":{"category":"Offender given penalty notice","date":"2017-01"},"persistent_id":"9bab2679318cc02adb96bca7aed02763f49e986a08f3a2ea05960b6591e5e3e9","id":54105256,"location_subtype":"","month":"2017-01"},{"category":"shoplifting","location_type":"Force","location":{"latitude":"51.514983","street":{"id":956949,"name":"On or near Shopping Area"},"longitude":"-0.147822"},"context":"","outcome_status":{"category":"Status update unavailable","date":"2017-05"},"persistent_id":"1c1b9352b0c00c801ef286d8488e598372cd436fe6ca4070dd5de2f5cf3b1b1a","id":54105656,"location_subtype":"","month":"2017-01"},{"category":"shoplifting","location_type":"Force","location":{"latitude":"51.514983","street":{"id":956949,"name":"On or near Shopping Area"},"longitude":"-0.147822"},"context":"","outcome_status":{"category":"Status update unavailable","date":"2017-05"},"persistent_id":"5d7a94b3c7fa7376369e8234282189362adeb90b54fd9e8cb5ccd60da93bb348","id":54109973,"location_subtype":"","month":"2017-01"},{"category":"shoplifting","location_type":"Force","location":{"latitude":"51.514868","street":{"id":956803,"name":"On or near Parking Area"},"longitude":"-0.153101"},"context":"","outcome_status":{"category":"Investigation complete; no suspect identified","date":"2017-03"},"persistent_id":"0fdda7f4ea99d92c654f78672f7d2b339368b6dbc11641b8b7ee4ec877278844","id":54110097,"location_subtype":"","month":"2017-01"},{"category":"shoplifting","location_type":"Force","location":{"latitude":"51.514983","street":{"id":956949,"name":"On or near Shopping Area"},"longitude":"-0.147822"},"context":"","outcome_status":{"category":"Status update unavailable","date":"2017-05"},"persistent_id":"4a3e099b557b903521fe4a37577556bf6eb22d52a34ba6c650e31cf7e9d030e4","id":54104914,"location_subtype":"","month":"2017-01"},{"category":"shoplifting","location_type":"Force","location":{"latitude":"51.519439","street":{"id":960507,"name":"On or near Supermarket"},"longitude":"-0.152138"},"context":"","outcome_status":{"category":"Investigation complete; no suspect identified","date":"2017-02"},"persistent_id":"512fa792ec0239e518378386d6f09486e25deeeb12a75815a1282bae388d7411","id":54110733,"location_subtype":"","month":"2017-01"},{"category":"shoplifting","location_type":"Force","location":{"latitude":"51.514983","street":{"id":956949,"name":"On or near Shopping Area"},"longitude":"-0.147822"},"context":"","outcome_status":{"category":"Offender sent to prison","date":"2017-01"},"persistent_id":"d16e5c9f2b5cb87e375de94f5d5309c96f11c2c3bce251b099c7dd18459635a3","id":54112145,"location_subtype":"","month":"2017-01"},{"category":"shoplifting","location_type":"Force","location":{"latitude":"51.514983","street":{"id":956949,"name":"On or near Shopping Area"},"longitude":"-0.147822"},"context":"","outcome_status":{"category":"Offender given penalty notice","date":"2017-01"},"persistent_id":"e040f3282356ccb0f25ab99798868aff64d8035f6fe3bda7ec3037d7692a59a9","id":54105206,"location_subtype":"","month":"2017-01"},{"category":"shoplifting","location_type":"Force","location":{"latitude":"51.514868","street":{"id":956803,"name":"On or near Parking Area"},"longitude":"-0.153101"},"context":"","outcome_status":{"category":"Investigation complete; no suspect identified","date":"2017-02"},"persistent_id":"c92bf6cfdadd545284f9ae50f21fd5004d77756c4ee2642580bef14162ef0d4e","id":54103790,"location_subtype":"","month":"2017-01"},{"category":"shoplifting","location_type":"Force","location":{"latitude":"51.514868","street":{"id":956803,"name":"On or near Parking Area"},"longitude":"-0.153101"},"context":"","outcome_status":{"category":"Investigation complete; no suspect identified","date":"2017-03"},"persistent_id":"d8c199404934efcee8f4058c0ea95cf1371ea31b7b2772e570bc75a2fba1303d","id":54114181,"location_subtype":"","month":"2017-01"},{"category":"theft-from-the-person","location_type":"Force","location":{"latitude":"51.519439","street":{"id":960507,"name":"On or near Supermarket"},"longitude":"-0.152138"},"context":"","outcome_status":{"category":"Status update unavailable","date":"2017-05"},"persistent_id":"a3ec4dfdf0f98615d33110ecfb71aeee50755f344b8cfd72cedc7c79553fa828","id":54104374,"location_subtype":"","month":"2017-01"},{"category":"theft-from-the-person","location_type":"Force","location":{"latitude":"51.514862","street":{"id":956819,"name":"On or near Stratford Place"},"longitude":"-0.149297"},"context":"","outcome_status":{"category":"Investigation complete; no suspect identified","date":"2017-01"},"persistent_id":"6beb2a05672c3ee0018b74c0d62bcb241187d2816ee392975c03b54787c4f8d4","id":54103873,"location_subtype":"","month":"2017-01"},{"category":"theft-from-the-person","location_type":"Force","location":{"latitude":"51.521749","street":{"id":960616,"name":"On or near Great Portland Street"},"longitude":"-0.143497"},"context":"","outcome_status":{"category":"Status update unavailable","date":"2017-05"},"persistent_id":"b62a951dfef1b8f9a0fe3dd28279d21d8bfb1f48e6b616f802029196a5179cb3","id":54105950,"location_subtype":"","month":"2017-01"},{"category":"theft-from-the-person","location_type":"Force","location":{"latitude":"51.515065","street":{"id":956815,"name":"On or near Vere Street"},"longitude":"-0.147343"},"context":"","outcome_status":{"category":"Investigation complete; no suspect identified","date":"2017-02"},"persistent_id":"33b42e2f96d649a6cf680e14feb30c98eee45698d6d04a9d0ba2eff187a00a66","id":54126051,"location_subtype":"","month":"2017-01"},{"category":"theft-from-the-person","location_type":"Force","location":{"latitude":"51.519424","street":{"id":960488,"name":"On or near Marylebone High Street"},"longitude":"-0.151749"},"context":"","outcome_status":{"category":"Investigation complete; no suspect identified","date":"2017-03"},"persistent_id":"6d63f85216c7a9e439432eec3aa4fb262a45e82d8feea17f6bff2f595f55798d","id":54118947,"location_subtype":"","month":"2017-01"},{"category":"theft-from-the-person","location_type":"Force","location":{"latitude":"51.514868","street":{"id":956803,"name":"On or near Parking Area"},"longitude":"-0.153101"},"context":"","outcome_status":{"category":"Investigation complete; no suspect identified","date":"2017-01"},"persistent_id":"0ffcafdb548212b796eb5d2084e956ea5d62a1ec7afb94820b1aeb1848b34e26","id":54125353,"location_subtype":"","month":"2017-01"},{"category":"theft-from-the-person","location_type":"Force","location":{"latitude":"51.522424","street":{"id":960637,"name":"On or near Parking Area"},"longitude":"-0.142417"},"context":"","outcome_status":{"category":"Status update unavailable","date":"2017-05"},"persistent_id":"d3332fee64ecd25eb346d4bcf75e1b2fef0ce6e3216ea4524cda3b9b4aa67b37","id":54104933,"location_subtype":"","month":"2017-01"},{"category":"theft-from-the-person","location_type":"Force","location":{"latitude":"51.514868","street":{"id":956803,"name":"On or near Parking Area"},"longitude":"-0.153101"},"context":"","outcome_status":{"category":"Investigation complete; no suspect identified","date":"2017-02"},"persistent_id":"069667053c7b30009a532b767234b9f682729cd68900e8fd889b4269b860ea70","id":54118940,"location_subtype":"","month":"2017-01"},{"category":"theft-from-the-person","location_type":"Force","location":{"latitude":"51.514862","street":{"id":956819,"name":"On or near Stratford Place"},"longitude":"-0.149297"},"context":"","outcome_status":{"category":"Status update unavailable","date":"2017-05"},"persistent_id":"b73721cba87fb4addc217ab1d6e2baa3f343427132da44363c9570a8356bd3f6","id":54108490,"location_subtype":"","month":"2017-01"},{"category":"theft-from-the-person","location_type":"Force","location":{"latitude":"51.514868","street":{"id":956803,"name":"On or near Parking Area"},"longitude":"-0.153101"},"context":"","outcome_status":{"category":"Status update unavailable","date":"2017-05"},"persistent_id":"88e53bfb1598263a6353c2f5b1fd43ee33098b4527674abc0a35608648c06cc8","id":54108510,"location_subtype":"","month":"2017-01"},{"category":"theft-from-the-person","location_type":"Force","location":{"latitude":"51.514724","street":{"id":956832,"name":"On or near Portman Mews South"},"longitude":"-0.155341"},"context":"","outcome_status":{"category":"Investigation complete; no suspect identified","date":"2018-01"},"persistent_id":"ce50d8ee7863ea1215ce2f6093cbedafaf8dfabfc5359096f3a80291759d9ded","id":54114768,"location_subtype":"","month":"2017-01"},{"category":"theft-from-the-person","location_type":"Force","location":{"latitude":"51.515401","street":{"id":956886,"name":"On or near Shopping Area"},"longitude":"-0.153238"},"context":"","outcome_status":{"category":"Investigation complete; no suspect identified","date":"2017-02"},"persistent_id":"c84b19373add2ba7bc05efc1779e550ecbb694fc31fd7eef75038ece45112f19","id":54120928,"location_subtype":"","month":"2017-01"},{"category":"theft-from-the-person","location_type":"Force","location":{"latitude":"51.522420","street":{"id":960698,"name":"On or near Further\/higher Educational Building"},"longitude":"-0.140471"},"context":"","outcome_status":{"category":"Status update unavailable","date":"2017-05"},"persistent_id":"03dbb29f37e06c954405b1d7a1c10aef13e4a3e5a1d7ff902da5a500805e41fb","id":54157905,"location_subtype":"","month":"2017-01"},{"category":"theft-from-the-person","location_type":"Force","location":{"latitude":"51.514868","street":{"id":956803,"name":"On or near Parking Area"},"longitude":"-0.153101"},"context":"","outcome_status":{"category":"Investigation complete; no suspect identified","date":"2017-02"},"persistent_id":"88e53bfb1598263a6353c2f5b1fd43ee33098b4527674abc0a35608648c06cc8","id":54108511,"location_subtype":"","month":"2017-01"},{"category":"theft-from-the-person","location_type":"Force","location":{"latitude":"51.514868","street":{"id":956803,"name":"On or near Parking Area"},"longitude":"-0.153101"},"context":"","outcome_status":{"category":"Status update unavailable","date":"2017-05"},"persistent_id":"cbed9838a82851544c18309dfa819b5109623cf193b05a840243dc52296a977a","id":54114920,"location_subtype":"","month":"2017-01"},{"category":"theft-from-the-person","location_type":"Force","location":{"latitude":"51.523949","street":{"id":960618,"name":"On or near Euston Road"},"longitude":"-0.143883"},"context":"","outcome_status":{"category":"Status update unavailable","date":"2017-05"},