[{"category":"anti-social-behaviour","location_type":"Force","location":{"latitude":"51.480643","street":{"id":950269,"name":"On or near Farm Lane"},"longitude":"-0.198208"},"context":"","outcome_status":null,"persistent_id":"","id":54092974,"location_subtype":"","month":"2017-01"},{"category":"anti-social-behaviour","location_type":"Force","location":{"latitude":"51.481976","street":{"id":950268,"name":"On or near Farm Lane"},"longitude":"-0.196585"},"context":"","outcome_status":null,"persistent_id":"","id":54092958,"location_subtype":"","month":"2017-01"},{"category":"anti-social-behaviour","location_type":"Force","location":{"latitude":"51.480610","street":{"id":950306,"name":"On or near Palace Mews"},"longitude":"-0.201925"},"context":"","outcome_status":null,"persistent_id":"","id":54092987,"location_subtype":"","month":"2017-01"},{"category":"anti-social-behaviour","location_type":"Force","location":{"latitude":"51.483754","street":{"id":950238,"name":"On or near Halford Road"},"longitude":"-0.198172"},"context":"","outcome_status":null,"persistent_id":"","id":54092978,"location_subtype":"","month":"2017-01"},{"category":"anti-social-behaviour","location_type":"Force","location":{"latitude":"51.483754","street":{"id":950238,"name":"On or near Halford Road"},"longitude":"-0.198172"},"context":"","outcome_status":null,"persistent_id":"","id":54092977,"location_subtype":"","month":"2017-01"},{"category":"anti-social-behaviour","location_type":"Force","location":{"latitude":"51.480643","street":{"id":950269,"name":"On or near Farm Lane"},"longitude":"-0.198208"},"context":"","outcome_status":null,"persistent_id":"","id":54092976,"location_subtype":"","month":"2017-01"},{"category":"anti-social-behaviour","location_type":"Force","location":{"latitude":"51.480603","street":{"id":950263,"name":"On or near Jerdan Place"},"longitude":"-0.197374"},"context":"","outcome_status":null,"persistent_id":"","id":54092968,"location_subtype":"","month":"2017-01"},{"category":"anti-social-behaviour","location_type":"Force","location":{"latitude":"51.486396","street":{"id":950221,"name":"On or near Roxby Place"},"longitude":"-0.195691"},"context":"","outcome_status":null,"persistent_id":"","id":54092952,"location_subtype":"","month":"2017-01"},{"category":"anti-social-behaviour","location_type":"Force","location":{"latitude":"51.483656","street":{"id":950116,"name":"On or near Hugh Gaitskell Close"},"longitude":"-0.205838"},"context":"","outcome_status":null,"persistent_id":"","id":54093009,"location_subtype":"","month":"2017-01"},{"category":"anti-social-behaviour","location_type":"Force","location":{"latitude":"51.482068","street":{"id":950302,"name":"On or near Prothero Road"},"longitude":"-0.207859"},"context":"","outcome_status":null,"persistent_id":"","id":54093303,"location_subtype":"","month":"2017-01"},{"category":"anti-social-behaviour","location_type":"Force","location":{"latitude":"51.480318","street":{"id":950267,"name":"On or near Fulham Broadway"},"longitude":"-0.196939"},"context":"","outcome_status":null,"persistent_id":"","id":54092967,"location_subtype":"","month":"2017-01"},{"category":"anti-social-behaviour","location_type":"Force","location":{"latitude":"51.480318","street":{"id":950267,"name":"On or near Fulham Broadway"},"longitude":"-0.196939"},"context":"","outcome_status":null,"persistent_id":"","id":54092966,"location_subtype":"","month":"2017-01"},{"category":"anti-social-behaviour","location_type":"Force","location":{"latitude":"51.480318","street":{"id":950267,"name":"On or near Fulham Broadway"},"longitude":"-0.196939"},"context":"","outcome_status":null,"persistent_id":"","id":54092965,"location_subtype":"","month":"2017-01"},{"category":"anti-social-behaviour","location_type":"Force","location":{"latitude":"51.482081","street":{"id":950304,"name":"On or near Pellant Road"},"longitude":"-0.209874"},"context":"","outcome_status":null,"persistent_id":"","id":54093321,"location_subtype":"","month":"2017-01"},{"category":"anti-social-behaviour","location_type":"Force","location":{"latitude":"51.480318","street":{"id":950267,"name":"On or near Fulham Broadway"},"longitude":"-0.196939"},"context":"","outcome_status":null,"persistent_id":"","id":54092964,"location_subtype":"","month":"2017-01"},{"category":"anti-social-behaviour","location_type":"Force","location":{"latitude":"51.481000","street":{"id":950297,"name":"On or near Shorrolds Road"},"longitude":"-0.201549"},"context":"","outcome_status":null,"persistent_id":"","id":54092986,"location_subtype":"","month":"2017-01"},{"category":"anti-social-behaviour","location_type":"Force","location":{"latitude":"51.485621","street":{"id":950232,"name":"On or near Merrington Road"},"longitude":"-0.196802"},"context":"","outcome_status":null,"persistent_id":"","id":54092963,"location_subtype":"","month":"2017-01"},{"category":"anti-social-behaviour","location_type":"Force","location":{"latitude":"51.480318","street":{"id":950267,"name":"On or near Fulham Broadway"},"longitude":"-0.196939"},"context":"","outcome_status":null,"persistent_id":"","id":54092962,"location_subtype":"","month":"2017-01"},{"category":"anti-social-behaviour","location_type":"Force","location":{"latitude":"51.483827","street":{"id":950231,"name":"On or near Micklethwaite Road"},"longitude":"-0.195879"},"context":"","outcome_status":null,"persistent_id":"","id":54092953,"location_subtype":"","month":"2017-01"},{"category":"anti-social-behaviour","location_type":"Force","location":{"latitude":"51.483827","street":{"id":950231,"name":"On or near Micklethwaite Road"},"longitude":"-0.195879"},"context":"","outcome_status":null,"persistent_id":"","id":54092954,"location_subtype":"","month":"2017-01"},{"category":"anti-social-behaviour","location_type":"Force","location":{"latitude":"51.483827","street":{"id":950231,"name":"On or near Micklethwaite Road"},"longitude":"-0.195879"},"context":"","outcome_status":null,"persistent_id":"","id":54092955,"location_subtype":"","month":"2017-01"},{"category":"anti-social-behaviour","location_type":"Force","location":{"latitude":"51.480318","street":{"id":950267,"name":"On or near Fulham Broadway"},"longitude":"-0.196939"},"context":"","outcome_status":null,"persistent_id":"","id":54092961,"location_subtype":"","month":"2017-01"},{"category":"anti-social-behaviour","location_type":"Force","location":{"latitude":"51.483827","street":{"id":950231,"name":"On or near Micklethwaite Road"},"longitude":"-0.195879"},"context":"","outcome_status":null,"persistent_id":"","id":54092956,"location_subtype":"","month":"2017-01"},{"category":"anti-social-behaviour","location_type":"Force","location":{"latitude":"51.481151","street":{"id":950307,"name":"On or near Mirabel Road"},"longitude":"-0.204323"},"context":"","outcome_status":null,"persistent_id":"","id":54093008,"location_subtype":"","month":"2017-01"},{"category":"anti-social-behaviour","location_type":"Force","location":{"latitude":"51.480643","street":{"id":950269,"name":"On or near Farm Lane"},"longitude":"-0.198208"},"context":"","outcome_status":null,"persistent_id":"","id":54092975,"location_subtype":"","month":"2017-01"},{"category":"anti-social-behaviour","location_type":"Force","location":{"latitude":"51.481976","street":{"id":950268,"name":"On or near Farm Lane"},"longitude":"-0.196585"},"context":"","outcome_status":null,"persistent_id":"","id":54092957,"location_subtype":"","month":"2017-01"},{"category":"anti-social-behaviour","location_type":"Force","location":{"latitude":"51.485441","street":{"id":950224,"name":"On or near Ongar Road"},"longitude":"-0.197370"},"context":"","outcome_status":null,"persistent_id":"","id":54092969,"location_subtype":"","month":"2017-01"},{"category":"bicycle-theft","location_type":"Force","location":{"latitude":"51.485505","street":{"id":950196,"name":"On or near Parking Area"},"longitude":"-0.199140"},"context":"","outcome_status":{"category":"Status update unavailable","date":"2017-05"},"persistent_id":"7c470c005fcd7ea81be32698a307545e2187e3c9a7c9e936f45a0f74ef1af4c7","id":54107496,"location_subtype":"","month":"2017-01"},{"category":"bicycle-theft","location_type":"Force","location":{"latitude":"51.483889","street":{"id":950206,"name":"On or near Anselm Road"},"longitude":"-0.199347"},"context":"","outcome_status":{"category":"Status update unavailable","date":"2017-05"},"persistent_id":"c70eb2451330e55af205a506613ba9a9fb00f4e1eed0757e154e12b021c16a9c","id":54110537,"location_subtype":"","month":"2017-01"},{"category":"bicycle-theft","location_type":"Force","location":{"latitude":"51.484159","street":{"id":950189,"name":"On or near Supermarket"},"longitude":"-0.202289"},"context":"","outcome_status":{"category":"Investigation complete; no suspect identified","date":"2017-02"},"persistent_id":"edfcb1caf1c4fc3d71c764af3ea115c6e173989cc0756d4157ae370e21308c9e","id":54110568,"location_subtype":"","month":"2017-01"},{"category":"burglary","location_type":"Force","location":{"latitude":"51.485441","street":{"id":950224,"name":"On or near Ongar Road"},"longitude":"-0.197370"},"context":"","outcome_status":{"category":"Status update unavailable","date":"2017-05"},"persistent_id":"4bf07a1af9b804188224f414c237487480c72c6a937877f78f6ec6f5ed575499","id":54117641,"location_subtype":"","month":"2017-01"},{"category":"burglary","location_type":"Force","location":{"latitude":"51.483889","street":{"id":950206,"name":"On or near Anselm Road"},"longitude":"-0.199347"},"context":"","outcome_status":{"category":"Status update unavailable","date":"2017-05"},"persistent_id":"58460f22a732a42702569d594fd7a05713f543cd3b5cab15889f4aa894e30c7e","id":54105526,"location_subtype":"","month":"2017-01"},{"category":"burglary","location_type":"Force","location":{"latitude":"51.482068","street":{"id":950302,"name":"On or near Prothero Road"},"longitude":"-0.207859"},"context":"","outcome_status":{"category":"Investigation complete; no suspect identified","date":"2017-03"},"persistent_id":"dca270db1b04d906a9bb90144491ed2120195afd282de44f618db8e093193656","id":54112920,"location_subtype":"","month":"2017-01"},{"category":"burglary","location_type":"Force","location":{"latitude":"51.482905","street":{"id":950318,"name":"On or near Delaford Street"},"longitude":"-0.208474"},"context":"","outcome_status":{"category":"Status update unavailable","date":"2017-05"},"persistent_id":"9cd028afe1e9dabd613cd1f53f83e5e8ff60dfd410e9cfe440e72bbffb1cfd01","id":54109812,"location_subtype":"","month":"2017-01"},{"category":"burglary","location_type":"Force","location":{"latitude":"51.486457","street":{"id":950234,"name":"On or near Lillie Yard"},"longitude":"-0.197330"},"context":"","outcome_status":{"category":"Status update unavailable","date":"2017-05"},"persistent_id":"6cf986520633f5d0e9a31856298840246283250d804a366cb259c29829a98a84","id":54114931,"location_subtype":"","month":"2017-01"},{"category":"burglary","location_type":"Force","location":{"latitude":"51.486457","street":{"id":950234,"name":"On or near Lillie Yard"},"longitude":"-0.197330"},"context":"","outcome_status":{"category":"Status update unavailable","date":"2017-05"},"persistent_id":"6cf986520633f5d0e9a31856298840246283250d804a366cb259c29829a98a84","id":54114930,"location_subtype":"","month":"2017-01"},{"category":"burglary","location_type":"Force","location":{"latitude":"51.482272","street":{"id":950277,"name":"On or near Hospital"},"longitude":"-0.196502"},"context":"","outcome_status":{"category":"Status update unavailable","date":"2017-05"},"persistent_id":"a1d4fccd3e44c107b45d352fbe8155d792bb6f49bdb3fa9d0b68e5566ab7c7ec","id":54113781,"location_subtype":"","month":"2017-01"},{"category":"criminal-damage-arson","location_type":"Force","location":{"latitude":"51.480123","street":{"id":950272,"name":"On or near Argon Mews"},"longitude":"-0.197119"},"context":"","outcome_status":{"category":"Offender given penalty notice","date":"2017-01"},"persistent_id":"f68bbb3345c75f9d70b0e69438849c00fc2e5576a0f5b5b52fe771d2203e9f34","id":54111561,"location_subtype":"","month":"2017-01"},{"category":"criminal-damage-arson","location_type":"Force","location":{"latitude":"51.482929","street":{"id":950309,"name":"On or near Margaret Ingram Close"},"longitude":"-0.205924"},"context":"","outcome_status":{"category":"Investigation complete; no suspect identified","date":"2017-06"},"persistent_id":"51caa915edc1f2375c14ba20d0d80af4725818d0dd0647cbe84b7651be93ecd2","id":54107957,"location_subtype":"","month":"2017-01"},{"category":"criminal-damage-arson","location_type":"Force","location":{"latitude":"51.481639","street":{"id":950317,"name":"On or near Estcourt Road"},"longitude":"-0.207458"},"context":"","outcome_status":{"category":"Status update unavailable","date":"2017-05"},"persistent_id":"6a474caea5a1728a8d76d9918306a73edbb15f42d07fadffddcb315a72db1b30","id":54104331,"location_subtype":"","month":"2017-01"},{"category":"criminal-damage-arson","location_type":"Force","location":{"latitude":"51.482320","street":{"id":950300,"name":"On or near Rylston Road"},"longitude":"-0.206077"},"context":"","outcome_status":{"category":"Status update unavailable","date":"2017-05"},"persistent_id":"af8a0696f443af4a5da0eed3811df2cb30439ed88be8fd29d4ed824a217ed7fd","id":54107314,"location_subtype":"","month":"2017-01"},{"category":"criminal-damage-arson","location_type":"Force","location":{"latitude":"51.483102","street":{"id":950271,"name":"On or near Brompton Park Crescent"},"longitude":"-0.193200"},"context":"","outcome_status":{"category":"Investigation complete; no suspect identified","date":"2017-02"},"persistent_id":"77341a5cbad290f3930dfcd1fc6c95073c53bb63b7ed8cd1db6992a4b4a31cf1","id":54111021,"location_subtype":"","month":"2017-01"},{"category":"criminal-damage-arson","location_type":"Force","location":{"latitude":"51.480123","street":{"id":950272,"name":"On or near Argon Mews"},"longitude":"-0.197119"},"context":"","outcome_status":{"category":"Investigation complete; no suspect identified","date":"2017-03"},"persistent_id":"5e577679d69e87bc737c0364a50ac48270697f6af288cf02afdef6bad1928c8d","id":54115992,"location_subtype":"","month":"2017-01"},{"category":"criminal-damage-arson","location_type":"Force","location":{"latitude":"51.484159","street":{"id":950189,"name":"On or near Supermarket"},"longitude":"-0.202289"},"context":"","outcome_status":{"category":"Investigation complete; no suspect identified","date":"2017-01"},"persistent_id":"f33afd269e5e9e7772fdaeabe2223da480f88fe70ddf8431263335111b2d998d","id":54115433,"location_subtype":"","month":"2017-01"},{"category":"drugs","location_type":"Force","location":{"latitude":"51.482723","street":{"id":950287,"name":"On or near Armadale Road"},"longitude":"-0.199552"},"context":"","outcome_status":{"category":"Court result unavailable","date":"2017-07"},"persistent_id":"327d71296ebea84079234cb1287fc11e8909912ce49990bb2c3b325063530f30","id":54122728,"location_subtype":"","month":"2017-01"},{"category":"drugs","location_type":"Force","location":{"latitude":"51.484159","street":{"id":950189,"name":"On or near Supermarket"},"longitude":"-0.202289"},"context":"","outcome_status":{"category":"Offender fined","date":"2017-02"},"persistent_id":"385ecc6556445f99aab59c74cb3ce5f12136238e09b1da86bdfe5e0eb4390a04","id":54131847,"location_subtype":"","month":"2017-01"},{"category":"drugs","location_type":"Force","location":{"latitude":"51.481976","street":{"id":950268,"name":"On or near Farm Lane"},"longitude":"-0.196585"},"context":"","outcome_status":{"category":"Court result unavailable","date":"2017-08"},"persistent_id":"c74b9ee5c4bd3191193932c7083af4dddce489706db41f2c0b62326ee89975a0","id":54119717,"location_subtype":"","month":"2017-01"},{"category":"drugs","location_type":"Force","location":{"latitude":"51.481976","street":{"id":950268,"name":"On or near Farm Lane"},"longitude":"-0.196585"},"context":"","outcome_status":{"category":"Offender given a caution","date":"2017-01"},"persistent_id":"c0f0f150713c01676c3acc5534656a6f58c384ba28825b51343ffe47d0b74231","id":54120265,"location_subtype":"","month":"2017-01"},{"category":"drugs","location_type":"Force","location":{"latitude":"51.482929","street":{"id":950309,"name":"On or near Margaret Ingram Close"},"longitude":"-0.205924"},"context":"","outcome_status":{"category":"Offender given a caution","date":"2017-03"},"persistent_id":"2b9a3f747c02648df08e1c49ff3a16e5fe60db911fedd6aa29ba7293abb78080","id":54122357,"location_subtype":"","month":"2017-01"},{"category":"other-theft","location_type":"Force","location":{"latitude":"51.482272","street":{"id":950277,"name":"On or near Hospital"},"longitude":"-0.196502"},"context":"","outcome_status":{"category":"Status update unavailable","date":"2017-05"},"persistent_id":"0df02a584b9edb0860217fdbe7b42c75dc580f348098449119fdf23d8a717b70","id":54114287,"location_subtype":"","month":"2017-01"},{"category":"other-theft","location_type":"Force","location":{"latitude":"51.482905","street":{"id":950318,"name":"On or near Delaford Street"},"longitude":"-0.208474"},"context":"","outcome_status":{"category":"Investigation complete; no suspect identified","date":"2017-01"},"persistent_id":"00eb81a3ddd33a575d9fd3cd1b68f168a43e2d96080013be6fa53a15b88bc9f0","id":54115627,"location_subtype":"","month":"2017-01"},{"category":"other-theft","location_type":"Force","location":{"latitude":"51.480643","street":{"id":950269,"name":"On or near Farm Lane"},"longitude":"-0.198208"},"context":"","outcome_status":{"category":"Investigation complete; no suspect identified","date":"2017-01"},"persistent_id":"04cf84a7506538a3082397041850e5e04aca298f088ccfb0545eb4c60c327484","id":54105250,"location_subtype":"","month":"2017-01"},{"category":"other-theft","location_type":"Force","location":{"latitude":"51.480643","street":{"id":950269,"name":"On or near Farm Lane"},"longitude":"-0.198208"},"context":"","outcome_status":{"category":"Investigation complete; no suspect identified","date":"2017-01"},"persistent_id":"64191933e0a55f71aeee7358811122a42196f723e73bd519edc92ae56168fa4b","id":54117126,"location_subtype":"","month":"2017-01"},{"category":"other-theft","location_type":"Force","location":{"latitude":"51.481730","street":{"id":950290,"name":"On or near Supermarket"},"longitude":"-0.199893"},"context":"","outcome_status":{"category":"Offender given a caution","date":"2017-01"},"persistent_id":"f9b605d638cfd77e9caa226eea296a5dd9804a08c6b70a407a77565946bab294","id":54111258,"location_subtype":"","month":"2017-01"},{"category":"other-theft","location_type":"Force","location":{"latitude":"51.483102","street":{"id":950271,"name":"On or near Brompton Park Crescent"},"longitude":"-0.193200"},"context":"","outcome_status":{"category":"Status update unavailable","date":"2017-05"},"persistent_id":"ed6016c41c0b64896351ff2e72cb802e06743ac3db69eaa69a1cad28cbeb44aa","id":54115587,"location_subtype":"","month":"2017-01"},{"category":"other-theft","location_type":"Force","location":{"latitude":"51.480123","street":{"id":950272,"name":"On or near Argon Mews"},"longitude":"-0.197119"},"context":"","outcome_status":{"category":"Investigation complete; no suspect identified","date":"2017-06"},"persistent_id":"9304fb9de2a1500a785a2f6345243f36f1a9bdec9ed7524534395e530e295965","id":54110064,"location_subtype":"","month":"2017-01"},{"category":"other-theft","location_type":"Force","location":{"latitude":"51.485621","street":{"id":950232,"name":"On or near Merrington Road"},"longitude":"-0.196802"},"context":"","outcome_status":{"category":"Investigation complete; no suspect identified","date":"2017-11"},"persistent_id":"242e45bff694f674269186042dc2373faba0d47167b986593642d9b8c3c36567","id":54112617,"location_subtype":"","month":"2017-01"},{"category":"other-theft","location_type":"Force","location":{"latitude":"51.482313","street":{"id":950283,"name":"On or near Eustace Road"},"longitude":"-0.199193"},"context":"","outcome_status":{"category":"Status update unavailable","date":"2017-05"},"persistent_id":"70def1c1de65d34d586ede7d7535667f1044a88ea28942d31d1a818515ec9ed7","id":54114176,"location_subtype":"","month":"2017-01"},{"category":"other-theft","location_type":"Force","location":{"latitude":"51.482272","street":{"id":950277,"name":"On or near Hospital"},"longitude":"-0.196502"},"context":"","outcome_status":{"category":"Status update unavailable","date":"2017-05"},"persistent_id":"1c1a2ce3913cb75a60906f336e0dbbb1b78b7d03aa6547e3c24a560b17598573","id":54103615,"location_subtype":"","month":"2017-01"},{"category":"other-theft","location_type":"Force","location":{"latitude":"51.481976","street":{"id":950268,"name":"On or near Farm Lane"},"longitude":"-0.196585"},"context":"","outcome_status":{"category":"Status update unavailable","date":"2017-05"},"persistent_id":"4bac8c2d42120b70828b6c243548d228aaf6996d83bc2d066c9cfefa32d44f53","id":54139555,"location_subtype":"","month":"2017-01"},{"category":"other-theft","location_type":"Force","location":{"latitude":"51.482320","street":{"id":950300,"name":"On or near Rylston Road"},"longitude":"-0.206077"},"context":"","outcome_status":{"category":"Status update unavailable","date":"2017-05"},"persistent_id":"cf4173ff7e6b16bd521398af4d081118735523c4a1e83fe5b6e7dea409e39ea7","id":54108704,"location_subtype":"","month":"2017-01"},{"category":"public-order","location_type":"Force","location":{"latitude":"51.480610","street":{"id":950306,"name":"On or near Palace Mews"},"longitude":"-0.201925"},"context":"","outcome_status":{"category":"Investigation complete; no suspect identified","date":"2017-03"},"persistent_id":"bded4bf5eaa2f62d0dca44d76d3fda151e3fc3fde693084737b60c19d924289e","id":54113104,"location_subtype":"","month":"2017-01"},{"category":"public-order","location_type":"Force","location":{"latitude":"51.482723","street":{"id":950287,"name":"On or near Armadale Road"},"longitude":"-0.199552"},"context":"","outcome_status":{"category":"Offender sent to prison","date":"2017-01"},"persistent_id":"761af3ac44b36bb7d903a28c9b0e03510e73f38591cf82bf05297e95bee3a92f","id":54130159,"location_subtype":"","month":"2017-01"},{"category":"public-order","location_type":"Force","location":{"latitude":"51.482723","street":{"id":950287,"name":"On or near Armadale Road"},"longitude":"-0.199552"},"context":"","outcome_status":{"category":"Offender sent to prison","date":"2017-01"},"persistent_id":"236b3c321c2c53b6015d56e513535691c56f23e09768420befc92e510651df9a","id":54132212,"location_subtype":"","month":"2017-01"},{"category":"public-order","location_type":"Force","location":{"latitude":"51.482272","street":{"id":950277,"name":"On or near Hospital"},"longitude":"-0.196502"},"context":"","outcome_status":{"category":"Investigation complete; no suspect identified","date":"2017-01"},"persistent_id":"b1ba422a55a5f5d6da9e4b39c8e50d30f20e026f76f51fa46825523769f9b40f","id":54125074,"location_subtype":"","month":"2017-01"},{"category":"public-order","location_type":"Force","location":{"latitude":"51.480516","street":{"id":950320,"name":"On or near Dawes Road"},"longitude":"-0.204564"},"context":"","outcome_status":{"category":"Court result unavailable","date":"2017-08"},"persistent_id":"1b0c03556d9231a278a3e7503a849bd4a6ef980bafa72c41cc77d1768de535ef","id":54106589,"location_subtype":"","month":"2017-01"},{"category":"public-order","location_type":"Force","location":{"latitude":"51.482723","street":{"id":950287,"name":"On or near Armadale Road"},"longitude":"-0.199552"},"context":"","outcome_status":{"category":"Offender sent to prison","date":"2017-01"},"persistent_id":"5bb9c6e5f0759dd853ee936810f2f49cb5bcd35b3867a99b6d97a8c30f03ffa0","id":54132458,"location_subtype":"","month":"2017-01"},{"category":"shoplifting","location_type":"Force","location":{"latitude":"51.483192","street":{"id":950282,"name":"On or near North End Road"},"longitude":"-0.200801"},"context":"","outcome_status":{"category":"Status update unavailable","date":"2017-05"},"persistent_id":"735cbfe757911ed181e0189603983c1eeded3d9d9a460efe457a54110059d924","id":54129875,"location_subtype":"","month":"2017-01"},{"category":"shoplifting","location_type":"Force","location":{"latitude":"51.483592","street":{"id":950118,"name":"On or near Coomer Place"},"longitude":"-0.201678"},"context":"","outcome_status":{"category":"Investigation complete; no suspect identified","date":"2017-05"},"persistent_id":"886a8eab164f8b4218a389c3fd523b09b6fbf09a4721310c6274147f3db96181","id":54113512,"location_subtype":"","month":"2017-01"},{"category":"theft-from-the-person","location_type":"Force","location":{"latitude":"51.480123","street":{"id":950272,"name":"On or near Argon Mews"},"longitude":"-0.197119"},"context":"","outcome_status":{"category":"Investigation complete; no suspect identified","date":"2017-02"},"persistent_id":"271169cbd29399b7a035acdeaa93ffcbba3688127a300d17856afbbebb5b5d5d","id":54133319,"location_subtype":"","month":"2017-01"},{"category":"theft-from-the-person","location_type":"Force","location":{"latitude":"51.482081","street":{"id":950280,"name":"On or near Walham Yard"},"longitude":"-0.199303"},"context":"","outcome_status":{"category":"Status update unavailable","date":"2017-05"},"persistent_id":"de9b1d69bc34a42c6ea9e2ef6c5425808a33f6378881ddf939dafcc3b73894de","id":54131624,"location_subtype":"","month":"2017-01"},{"category":"theft-from-the-person","location_type":"Force","location":{"latitude":"51.480318","street":{"id":950267,"name":"On or near Fulham Broadway"},"longitude":"-0.196939"},"context":"","outcome_status":{"category":"Investigation complete; no suspect identified","date":"2017-01"},"persistent_id":"602f2d89c9bf019af4967a6abbe39ff99c300f5118120f318853913d6924f7c8","id":54107885,"location_subtype":"","month":"2017-01"},{"category":"theft-from-the-person","location_type":"Force","location":{"latitude":"51.481356","street":{"id":950316,"name":"On or near Fabian Road"},"longitude":"-0.203652"},"context":"","outcome_status":{"category":"Status update unavailable","date":"2017-05"},"persistent_id":"26d188f747cc2d551eb3fd1afec0da91d5b288aceed6f707ec33d5ae6da3260a","id":54126065,"location_subtype":"","month":"2017-01"},{"category":"vehicle-crime","location_type":"Force","location":{"latitude":"51.484677","street":{"id":950218,"name":"On or near Tamworth Street"},"longitude":"-0.197977"},"context":"","outcome_status":{"category":"Status update unavailable","date":"2017-05"},"persistent_id":"8d5583b4ab8476fb4a6514f5425c20462f23b419dc65f380e5be7f9dad4fee12","id":54111519,"location_subtype":"","month":"2017-01"},{"category":"vehicle-crime","location_type":"Force","location":{"latitude":"51.484381","street":{"id":950203,"name":"On or near Racton Road"},"longitude":"-0.199760"},"context":"","outcome_status":{"category":"Investigation complete; no suspect identified","date":"2017-01"},"persistent_id":"0ac4b68cddfeacbdc57f4ae3957b686bd7499db7c8988b472c2b5e48c877b9fa","id":54126383,"location_subtype":"","month":"2017-01"},{"category":"vehicle-crime","location_type":"Force","location":{"latitude":"51.483827","street":{"id":950231,"name":"On or near Micklethwaite Road"},"longitude":"-0.195879"},"context":"","outcome_status":{"category":"Investigation complete; no suspect identified","date":"2017-01"},"persistent_id":"3686d3d4d2d415054a433ae9a1a3223e83d1d9e32ed791f2cd6d5a72c7fd6ea3","id":54103589,"location_subtype":"","month":"2017-01"},{"category":"vehicle-crime","location_type":"Force","location":{"latitude":"51.482983","street":{"id":950262,"name":"On or near Knivet Road"},"longitude":"-0.198893"},"context":"","outcome_status":{"category":"Status update unavailable","date":"2017-05"},"persistent_id":"8cf354d49a3f0fc995d3fefc643a72d0ac4e87f29d036f8b2f48cba4d6b717fb","id":54132173,"location_subtype":"","month":"2017-01"},{"category":"vehicle-crime","location_type":"Force","location":{"latitude":"51.483592","street":{"id":950118,"name":"On or near Coomer Place"},"longitude":"-0.201678"},"context":"","outcome_status":{"category":"Status update unavailable","date":"2017-05"},"persistent_id":"8c54c5f88cf2a2fdf7f41edb2a9455ad0a932fc5520f4032453f79e8295db3d7","id":54110615,"location_subtype":"","month":"2017-01"},{"category":"vehicle-crime","location_type":"Force","location":{"latitude":"51.481356","street":{"id":950316,"name":"On or near Fabian Road"},"longitude":"-0.203652"},"context":"","outcome_status":{"category":"Status update unavailable","date":"2017-05"},"persistent_id":"b197933be3a1abeea14520965c737ef309d85667b6e0a154306445d404dee7d2","id":54117212,"location_subtype":"","month":"2017-01"},{"category":"vehicle-crime","location_type":"Force","location":{"latitude":"51.481153","street":{"id":950319,"name":"On or near Dawes Road"},"longitude":"-0.209191"},"context":"","outcome_status":{"category":"Status update unavailable","date":"2017-05"},"persistent_id":"848ab9fc387aa32f6e76865d6a5291ce752f6567ab85ddcb428e92bc30cadb5f","id":54117220,"location_subtype":"","month":"2017-01"},{"category":"vehicle-crime","location_type":"Force","location":{"latitude":"51.482081","street":{"id":950304,"name":"On or near Pellant Road"},"longitude":"-0.209874"},"context":"","outcome_status":{"category":"Status update unavailable","date":"2017-05"},"persistent_id":"bc149da579bee1ef51775609286400895681bdd7d3f8c1fecf018214e8c39c71","id":54132753,"location_subtype":"","month":"2017-01"},{"category":"vehicle-crime","location_type":"Force","location":{"latitude":"51.482429","street":{"id":950258,"name":"On or near Walham Grove"},"longitude":"-0.197403"},"context":"","outcome_status":{"category":"Status update unavailable","date":"2017-05"},"persistent_id":"83a1b9708cc63462ff86fac7a2bf666ec6a647af251663b130316476bd238d80","id":54106709,"location_subtype":"","month":"2017-01"},{"category":"vehicle-crime","location_type":"Force","location":{"latitude":"51.482723","street":{"id":950287,"name":"On or near Armadale Road"},"longitude":"-0.199552"},"context":"","outcome_status":{"category":"Status update unavailable","date":"2017-05"},"persistent_id":"75cc10142284a70c224b4d56e82b5b00660573546c26032e77fec38ee9a08b09","id":54129077,"location_subtype":"","month":"2017-01"},{"category":"vehicle-crime","location_type":"Force","location":{"latitude":"51.482081","street":{"id":950280,"name":"On or near Walham Yard"},"longitude":"-0.199303"},"context":"","outcome_status":{"category":"Investigation complete; no suspect identified","date":"2017-03"},"persistent_id":"06523e2a630bab629817f03f8b1a1b9e6897a359849e473dcf67a64020bb0922","id":54119468,"location_subtype":"","month":"2017-01"},{"category":"vehicle-crime","location_type":"Force","location":{"latitude":"51.482320","street":{"id":950300,"name":"On or near Rylston Road"},"longitude":"-0.206077"},"context":"","outcome_status":{"category":"Status update unavailable","date":"2017-05"},"persistent_id":"df918d2cbe2d25ade53e03825aeec9a4f9c4e396772ada9bef64b4a9774c345d","id":54117612,"location_subtype":"","month":"2017-01"},{"category":"vehicle-crime","location_type":"Force","location":{"latitude":"51.483656","street":{"id":950116,"name":"On or near Hugh Gaitskell Close"},"longitude":"-0.205838"},"context":"","outcome_status":{"category":"Investigation complete; no suspect identified","date":"2017-01"},"persistent_id":"7ab9c65562fe77a7c269d129117d1eeb52c38c592d4e5ae8250b38565be75ccb","id":54132434,"location_subtype":"","month":"2017-01"},{"category":"vehicle-crime","location_type":"Force","location":{"latitude":"51.481545","street":{"id":950270,"name":"On or near Exeter Mews"},"longitude":"-0.197769"},"context":"","outcome_status":{"category":"Status update unavailable","date":"2017-05"},"persistent_id":"688e641c4a8d4ac706232a807f8ad5aa3ec702c7bf5b0682da457fbcb0b9abd2","id":54117937,"location_subtype":"","month":"2017-01"},{"category":"vehicle-crime","location_type":"Force","location":{"latitude":"51.484891","street":{"id":950220,"name":"On or near Seagrave Road"},"longitude":"-0.195477"},"context":"","outcome_status":{"category":"Status update unavailable","date":"2017-05"},"persistent_id":"f2899a851da06943429c27fb28f4ed2724b262962128e2a2dab6d5a33f726464","id":54106686,"location_subtype":"","month":"2017-01"},{"category":"vehicle-crime","location_type":"Force","location":{"latitude":"51.482983","street":{"id":950262,"name":"On or near Knivet Road"},"longitude":"-0.198893"},"context":"","outcome_status":{"category":"Status update unavailable","date":"2017-05"},"persistent_id":"6b18670e537ba947f4161d313a64cc146d95a733590eef5686261a0992128e5a","id":54139306,"location_subtype":"","month":"2017-01"},{"category":"vehicle-crime","location_type":"Force","location":{"latitude":"51.481356","street":{"id":950316,"name":"On or near Fabian Road"},"longitude":"-0.203652"},"context":"","outcome_status":{"category":"Status update unavailable","date":"2017-05"},"persistent_id":"22b610d8c9599deec3d2cd24ba417fd9ea0590eef5dace7836d16adf9ef348a3","id":54106678,"location_subtype":"","month":"2017-01"},{"category":"vehicle-crime","location_type":"Force","location":{"latitude":"51.480782","street":{"id":950281,"name":"On or near St John's Close"},"longitude":"-0.200233"},"context":"","outcome_status":{"category":"Investigation complete; no suspect identified","date":"2017-02"},"persistent_id":"60dbed8abd78b5642f56915093838237c773ba75f6e44027e095ce6590effff0","id":54113410,"location_subtype":"","month":"2017-01"},{"category":"vehicle-crime","location_type":"Force","location":{"latitude":"51.483827","street":{"id":950231,"name":"On or near Micklethwaite Road"},"longitude":"-0.195879"},"context":"","outcome_status":{"category":"Status update unavailable","date":"2017-05"},"persistent_id":"118dfa034083931cc18360daff71744ff71c8fb9c83e4832fcf0b1d934968b94","id":54112394,"location_subtype":"","month":"2017-01"},{"category":"violent-crime","location_type":"Force","location":{"latitude":"51.483192","street":{"id":950282,"name":"On or near North End Road"},"longitude":"-0.200801"},"context":"","outcome_status":{"category":"Offender given a caution","date":"2017-01"},"persistent_id":"7fb0e83bcb85a7abde3bc2f775f311db5372110f5760f81791102e20f9fa04a8","id":54104522,"location_subtype":"","month":"2017-01"},{"category":"violent-crime","location_type":"Force","location":{"latitude":"51.483188","street":{"id":950288,"name":"On or near Supermarket"},"longitude":"-0.201103"},"context":"","outcome_status":{"category":"Investigation complete; no suspect identified","date":"2017-03"},"persistent_id":"4f52e20ee5df85ab096215cd40fa062ed752beaaefff891f44932663a917423d","id":54100827,"location_subtype":"","month":"2017-01"},{"category":"violent-crime","location_type":"Force","location":{"latitude":"51.482905","street":{"id":950318,"name":"On or near Delaford Street"},"longitude":"-0.208474"},"context":"","outcome_status":{"category":"Investigation complete; no suspect identified","date":"2017-03"},"persistent_id":"489271647a327a58a8e3860b631c77deeb537ffcb5822cf00f138a539815eaba","id":54103491,"location_subtype":"","month":"2017-01"},{"category":"violent-crime","location_type":"Force","location":{"latitude":"51.482081","street":{"id":950280,"name":"On or near Walham Yard"},"longitude":"-0.199303"},"context":"","outcome_status":{"category":"Investigation complete; no suspect identified","date":"2017-02"},"persistent_id":"745065c37ade7d2ad71790e223dff493bb822b5f64742eeafdf9c1bcc1c558b0","id":54104601,"location_subtype":"","month":"2017-01"},{"category":"violent-crime","location_type":"Force","location":{"latitude":"51.482081","street":{"id":950304,"name":"On or near Pellant Road"},"longitude":"-0.209874"},"context":"","outcome_status":{"category":"Investigation complete; no suspect identified","date":"2017-02"},"persistent_id":"57dccdd3e26c839acd10ffe94249a84486b7e623d3b7ed7ae16f256df672eadf","id":54106724,"location_subtype":"","month":"2017-01"},{"category":"violent-crime","location_type":"Force","location":{"latitude":"51.480984","street":{"id":950259,"name":"On or near Vanston Place"},"longitude":"-0.197575"},"context":"","outcome_status":{"category":"Status update unavailable","date":"2017-05"},"persistent_id":"b7b1e48583fa3294641b7e42c81a38612548474cee2b4ea6250d34b3633bb733","id":54106926,"location_subtype":"","month":"2017-01"},{"category":"violent-crime","location_type":"Force","location":{"latitude":"51.486457","street":{"id":950234,"name":"On or near Lillie Yard"},"longitude":"-0.197330"},"context":"","outcome_status":{"category":"Status update unavailable","date":"2017-05"},"persistent_id":"6413e8b2829847d413cbb0fe0c2fe8d5b24d206d8e052a695df6ee7b80881932","id":54106056,"location_subtype":"","month":"2017-01"},{"category":"violent-crime","location_type":"Force","location":{"latitude":"51.484381","street":{"id":950203,"name":"On or near Racton Road"},"longitude":"-0.199760"},"context":"","outcome_status":{"category":"Investigation complete; no suspect identified","date":"2017-04"},"persistent_id":"b8045bf4059c1461533c8310ea486b1c73a0f61f5ca6bc844326759652146da6","id":54108558,"location_subtype":"","month":"2017-01"},{"category":"violent-crime","location_type":"Force","location":{"latitude":"51.483656","street":{"id":950116,"name":"On or near Hugh Gaitskell Close"},"longitude":"-0.205838"},"context":"","outcome_status":{"category":"Investigation complete; no suspect identified","date":"2017-02"},"persistent_id":"cc1418d268e11b32e84e89cf1b0a2a0c07699e4156fac59f83b142f16d38de70","id":54110206,"location_subtype":"","month":"2017-01"},{"category":"violent-crime","location_type":"Force","location":{"latitude":"51.483326","street":{"id":950295,"name":"On or near Tilton Street"},"longitude":"-0.208371"},"context":"","outcome_status":{"category":"Investigation complete; no suspect identified","date":"2017-02"},"persistent_id":"169541e42fde60b9ddd8410c817fb0ab538a889328658b3231801bb8241b2cf8","id":54111154,"location_subtype":"","month":"2017-01"},{"category":"violent-crime","location_type":"Force","location":{"latitude":"51.483656","street":{"id":950116,"name":"On or near Hugh Gaitskell Close"},"longitude":"-0.205838"},"context":"","outcome_status":{"category":"Investigation complete; no suspect identified","date":"2017-02"},"persistent_id":"dfa8d1cba2119fe9fb56f9ec4f8f6797343b1edb6038eb82d18aff9e309eaa00","id":54112142,"location_subtype":"","month":"2017-01"},{"category":"violent-crime","location_type":"Force","location":{"latitude":"51.485129","street":{"id":950237,"name":"On or near Hildyard Road"},"longitude":"-0.196375"},"context":"","outcome_status":{"category":"Investigation complete; no suspect identified","date":"2017-05"},"persistent_id":"f8c53e253e750411d1716ca533dbeb292b6ed33252a2322e8f8a9c23acff9d80","id":54112997,"location_subtype":"","month":"2017-01"},{"category":"violent-crime","location_type":"Force","location":{"latitude":"51.481000","street":{"id":950297,"name":"On or near Shorrolds Road"},"longitude":"-0.201549"},"context":"","outcome_status":{"category":"Investigation complete; no suspect identified","date":"2017-03"},"persistent_id":"77290880b4edaba274e9714af1623df59fd2bb991947ec6c4975e4a8527aa6b9","id":54113498,"location_subtype":"","month":"2017-01"},{"category":"violent-crime","location_type":"Force","location":{"latitude":"51.483656","street":{"id":950116,"name":"On or near Hugh Gaitskell Close"},"longitude":"-0.205838"},"context":"","outcome_status":{"category":"Status update unavailable","date":"2017-05"},"persistent_id":"4ab90dbe35b1e7399f12bdd25afc0b49e580c5bf36caf82aee2c6ef0ffdb791a","id":54115026,"location_subtype":"","month":"2017-01"},{"category":"violent-crime","location_type":"Force","location":{"latitude":"51.480123","street":{"id":950272,"name":"On or near Argon Mews"},"longitude":"-0.197119"},"context":"","outcome_status":{"category":"Investigation complete; no suspect identified","date":"2017-03"},"persistent_id":"43b5cc0f63c38c19992eb70c858a883e6bf492c2465a20600765890ef0f58399","id":54116093,"location_subtype":"","month":"2017-01"},{"category":"violent-crime","location_type":"Force","location":{"latitude":"51.483102","street":{"id":950271,"name":"On or near Brompton Park Crescent"},"longitude":"-0.193200"},"context":"","outcome_status":{"category":"Investigation complete; no suspect identified","date":"2017-02"},"persistent_id":"35c9ecc9155ee507165a7cade320ce3a47f329e9d5d73d6fd5469502921bee3b","id":54116140,"location_subtype":"","month":"2017-01"},{"category":"violent-crime","location_type":"Force","location":{"latitude":"51.483192","street":{"id":950282,"name":"On or near North End Road"},"longitude":"-0.200801"},"context":"","outcome_status":{"category":"Investigation complete; no suspect identified","date":"2017-01"},"persistent_id":"b5fd88c0ac3c15d6b6e341b1c5a0d6670e016d0dcba0aff3bb7b64cf4dffdcc6","id":54118306,"location_subtype":"","month":"2017-01"},{"category":"violent-crime","location_type":"Force","location":{"latitude":"51.483592","street":{"id":950118,"name":"On or near Coomer Place"},"longitude":"-0.201678"},"context":"","outcome_status":{"category":"Investigation complete; no suspect identified","date":"2017-01"},"persistent_id":"3bcabceaaf63f8326eb1b5648c60e85ca54446f349d561f4c4fdc2ee59589a36","id":54118811,"location_subtype":"","month":"2017-01"},{"category":"violent-crime","location_type":"Force","location":{"latitude":"51.480123","street":{"id":950272,"name":"On or near Argon Mews"},"longitude":"-0.197119"},"context":"","outcome_status":{"category":"Investigation complete; no suspect identified","date":"2017-01"},"persistent_id":"8bb9375c1ccbaf9b408d3ca15dce6cee60e54fd91b11bdf2228ced1b70cc940d","id":54122409,"location_subtype":"","month":"2017-01"},{"category":"violent-crime","location_type":"Force","location":{"latitude":"51.480643","street":{"id":950269,"name":"On or near Farm Lane"},"longitude":"-0.198208"},"context":"","outcome_status":{"category":"Investigation complete; no suspect identified","date":"2017-04"},"persistent_id":"08bbcfcbcdbb0a8446b452aa8f280186dbd472a0327b4e490438767a65628cc5","id":54121755,"location_subtype":"","month":"2017-01"},{"category":"violent-crime","location_type":"Force","location":{"latitude":"51.480643","street":{"id":950269,"name":"On or near Farm Lane"},"longitude":"-0.198208"},"context":"","outcome_status":{"category":"Investigation complete; no suspect identified","date":"2017-04"},"persistent_id":"97e229d8c8b2edc1c3018ae5a9ceea289dec432e251e06cee9ebd97bec3c863e","id":54123624,"location_subtype":"","month":"2017-01"},{"category":"violent-crime","location_type":"Force","location":{"latitude":"51.482081","street":{"id":950304,"name":"On or near Pellant Road"},"longitude":"-0.209874"},"context":"","outcome_status":{"category":"Investigation complete; no suspect identified","date":"2017-02"},"persistent_id":"33dbe5460b0996bfdddcd08658d5f6c1bd95bc649d9b6f4be41fbebf59ce5934","id":54123966,"location_subtype":"","month":"2017-01"},{"category":"violent-crime","location_type":"Force","location":{"latitude":"51.484159","street":{"id":950189,"name":"On or near Supermarket"},"longitude":"-0.202289"},"context":"","outcome_status":{"category":"Investigation complete; no suspect identified","date":"2017-05"},"persistent_id":"27b364c5a3fca2b3ec79fdc03d78a8a292fab1dba8abd89369cbd13bb9e790c1","id":54124763,"location_subtype":"","month":"2017-01"},{"category":"violent-crime","location_type":"Force","location":{"latitude":"51.480643","street":{"id":950269,"name":"On or near Farm Lane"},"longitude":"-0.198208"},"context":"","outcome_status":{"category":"Investigation complete; no suspect identified","date":"2017-01"},"persistent_id":"6668075e83b0c2603dcc092eaa06acb6ab29de7c94500f97e1f06c231bbfc555","id":54107284,"location_subtype":"","month":"2017-01"},{"category":"violent-crime","location_type":"Force","location":{"latitude":"51.482723","street":{"id":950287,"name":"On or near Armadale Road"},"longitude":"-0.199552"},"context":"","outcome_status":{"category":"Offender sent to prison","date":"2017-01"},"persistent_id":"0ba88f4f1cfe61e3c2af91d28cfbef3e72af52438daf8b8936bc0390197c2ce8","id":54131494,"location_subtype":"","month":"2017-01"},{"category":"violent-crime","location_type":"Force","location":{"latitude":"51.486457","street":{"id":950234,"name":"On or near Lillie Yard"},"longitude":"-0.197330"},"context":"","outcome_status":{"category":"Investigation complete; no suspect identified","date":"2017-10"},"persistent_id":"58ce682a445e29e1d1e7d80500dfa4d2c3af49856cd0dc35becb88484cdc1c00","id":54107980,"location_subtype":"","month":"2017-01"},{"category":"violent-crime","location_type":"Force","location":{"latitude":"51.482723","street":{"id":950287,"name":"On or near Armadale Road"},"longitude":"-0.199552"},"context":"","outcome_status":{"category":"Offender sent to prison","date":"2017-01"},"persistent_id":"d1de4a27fe95c14cd9402773c53af2f86e55fd74400813213cfb8216ea58eb85","id":54131253,"location_subtype":"","month":"2017-01"},{"category":"violent-crime","location_type":"Force","location":{"latitude":"51.483298","street":{"id":950324,"name":"On or near Barbara Castle Close"},"longitude":"-0.202424"},"context":"","outcome_status":{"category":"Investigation complete; no suspect identified","date":"2017-10"},"persistent_id":"b20f27c6bf423498cc1f4157d73b7e83f715ceaaa43f1930952567cb904b6336","id":54125104,"location_subtype":"","month":"2017-01"},{"category":"violent-crime","location_type":"Force","location":{"latitude":"51.482723","street":{"id":950287,"name":"On or near Armadale Road"},"longitude":"-0.199552"},"context":"","outcome_status":{"category":"Offender sent to prison","date":"2017-01"},"persistent_id":"ab07ce417248f62dc6844f5d614123ad2dad7b95ac142f9afbf0ea1bc124508b","id":54120899,"location_subtype":"","month":"2017-01"}]