[{"category":"anti-social-behaviour","location_type":"Force","location":{"latitude":"51.439136","street":{"id":937754,"name":"On or near College Gardens"},"longitude":"-0.171079"},"context":"","outcome_status":null,"persistent_id":"","id":56202619,"location_subtype":"","month":"2017-04"},{"category":"anti-social-behaviour","location_type":"Force","location":{"latitude":"51.439136","street":{"id":937754,"name":"On or near College Gardens"},"longitude":"-0.171079"},"context":"","outcome_status":null,"persistent_id":"","id":56202618,"location_subtype":"","month":"2017-04"},{"category":"anti-social-behaviour","location_type":"Force","location":{"latitude":"51.447196","street":{"id":939428,"name":"On or near Routh Road"},"longitude":"-0.171232"},"context":"","outcome_status":null,"persistent_id":"","id":56202613,"location_subtype":"","month":"2017-04"},{"category":"anti-social-behaviour","location_type":"Force","location":{"latitude":"51.439291","street":{"id":937619,"name":"On or near St Benets Close"},"longitude":"-0.169490"},"context":"","outcome_status":null,"persistent_id":"","id":56202595,"location_subtype":"","month":"2017-04"},{"category":"anti-social-behaviour","location_type":"Force","location":{"latitude":"51.436424","street":{"id":937644,"name":"On or near Bevin Square"},"longitude":"-0.166123"},"context":"","outcome_status":null,"persistent_id":"","id":56202060,"location_subtype":"","month":"2017-04"},{"category":"anti-social-behaviour","location_type":"Force","location":{"latitude":"51.449225","street":{"id":939476,"name":"On or near Earlsfield Road"},"longitude":"-0.182563"},"context":"","outcome_status":null,"persistent_id":"","id":56202689,"location_subtype":"","month":"2017-04"},{"category":"anti-social-behaviour","location_type":"Force","location":{"latitude":"51.449225","street":{"id":939476,"name":"On or near Earlsfield Road"},"longitude":"-0.182563"},"context":"","outcome_status":null,"persistent_id":"","id":56202682,"location_subtype":"","month":"2017-04"},{"category":"anti-social-behaviour","location_type":"Force","location":{"latitude":"51.448500","street":{"id":923534,"name":"On or near Groom Crescent"},"longitude":"-0.179887"},"context":"","outcome_status":null,"persistent_id":"","id":56202677,"location_subtype":"","month":"2017-04"},{"category":"anti-social-behaviour","location_type":"Force","location":{"latitude":"51.451550","street":{"id":939445,"name":"On or near Heathfield Road"},"longitude":"-0.177117"},"context":"","outcome_status":null,"persistent_id":"","id":56202665,"location_subtype":"","month":"2017-04"},{"category":"anti-social-behaviour","location_type":"Force","location":{"latitude":"51.442199","street":{"id":939552,"name":"On or near Broadgates Road"},"longitude":"-0.175446"},"context":"","outcome_status":null,"persistent_id":"","id":56202653,"location_subtype":"","month":"2017-04"},{"category":"anti-social-behaviour","location_type":"Force","location":{"latitude":"51.440094","street":{"id":939534,"name":"On or near St Hildas Close"},"longitude":"-0.171961"},"context":"","outcome_status":null,"persistent_id":"","id":56202640,"location_subtype":"","month":"2017-04"},{"category":"anti-social-behaviour","location_type":"Force","location":{"latitude":"51.451004","street":{"id":939502,"name":"On or near Crealock Street"},"longitude":"-0.188264"},"context":"","outcome_status":null,"persistent_id":"","id":56202706,"location_subtype":"","month":"2017-04"},{"category":"anti-social-behaviour","location_type":"Force","location":{"latitude":"51.446320","street":{"id":939452,"name":"On or near Winfrith Road"},"longitude":"-0.186636"},"context":"","outcome_status":null,"persistent_id":"","id":56202700,"location_subtype":"","month":"2017-04"},{"category":"anti-social-behaviour","location_type":"Force","location":{"latitude":"51.452117","street":{"id":939489,"name":"On or near St Ann's Park Road"},"longitude":"-0.185255"},"context":"","outcome_status":null,"persistent_id":"","id":56202699,"location_subtype":"","month":"2017-04"},{"category":"anti-social-behaviour","location_type":"Force","location":{"latitude":"51.445775","street":{"id":939451,"name":"On or near Winfrith Road"},"longitude":"-0.186284"},"context":"","outcome_status":null,"persistent_id":"","id":56202694,"location_subtype":"","month":"2017-04"},{"category":"anti-social-behaviour","location_type":"Force","location":{"latitude":"51.445775","street":{"id":939451,"name":"On or near Winfrith Road"},"longitude":"-0.186284"},"context":"","outcome_status":null,"persistent_id":"","id":56202693,"location_subtype":"","month":"2017-04"},{"category":"anti-social-behaviour","location_type":"Force","location":{"latitude":"51.448232","street":{"id":939453,"name":"On or near Wilna Road"},"longitude":"-0.184675"},"context":"","outcome_status":null,"persistent_id":"","id":56202691,"location_subtype":"","month":"2017-04"},{"category":"anti-social-behaviour","location_type":"Force","location":{"latitude":"51.449225","street":{"id":939476,"name":"On or near Earlsfield Road"},"longitude":"-0.182563"},"context":"","outcome_status":null,"persistent_id":"","id":56202690,"location_subtype":"","month":"2017-04"},{"category":"bicycle-theft","location_type":"Force","location":{"latitude":"51.450603","street":{"id":939450,"name":"On or near Dorlcote Road"},"longitude":"-0.172866"},"context":"","outcome_status":{"category":"Investigation complete; no suspect identified","date":"2017-04"},"persistent_id":"53f0564bcdbbc064ca843e3a1adbe96e42e96ebe57a33c7da3bccab9ce7d67f1","id":56220871,"location_subtype":"","month":"2017-04"},{"category":"bicycle-theft","location_type":"Force","location":{"latitude":"51.454310","street":{"id":943053,"name":"On or near Stott Close"},"longitude":"-0.174143"},"context":"","outcome_status":{"category":"Status update unavailable","date":"2017-08"},"persistent_id":"aea0e7fef115f68fe1505cacd750826e30d134a0b23da82fe93a06c458826262","id":56221485,"location_subtype":"","month":"2017-04"},{"category":"bicycle-theft","location_type":"Force","location":{"latitude":"51.438393","street":{"id":937647,"name":"On or near Beechcroft Road"},"longitude":"-0.167842"},"context":"","outcome_status":{"category":"Status update unavailable","date":"2017-08"},"persistent_id":"5c3b2a2f5241fe4a6f5093d7dce7a2cdfbce7cc46a41eb8c66dfa5baf0e535d3","id":56250224,"location_subtype":"","month":"2017-04"},{"category":"bicycle-theft","location_type":"Force","location":{"latitude":"51.442199","street":{"id":939552,"name":"On or near Broadgates Road"},"longitude":"-0.175446"},"context":"","outcome_status":{"category":"Status update unavailable","date":"2017-08"},"persistent_id":"b015261604a60989c78f58504a55500c9336de04fdd5c1ea76d8c1e3ee0b05f1","id":56295645,"location_subtype":"","month":"2017-04"},{"category":"bicycle-theft","location_type":"Force","location":{"latitude":"51.456548","street":{"id":943061,"name":"On or near Trefoil Road"},"longitude":"-0.182172"},"context":"","outcome_status":{"category":"Investigation complete; no suspect identified","date":"2017-06"},"persistent_id":"2e004463a23da22e712ce5122835154044260654da4bc40c8c95e36524e8aff1","id":56294484,"location_subtype":"","month":"2017-04"},{"category":"bicycle-theft","location_type":"Force","location":{"latitude":"51.455681","street":{"id":943075,"name":"On or near Geraldine Road"},"longitude":"-0.184293"},"context":"","outcome_status":{"category":"Status update unavailable","date":"2017-08"},"persistent_id":"e31fc0373fd9e5b91e4378aa8ffbadd9ffbbb8fdd41a15369434ca0db180f281","id":56294971,"location_subtype":"","month":"2017-04"},{"category":"burglary","location_type":"Force","location":{"latitude":"51.440909","street":{"id":939546,"name":"On or near Gunners Road"},"longitude":"-0.176318"},"context":"","outcome_status":{"category":"Status update unavailable","date":"2017-08"},"persistent_id":"2e320d9f7327977300f3ae625f2aaff2c4168461e333011657e1e42778325d24","id":56275738,"location_subtype":"","month":"2017-04"},{"category":"burglary","location_type":"Force","location":{"latitude":"51.435693","street":{"id":937632,"name":"On or near Glenburnie Road"},"longitude":"-0.167073"},"context":"","outcome_status":{"category":"Status update unavailable","date":"2017-08"},"persistent_id":"a3fa15ce2580898aa0bd7bd17457590b757753a517b280fc0863e31893328143","id":56289325,"location_subtype":"","month":"2017-04"},{"category":"burglary","location_type":"Force","location":{"latitude":"51.454817","street":{"id":943074,"name":"On or near Geraldine Road"},"longitude":"-0.183665"},"context":"","outcome_status":{"category":"Investigation complete; no suspect identified","date":"2017-05"},"persistent_id":"65124c793ad938fff504d5c4a025c06e0da2de8ff1ddc52e22ab05a75a57a727","id":56299349,"location_subtype":"","month":"2017-04"},{"category":"burglary","location_type":"Force","location":{"latitude":"51.445775","street":{"id":939451,"name":"On or near Winfrith Road"},"longitude":"-0.186284"},"context":"","outcome_status":{"category":"Investigation complete; no suspect identified","date":"2017-04"},"persistent_id":"b9cdd722dd430993f505086ba1a59f8948f3fc577997c50ac5a55f6feb82327d","id":56222311,"location_subtype":"","month":"2017-04"},{"category":"burglary","location_type":"Force","location":{"latitude":"51.453173","street":{"id":939501,"name":"On or near Crieff Road"},"longitude":"-0.182579"},"context":"","outcome_status":{"category":"Investigation complete; no suspect identified","date":"2017-04"},"persistent_id":"d00267ace7377ccc73bbd00790a5fcb426c5b9ece55c6bce2fb1aecf4771dec6","id":56240617,"location_subtype":"","month":"2017-04"},{"category":"burglary","location_type":"Force","location":{"latitude":"51.457252","street":{"id":943004,"name":"On or near Spencer Park"},"longitude":"-0.174817"},"context":"","outcome_status":{"category":"Investigation complete; no suspect identified","date":"2017-12"},"persistent_id":"b406f5c2883aa7e39d54cd9cef3f42fd0cc3c2525f72328c28ee63648624f399","id":56281699,"location_subtype":"","month":"2017-04"},{"category":"burglary","location_type":"Force","location":{"latitude":"51.435693","street":{"id":937632,"name":"On or near Glenburnie Road"},"longitude":"-0.167073"},"context":"","outcome_status":{"category":"Investigation complete; no suspect identified","date":"2017-05"},"persistent_id":"7a5249137f9932a44df383fd513b9f8fb7e893784d7d0450d26eb847ae90c62e","id":56217294,"location_subtype":"","month":"2017-04"},{"category":"burglary","location_type":"Force","location":{"latitude":"51.442199","street":{"id":939552,"name":"On or near Broadgates Road"},"longitude":"-0.175446"},"context":"","outcome_status":{"category":"Status update unavailable","date":"2017-08"},"persistent_id":"9baf525c4202c61a96206b556c5235c00f805a872d23dea12914165cdcd8389b","id":56229209,"location_subtype":"","month":"2017-04"},{"category":"burglary","location_type":"Force","location":{"latitude":"51.455885","street":{"id":943080,"name":"On or near Cicada Road"},"longitude":"-0.182385"},"context":"","outcome_status":{"category":"Status update unavailable","date":"2017-08"},"persistent_id":"a38a3cc5726278b5fdf9735b5843c90c878c91c995414985ffcea3f5ea3aa225","id":56230604,"location_subtype":"","month":"2017-04"},{"category":"burglary","location_type":"Force","location":{"latitude":"51.453173","street":{"id":939501,"name":"On or near Crieff Road"},"longitude":"-0.182579"},"context":"","outcome_status":{"category":"Status update unavailable","date":"2017-08"},"persistent_id":"139bd3a364b8ee0465da1bd73ec0afbb367dacfc4b2f6ccbea5662b0bcdc4946","id":56238061,"location_subtype":"","month":"2017-04"},{"category":"burglary","location_type":"Force","location":{"latitude":"51.445775","street":{"id":939451,"name":"On or near Winfrith Road"},"longitude":"-0.186284"},"context":"","outcome_status":{"category":"Status update unavailable","date":"2017-08"},"persistent_id":"299ce54cb8cd97ac743b9c27fc5304791c16a87c5b58d0d63404ba04557c0f9c","id":56223635,"location_subtype":"","month":"2017-04"},{"category":"burglary","location_type":"Force","location":{"latitude":"51.448952","street":{"id":939481,"name":"On or near Brocklebank Road"},"longitude":"-0.185251"},"context":"","outcome_status":{"category":"Status update unavailable","date":"2017-08"},"persistent_id":"e56e1fb6c12a7b6fea8d1bd79a7fc9dae5984af36c8066e1e4b61efda895115d","id":56223923,"location_subtype":"","month":"2017-04"},{"category":"burglary","location_type":"Force","location":{"latitude":"51.445432","street":{"id":939437,"name":"On or near Loxley Road"},"longitude":"-0.175144"},"context":"","outcome_status":{"category":"Investigation complete; no suspect identified","date":"2017-05"},"persistent_id":"3ef006fe4364e82c7c37b55a86860c8519d9aef7adbe89f36289be8c57c104ad","id":56245072,"location_subtype":"","month":"2017-04"},{"category":"burglary","location_type":"Force","location":{"latitude":"51.451550","street":{"id":939445,"name":"On or near Heathfield Road"},"longitude":"-0.177117"},"context":"","outcome_status":{"category":"Status update unavailable","date":"2017-08"},"persistent_id":"25636832854e42429ddf693c2b8c18969f1c744f3b8b03e711ceccc165d0e004","id":56276462,"location_subtype":"","month":"2017-04"},{"category":"burglary","location_type":"Force","location":{"latitude":"51.447589","street":{"id":939434,"name":"On or near Strickland Row"},"longitude":"-0.177980"},"context":"","outcome_status":{"category":"Status update unavailable","date":"2017-08"},"persistent_id":"e3f3c176428150a1489ec862b6498a674fd92ca243b6da37143287f7947afa9e","id":56282754,"location_subtype":"","month":"2017-04"},{"category":"criminal-damage-arson","location_type":"Force","location":{"latitude":"51.443598","street":{"id":939549,"name":"On or near Ellerton Road"},"longitude":"-0.176383"},"context":"","outcome_status":{"category":"Status update unavailable","date":"2017-08"},"persistent_id":"9f84f80494ffedce2d88a2db12c452def9023b021abeb7c00aad9cad1ef9485a","id":56286081,"location_subtype":"","month":"2017-04"},{"category":"criminal-damage-arson","location_type":"Force","location":{"latitude":"51.449063","street":{"id":939430,"name":"On or near Nicosia Road"},"longitude":"-0.171589"},"context":"","outcome_status":{"category":"Investigation complete; no suspect identified","date":"2017-05"},"persistent_id":"9d9d84fc3d6823703b30ef7dc1c4244c94a9288dcba400d250dfb72d4e8ea3d1","id":56274888,"location_subtype":"","month":"2017-04"},{"category":"drugs","location_type":"Force","location":{"latitude":"51.439291","street":{"id":937619,"name":"On or near St Benets Close"},"longitude":"-0.169490"},"context":"","outcome_status":{"category":"Offender given a caution","date":"2017-04"},"persistent_id":"56055ae69f52b4b8a56fb9031620b0c6ecd341876dbafdcbc3aed7c9ac709045","id":56298163,"location_subtype":"","month":"2017-04"},{"category":"drugs","location_type":"Force","location":{"latitude":"51.457252","street":{"id":943004,"name":"On or near Spencer Park"},"longitude":"-0.174817"},"context":"","outcome_status":{"category":"Investigation complete; no suspect identified","date":"2017-07"},"persistent_id":"a56863a3dd149203858767ae6ac36f792f41d3f2313dd6cd2ca6a63325a4cb21","id":56224391,"location_subtype":"","month":"2017-04"},{"category":"other-theft","location_type":"Force","location":{"latitude":"51.450603","street":{"id":939450,"name":"On or near Dorlcote Road"},"longitude":"-0.172866"},"context":"","outcome_status":{"category":"Status update unavailable","date":"2017-08"},"persistent_id":"0335088e423fbb53ea3c4be9da78ead78af5b2af541f2174e6d51201d0b50f64","id":56220711,"location_subtype":"","month":"2017-04"},{"category":"other-theft","location_type":"Force","location":{"latitude":"51.453981","street":{"id":943056,"name":"On or near John Archer Way"},"longitude":"-0.174976"},"context":"","outcome_status":{"category":"Status update unavailable","date":"2017-08"},"persistent_id":"9413619683dbb18a0aaa030e43c296cb272f5d1d7954f85cca300f1b822153dc","id":56280683,"location_subtype":"","month":"2017-04"},{"category":"other-theft","location_type":"Force","location":{"latitude":"51.449709","street":{"id":939505,"name":"On or near Bassingham Road"},"longitude":"-0.184214"},"context":"","outcome_status":{"category":"Status update unavailable","date":"2017-08"},"persistent_id":"98774204d071a21ccdcb4e00d16d7826ab2f8c7a7ba878d7218f7798b7f9478a","id":56294924,"location_subtype":"","month":"2017-04"},{"category":"other-theft","location_type":"Force","location":{"latitude":"51.449545","street":{"id":939447,"name":"On or near Carmichael Mews"},"longitude":"-0.174793"},"context":"","outcome_status":{"category":"Investigation complete; no suspect identified","date":"2017-07"},"persistent_id":"7619ef78454644adf045243cba68e1356c41c5edd92da151056bc84f62861543","id":56287063,"location_subtype":"","month":"2017-04"},{"category":"other-theft","location_type":"Force","location":{"latitude":"51.443212","street":{"id":939553,"name":"On or near Sports\/recreation Area"},"longitude":"-0.180485"},"context":"","outcome_status":{"category":"Status update unavailable","date":"2017-08"},"persistent_id":"e9cbe0eaa23717bafd6302939d61b7b58b8cee2413a22226bdec4d609facda95","id":56298315,"location_subtype":"","month":"2017-04"},{"category":"other-theft","location_type":"Force","location":{"latitude":"51.447196","street":{"id":939428,"name":"On or near Routh Road"},"longitude":"-0.171232"},"context":"","outcome_status":{"category":"Investigation complete; no suspect identified","date":"2017-05"},"persistent_id":"137fda53b8a6ad0fc2e0c505fdc1fafc03f4ab23cc21951e4b2e81926226bd9c","id":56283469,"location_subtype":"","month":"2017-04"},{"category":"other-theft","location_type":"Force","location":{"latitude":"51.452389","street":{"id":939446,"name":"On or near Fitzhugh Grove"},"longitude":"-0.175515"},"context":"","outcome_status":{"category":"Investigation complete; no suspect identified","date":"2017-05"},"persistent_id":"d7cc08fd24615b69e450df7c258b15c28d6955ff5df7e39494254402c7012055","id":56237039,"location_subtype":"","month":"2017-04"},{"category":"possession-of-weapons","location_type":"Force","location":{"latitude":"51.443817","street":{"id":939641,"name":"On or near Wiseton Road"},"longitude":"-0.166762"},"context":"","outcome_status":{"category":"Investigation complete; no suspect identified","date":"2017-07"},"persistent_id":"9b5337d1ebd8e3fa787152787ca8beec87411748c2f348ab935dd3d3cfa2008e","id":56280247,"location_subtype":"","month":"2017-04"},{"category":"public-order","location_type":"Force","location":{"latitude":"51.435693","street":{"id":937632,"name":"On or near Glenburnie Road"},"longitude":"-0.167073"},"context":"","outcome_status":{"category":"Investigation complete; no suspect identified","date":"2017-04"},"persistent_id":"eaa91ec01db1397c8c84910c56bf11a3286d0d5b8e86ee6e07598f1967ecee7d","id":56247325,"location_subtype":"","month":"2017-04"},{"category":"public-order","location_type":"Force","location":{"latitude":"51.442328","street":{"id":939536,"name":"On or near Lyminge Gardens"},"longitude":"-0.171584"},"context":"","outcome_status":{"category":"Investigation complete; no suspect identified","date":"2017-05"},"persistent_id":"dc3e18007617c81520627022547ec0cdd92b18d30f4dd7fab3aa66177cec5d3c","id":56217041,"location_subtype":"","month":"2017-04"},{"category":"public-order","location_type":"Force","location":{"latitude":"51.452428","street":{"id":939487,"name":"On or near Swanage Road"},"longitude":"-0.183242"},"context":"","outcome_status":{"category":"Investigation complete; no suspect identified","date":"2017-05"},"persistent_id":"1bf1871d4125870b0e6ac43b92dd371820c458ada0183205a41310003f42e83e","id":56286381,"location_subtype":"","month":"2017-04"},{"category":"public-order","location_type":"Force","location":{"latitude":"51.448232","street":{"id":939453,"name":"On or near Wilna Road"},"longitude":"-0.184675"},"context":"","outcome_status":{"category":"Investigation complete; no suspect identified","date":"2017-04"},"persistent_id":"685c7df9b267979350d21889d119baeb0b75b6bc2d84fe3fa96d35bc68ea9a83","id":56291830,"location_subtype":"","month":"2017-04"},{"category":"theft-from-the-person","location_type":"Force","location":{"latitude":"51.443817","street":{"id":939641,"name":"On or near Wiseton Road"},"longitude":"-0.166762"},"context":"","outcome_status":{"category":"Status update unavailable","date":"2017-08"},"persistent_id":"aa405c47296bfe113589b7e2df0aee5168ecae4eb97e98e875ca4823a2ee517a","id":56290920,"location_subtype":"","month":"2017-04"},{"category":"vehicle-crime","location_type":"Force","location":{"latitude":"51.443929","street":{"id":939544,"name":"On or near Herondale Avenue"},"longitude":"-0.173967"},"context":"","outcome_status":{"category":"Investigation complete; no suspect identified","date":"2017-04"},"persistent_id":"c7c9ee5b1066c419fbf2a25597a9b1973f433a03c9af1208a9cfa5d66d574fe5","id":56281501,"location_subtype":"","month":"2017-04"},{"category":"vehicle-crime","location_type":"Force","location":{"latitude":"51.454901","street":{"id":943066,"name":"On or near Quarry Road"},"longitude":"-0.181517"},"context":"","outcome_status":{"category":"Status update unavailable","date":"2017-08"},"persistent_id":"f410297b7ee0f58078c0afd23b126005ea459d68766f0e79d8020fb6dc3a1fa8","id":56219197,"location_subtype":"","month":"2017-04"},{"category":"vehicle-crime","location_type":"Force","location":{"latitude":"51.442199","street":{"id":939552,"name":"On or near Broadgates Road"},"longitude":"-0.175446"},"context":"","outcome_status":{"category":"Status update unavailable","date":"2017-08"},"persistent_id":"0322c8f1f16bf786efebfd1ee7c625ff4a39185ba57ed1e033ae4501a9b04617","id":56291003,"location_subtype":"","month":"2017-04"},{"category":"vehicle-crime","location_type":"Force","location":{"latitude":"51.457252","street":{"id":943004,"name":"On or near Spencer Park"},"longitude":"-0.174817"},"context":"","outcome_status":{"category":"Status update unavailable","date":"2017-08"},"persistent_id":"0d52a3952b56f0fd48dda8db2a5cfe5962e8248e3208533b353af2f2a18fa54f","id":56297389,"location_subtype":"","month":"2017-04"},{"category":"vehicle-crime","location_type":"Force","location":{"latitude":"51.449293","street":{"id":939469,"name":"On or near Kingham Close"},"longitude":"-0.186403"},"context":"","outcome_status":{"category":"Status update unavailable","date":"2017-08"},"persistent_id":"62b33e7997de56085c72f6e7dbffe11124b5976fb6b69e6f3f162e33dd10f0fb","id":56241666,"location_subtype":"","month":"2017-04"},{"category":"vehicle-crime","location_type":"Force","location":{"latitude":"51.454074","street":{"id":943057,"name":"On or near Heathfield Gardens"},"longitude":"-0.180384"},"context":"","outcome_status":{"category":"Status update unavailable","date":"2017-08"},"persistent_id":"5c9b48fef1293dbae82233ee33696ef8b03e1fea704090accccc39249dbd3b93","id":56246390,"location_subtype":"","month":"2017-04"},{"category":"vehicle-crime","location_type":"Force","location":{"latitude":"51.454901","street":{"id":943066,"name":"On or near Quarry Road"},"longitude":"-0.181517"},"context":"","outcome_status":{"category":"Status update unavailable","date":"2017-08"},"persistent_id":"700933a20b88082aea0ab54e78f48115e1c7686992fd2bc89c73388780635284","id":56286773,"location_subtype":"","month":"2017-04"},{"category":"vehicle-crime","location_type":"Force","location":{"latitude":"51.436359","street":{"id":937643,"name":"On or near Bevin Square"},"longitude":"-0.165420"},"context":"","outcome_status":{"category":"Investigation complete; no suspect identified","date":"2017-05"},"persistent_id":"91b9ccdbc87901c1884069cebfba40b7273ba7524cb4920ff15610fba15726d9","id":56283811,"location_subtype":"","month":"2017-04"},{"category":"vehicle-crime","location_type":"Force","location":{"latitude":"51.439692","street":{"id":937617,"name":"On or near St Hughes Close"},"longitude":"-0.170409"},"context":"","outcome_status":{"category":"Investigation complete; no suspect identified","date":"2017-11"},"persistent_id":"095c32c31bc0488c517b3412b7757bc24ad0bff8d04418b0385e6f4776cdb0bd","id":56292376,"location_subtype":"","month":"2017-04"},{"category":"vehicle-crime","location_type":"Force","location":{"latitude":"51.451071","street":{"id":939494,"name":"On or near Jeypore Road"},"longitude":"-0.183929"},"context":"","outcome_status":{"category":"Status update unavailable","date":"2017-08"},"persistent_id":"62db04f9658acfe10bd7adafce1d4eba0ad558f5f00a460350b0d0784f472cfb","id":56293183,"location_subtype":"","month":"2017-04"},{"category":"vehicle-crime","location_type":"Force","location":{"latitude":"51.449063","street":{"id":939430,"name":"On or near Nicosia Road"},"longitude":"-0.171589"},"context":"","outcome_status":{"category":"Investigation complete; no suspect identified","date":"2017-04"},"persistent_id":"9862edb0ff3fbee63cf1ef78a72f75615f2cb50ef955565d091715e6f7cedf0a","id":56285236,"location_subtype":"","month":"2017-04"},{"category":"vehicle-crime","location_type":"Force","location":{"latitude":"51.446089","street":{"id":939431,"name":"On or near Lyford Road"},"longitude":"-0.172902"},"context":"","outcome_status":{"category":"Investigation complete; no suspect identified","date":"2017-05"},"persistent_id":"ae6857f5d7be5b9009c3bcc7ca5e76c09f04988915063b65e022da5aff135f64","id":56226787,"location_subtype":"","month":"2017-04"},{"category":"vehicle-crime","location_type":"Force","location":{"latitude":"51.452850","street":{"id":939443,"name":"On or near Kershaw Close"},"longitude":"-0.180879"},"context":"","outcome_status":{"category":"Investigation complete; no suspect identified","date":"2017-05"},"persistent_id":"f0d9ddd6495e99537c96dcf1912c1e0a10aaed5ad73f257ef3799013fbfbe6a3","id":56227563,"location_subtype":"","month":"2017-04"},{"category":"vehicle-crime","location_type":"Force","location":{"latitude":"51.449545","street":{"id":939447,"name":"On or near Carmichael Mews"},"longitude":"-0.174793"},"context":"","outcome_status":{"category":"Investigation complete; no suspect identified","date":"2017-05"},"persistent_id":"28232141496fa231be7380848def277a06ae88ae8d44955e17e864793f13b29d","id":56300345,"location_subtype":"","month":"2017-04"},{"category":"vehicle-crime","location_type":"Force","location":{"latitude":"51.453206","street":{"id":939493,"name":"On or near Killarney Road"},"longitude":"-0.183571"},"context":"","outcome_status":{"category":"Status update unavailable","date":"2017-08"},"persistent_id":"03b406afdc7ba8ea6f948bc79a314dd1356b537e5b19821a5dceb1a35e15b6ba","id":56231446,"location_subtype":"","month":"2017-04"},{"category":"vehicle-crime","location_type":"Force","location":{"latitude":"51.455924","street":{"id":943067,"name":"On or near Melody Road"},"longitude":"-0.183103"},"context":"","outcome_status":{"category":"Investigation complete; no suspect identified","date":"2017-05"},"persistent_id":"9599fb2a0187e5093ee908e3e47df53e5fae4b5e213f90c54d14aa06780973f7","id":56301530,"location_subtype":"","month":"2017-04"},{"category":"vehicle-crime","location_type":"Force","location":{"latitude":"51.443817","street":{"id":939641,"name":"On or near Wiseton Road"},"longitude":"-0.166762"},"context":"","outcome_status":{"category":"Investigation complete; no suspect identified","date":"2017-07"},"persistent_id":"e89920307eafdc2aa4f34c2269c0681490705231ad7c98c3f5c67686211df473","id":56224650,"location_subtype":"","month":"2017-04"},{"category":"violent-crime","location_type":"Force","location":{"latitude":"51.452850","street":{"id":939443,"name":"On or near Kershaw Close"},"longitude":"-0.180879"},"context":"","outcome_status":{"category":"Investigation complete; no suspect identified","date":"2017-05"},"persistent_id":"900cd3f4a101b2e092cc4947bc0bff059148d9a8bc190981a5bacc396b636bda","id":56221838,"location_subtype":"","month":"2017-04"},{"category":"violent-crime","location_type":"Force","location":{"latitude":"51.452428","street":{"id":939487,"name":"On or near Swanage Road"},"longitude":"-0.183242"},"context":"","outcome_status":{"category":"Investigation complete; no suspect identified","date":"2017-09"},"persistent_id":"bd38adbb7cbac4dcc70e3e5dd35bb6578d231708c4e9aeba0dbc3e2ca08c9140","id":56291832,"location_subtype":"","month":"2017-04"},{"category":"violent-crime","location_type":"Force","location":{"latitude":"51.435693","street":{"id":937632,"name":"On or near Glenburnie Road"},"longitude":"-0.167073"},"context":"","outcome_status":{"category":"Investigation complete; no suspect identified","date":"2017-05"},"persistent_id":"f74dfc03d7b56d2f0188a3cac941397e329ea4c43131a6ddb4629378b4c1950d","id":56283153,"location_subtype":"","month":"2017-04"},{"category":"violent-crime","location_type":"Force","location":{"latitude":"51.454817","street":{"id":943074,"name":"On or near Geraldine Road"},"longitude":"-0.183665"},"context":"","outcome_status":{"category":"Defendant found not guilty","date":"2017-11"},"persistent_id":"c46baa0deee9e6dce6241c512ffb868c2cf219780539fe8a2c7cd1a9bed067dc","id":56301016,"location_subtype":"","month":"2017-04"},{"category":"violent-crime","location_type":"Force","location":{"latitude":"51.452389","street":{"id":939446,"name":"On or near Fitzhugh Grove"},"longitude":"-0.175515"},"context":"","outcome_status":{"category":"Investigation complete; no suspect identified","date":"2017-07"},"persistent_id":"cade047209521edaad7e58921a7a6b907df4672c1df0b530e3e8ac21b372dd8f","id":56298413,"location_subtype":"","month":"2017-04"},{"category":"violent-crime","location_type":"Force","location":{"latitude":"51.435693","street":{"id":937632,"name":"On or near Glenburnie Road"},"longitude":"-0.167073"},"context":"","outcome_status":{"category":"Investigation complete; no suspect identified","date":"2017-04"},"persistent_id":"07a5778f6b8f7002b452acd6cc67f47ad8964e480fcb487b19f01637673d79b2","id":56286876,"location_subtype":"","month":"2017-04"},{"category":"violent-crime","location_type":"Force","location":{"latitude":"51.435693","street":{"id":937632,"name":"On or near Glenburnie Road"},"longitude":"-0.167073"},"context":"","outcome_status":{"category":"Investigation complete; no suspect identified","date":"2017-04"},"persistent_id":"1adc43bafec5a1ebb42c7c7a35cbe9b09d398f9a11569c456dd900ec6543c3fc","id":56222686,"location_subtype":"","month":"2017-04"},{"category":"violent-crime","location_type":"Force","location":{"latitude":"51.453206","street":{"id":939493,"name":"On or near Killarney Road"},"longitude":"-0.183571"},"context":"","outcome_status":{"category":"Investigation complete; no suspect identified","date":"2017-04"},"persistent_id":"01e6aa84d7eeebe41d3626be8436be59abf3365f495332d6cadd92f53235f945","id":56222022,"location_subtype":"","month":"2017-04"},{"category":"violent-crime","location_type":"Force","location":{"latitude":"51.452389","street":{"id":939446,"name":"On or near Fitzhugh Grove"},"longitude":"-0.175515"},"context":"","outcome_status":{"category":"Status update unavailable","date":"2017-08"},"persistent_id":"cade047209521edaad7e58921a7a6b907df4672c1df0b530e3e8ac21b372dd8f","id":56298411,"location_subtype":"","month":"2017-04"},{"category":"violent-crime","location_type":"Force","location":{"latitude":"51.435693","street":{"id":937632,"name":"On or near Glenburnie Road"},"longitude":"-0.167073"},"context":"","outcome_status":{"category":"Status update unavailable","date":"2017-08"},"persistent_id":"aef6abedb88f1b8f35c2b366964ff39d14cb22a91f775c18c44f8a76f92410b6","id":56224574,"location_subtype":"","month":"2017-04"},{"category":"violent-crime","location_type":"Force","location":{"latitude":"51.435693","street":{"id":937632,"name":"On or near Glenburnie Road"},"longitude":"-0.167073"},"context":"","outcome_status":{"category":"Status update unavailable","date":"2017-08"},"persistent_id":"55d0cb169f42eb1ced49449e922f68eecb8709a020bd9eba9991f2ea5b1e92fd","id":56227855,"location_subtype":"","month":"2017-04"},{"category":"violent-crime","location_type":"Force","location":{"latitude":"51.451163","street":{"id":939500,"name":"On or near Daphne Street"},"longitude":"-0.187524"},"context":"","outcome_status":{"category":"Investigation complete; no suspect identified","date":"2017-05"},"persistent_id":"7d6b27b0af1d609a3e8f2b720a09e19465c72a2ec179dc6923d3bdb8c281d341","id":56229870,"location_subtype":"","month":"2017-04"},{"category":"violent-crime","location_type":"Force","location":{"latitude":"51.435693","street":{"id":937632,"name":"On or near Glenburnie Road"},"longitude":"-0.167073"},"context":"","outcome_status":{"category":"Investigation complete; no suspect identified","date":"2017-06"},"persistent_id":"c46985f39c02a9ab6fabf60b3b2e627cf900a03f0443552afe50cffacf8aecfa","id":56277090,"location_subtype":"","month":"2017-04"},{"category":"violent-crime","location_type":"Force","location":{"latitude":"51.440909","street":{"id":939546,"name":"On or near Gunners Road"},"longitude":"-0.176318"},"context":"","outcome_status":{"category":"Court result unavailable","date":"2018-03"},"persistent_id":"8b9ad646ac6b13a3ce664cb59c5acd175b55f687c1af0c8b6ab5428f10ee4445","id":56235537,"location_subtype":"","month":"2017-04"},{"category":"violent-crime","location_type":"Force","location":{"latitude":"51.435693","street":{"id":937632,"name":"On or near Glenburnie Road"},"longitude":"-0.167073"},"context":"","outcome_status":{"category":"Investigation complete; no suspect identified","date":"2017-06"},"persistent_id":"10f0880b7e7ce65652d4dbcca53971a9753551ff28918453f3ca8203005a24a6","id":56295755,"location_subtype":"","month":"2017-04"},{"category":"violent-crime","location_type":"Force","location":{"latitude":"51.451688","street":{"id":939504,"name":"On or near Cader Road"},"longitude":"-0.184840"},"context":"","outcome_status":{"category":"Investigation complete; no suspect identified","date":"2017-05"},"persistent_id":"86d8b14c2b1b0409d2091b0b53e30f7552b8439e9031aa3bba47f7664a8d5072","id":56238060,"location_subtype":"","month":"2017-04"},{"category":"violent-crime","location_type":"Force","location":{"latitude":"51.453981","street":{"id":943056,"name":"On or near John Archer Way"},"longitude":"-0.174976"},"context":"","outcome_status":{"category":"Investigation complete; no suspect identified","date":"2017-05"},"persistent_id":"c5be017deda7440a15e01e1ec5e9660af15130098b92335333db62686e00a88c","id":56222684,"location_subtype":"","month":"2017-04"},{"category":"violent-crime","location_type":"Force","location":{"latitude":"51.457252","street":{"id":943004,"name":"On or near Spencer Park"},"longitude":"-0.174817"},"context":"","outcome_status":{"category":"Investigation complete; no suspect identified","date":"2017-06"},"persistent_id":"4a4dc6428b0afcc55cc596f25b5f295bff8acbd0c65e57bb69de3f9f2a451c3c","id":56227740,"location_subtype":"","month":"2017-04"},{"category":"violent-crime","location_type":"Force","location":{"latitude":"51.435693","street":{"id":937632,"name":"On or near Glenburnie Road"},"longitude":"-0.167073"},"context":"","outcome_status":{"category":"Investigation complete; no suspect identified","date":"2017-06"},"persistent_id":"f9a87720c926abdd22bcc9fa7ba0b77d997a6b2e5f79fd2b17b2b4ac7694f59f","id":56227058,"location_subtype":"","month":"2017-04"},{"category":"violent-crime","location_type":"Force","location":{"latitude":"51.451550","street":{"id":939445,"name":"On or near Heathfield Road"},"longitude":"-0.177117"},"context":"","outcome_status":{"category":"Investigation complete; no suspect identified","date":"2017-06"},"persistent_id":"60046d573f2e8413d903008c739097d1e47b8b69937c15129d3e62fc8e2da46f","id":56248503,"location_subtype":"","month":"2017-04"},{"category":"violent-crime","location_type":"Force","location":{"latitude":"51.448232","street":{"id":939453,"name":"On or near Wilna Road"},"longitude":"-0.184675"},"context":"","outcome_status":{"category":"Investigation complete; no suspect identified","date":"2017-05"},"persistent_id":"487c24ac8026f7a159852e00edad9679497e761c45f05b4a70e095d7f73dfacf","id":56275126,"location_subtype":"","month":"2017-04"},{"category":"violent-crime","location_type":"Force","location":{"latitude":"51.435693","street":{"id":937632,"name":"On or near Glenburnie Road"},"longitude":"-0.167073"},"context":"","outcome_status":{"category":"Status update unavailable","date":"2017-08"},"persistent_id":"143f221f6abe74f1b16c5e3fb55a458f29666b40f3cd995c7a56575751f88eda","id":56284540,"location_subtype":"","month":"2017-04"},{"category":"violent-crime","location_type":"Force","location":{"latitude":"51.452389","street":{"id":939446,"name":"On or near Fitzhugh Grove"},"longitude":"-0.175515"},"context":"","outcome_status":{"category":"Investigation complete; no suspect identified","date":"2017-05"},"persistent_id":"8b84d10c7a7de32248ca7364f192fb5884d710503538b30c718dddc48d9aedf9","id":56279107,"location_subtype":"","month":"2017-04"},{"category":"violent-crime","location_type":"Force","location":{"latitude":"51.435693","street":{"id":937632,"name":"On or near Glenburnie Road"},"longitude":"-0.167073"},"context":"","outcome_status":{"category":"Investigation complete; no suspect identified","date":"2017-05"},"persistent_id":"193d253bf985dece59c5a9b76f4208f1820b298cd8fd5681b39d25aa4d2713c4","id":56281456,"location_subtype":"","month":"2017-04"},{"category":"violent-crime","location_type":"Force","location":{"latitude":"51.449545","street":{"id":939447,"name":"On or near Carmichael Mews"},"longitude":"-0.174793"},"context":"","outcome_status":{"category":"Investigation complete; no suspect identified","date":"2017-12"},"persistent_id":"6e2fd32c1faafacd11bc110cec030a32704d0e567d9539a838cca7a3b60bfa90","id":56229697,"location_subtype":"","month":"2017-04"},{"category":"violent-crime","location_type":"Force","location":{"latitude":"51.449545","street":{"id":939447,"name":"On or near Carmichael Mews"},"longitude":"-0.174793"},"context":"","outcome_status":{"category":"Investigation complete; no suspect identified","date":"2017-11"},"persistent_id":"2e14de5e55ccfc358f5ca53505cc77e098ce0ddd8ef62b872a818d99446de341","id":56288656,"location_subtype":"","month":"2017-04"},{"category":"violent-crime","location_type":"Force","location":{"latitude":"51.449774","street":{"id":939557,"name":"On or near Henderson Road"},"longitude":"-0.172208"},"context":"","outcome_status":{"category":"Investigation complete; no suspect identified","date":"2017-05"},"persistent_id":"b83d22016381d6819964e0b4a10660fb128fe1515382aa0c26a8137c47057db0","id":56301304,"location_subtype":"","month":"2017-04"},{"category":"other-crime","location_type":"Force","location":{"latitude":"51.449545","street":{"id":939447,"name":"On or near Carmichael Mews"},"longitude":"-0.174793"},"context":"","outcome_status":{"category":"Investigation complete; no suspect identified","date":"2017-05"},"persistent_id":"1106e9f03f8ed0e22aef08d65067d2dc067dd216340528a4312a5cb499541485","id":56284362,"location_subtype":"","month":"2017-04"},{"category":"other-crime","location_type":"Force","location":{"latitude":"51.449545","street":{"id":939447,"name":"On or near Carmichael Mews"},"longitude":"-0.174793"},"context":"","outcome_status":{"category":"Offender given suspended prison sentence","date":"2017-05"},"persistent_id":"8e797a252d303e71efdd6e91bf38358067c2890e92db33177deda531333f91a7","id":56285692,"location_subtype":"","month":"2017-04"},{"category":"other-crime","location_type":"Force","location":{"latitude":"51.448500","street":{"id":923534,"name":"On or near Groom Crescent"},"longitude":"-0.179887"},"context":"","outcome_status":{"category":"Status update unavailable","date":"2017-08"},"persistent_id":"2d7c38a0360d76b285e3ba3f0a2ccaf1447e9ae5819ba6ca70db09bed001b8d4","id":56228209,"location_subtype":"","month":"2017-04"},{"category":"other-crime","location_type":"Force","location":{"latitude":"51.449545","street":{"id":939447,"name":"On or near Carmichael Mews"},"longitude":"-0.174793"},"context":"","outcome_status":{"category":"Defendant found not guilty","date":"2018-01"},"persistent_id":"eaa6e929e2899927c02dd740b3543927b09a4890e292360357e03ec16fbadb39","id":56300515,"location_subtype":"","month":"2017-04"}]