[{"category":"anti-social-behaviour","location_type":"Force","location":{"latitude":"51.575330","street":{"id":975369,"name":"On or near Longfellow Road"},"longitude":"-0.025845"},"context":"","outcome_status":null,"persistent_id":"","id":48468831,"location_subtype":"","month":"2016-04"},{"category":"anti-social-behaviour","location_type":"Force","location":{"latitude":"51.575330","street":{"id":975369,"name":"On or near Longfellow Road"},"longitude":"-0.025845"},"context":"","outcome_status":null,"persistent_id":"","id":48468832,"location_subtype":"","month":"2016-04"},{"category":"anti-social-behaviour","location_type":"Force","location":{"latitude":"51.577269","street":{"id":975358,"name":"On or near Richmond Close"},"longitude":"-0.025083"},"context":"","outcome_status":null,"persistent_id":"","id":48468833,"location_subtype":"","month":"2016-04"},{"category":"anti-social-behaviour","location_type":"Force","location":{"latitude":"51.577269","street":{"id":975358,"name":"On or near Richmond Close"},"longitude":"-0.025083"},"context":"","outcome_status":null,"persistent_id":"","id":48468834,"location_subtype":"","month":"2016-04"},{"category":"anti-social-behaviour","location_type":"Force","location":{"latitude":"51.581657","street":{"id":975366,"name":"On or near Netley Road"},"longitude":"-0.026163"},"context":"","outcome_status":null,"persistent_id":"","id":48468836,"location_subtype":"","month":"2016-04"},{"category":"anti-social-behaviour","location_type":"Force","location":{"latitude":"51.573935","street":{"id":975415,"name":"On or near Alexandra Road"},"longitude":"-0.026844"},"context":"","outcome_status":null,"persistent_id":"","id":48468840,"location_subtype":"","month":"2016-04"},{"category":"anti-social-behaviour","location_type":"Force","location":{"latitude":"51.579538","street":{"id":975413,"name":"On or near Arkley Road"},"longitude":"-0.030123"},"context":"","outcome_status":null,"persistent_id":"","id":48468872,"location_subtype":"","month":"2016-04"},{"category":"anti-social-behaviour","location_type":"Force","location":{"latitude":"51.579538","street":{"id":975413,"name":"On or near Arkley Road"},"longitude":"-0.030123"},"context":"","outcome_status":null,"persistent_id":"","id":48468873,"location_subtype":"","month":"2016-04"},{"category":"anti-social-behaviour","location_type":"Force","location":{"latitude":"51.575288","street":{"id":975447,"name":"On or near Acacia Road"},"longitude":"-0.031937"},"context":"","outcome_status":null,"persistent_id":"","id":48468881,"location_subtype":"","month":"2016-04"},{"category":"anti-social-behaviour","location_type":"Force","location":{"latitude":"51.579926","street":{"id":975436,"name":"On or near St James's Street"},"longitude":"-0.031809"},"context":"","outcome_status":null,"persistent_id":"","id":48468886,"location_subtype":"","month":"2016-04"},{"category":"anti-social-behaviour","location_type":"Force","location":{"latitude":"51.578035","street":{"id":975460,"name":"On or near Markhouse Avenue"},"longitude":"-0.032685"},"context":"","outcome_status":null,"persistent_id":"","id":48468887,"location_subtype":"","month":"2016-04"},{"category":"anti-social-behaviour","location_type":"Force","location":{"latitude":"51.579520","street":{"id":975466,"name":"On or near Grange Road"},"longitude":"-0.034367"},"context":"","outcome_status":null,"persistent_id":"","id":48468889,"location_subtype":"","month":"2016-04"},{"category":"anti-social-behaviour","location_type":"Force","location":{"latitude":"51.578959","street":{"id":975461,"name":"On or near Lynmouth Road"},"longitude":"-0.035228"},"context":"","outcome_status":null,"persistent_id":"","id":48468892,"location_subtype":"","month":"2016-04"},{"category":"anti-social-behaviour","location_type":"Force","location":{"latitude":"51.573935","street":{"id":975415,"name":"On or near Alexandra Road"},"longitude":"-0.026844"},"context":"","outcome_status":null,"persistent_id":"","id":48468841,"location_subtype":"","month":"2016-04"},{"category":"anti-social-behaviour","location_type":"Force","location":{"latitude":"51.578231","street":{"id":975347,"name":"On or near Somerset Road"},"longitude":"-0.021375"},"context":"","outcome_status":null,"persistent_id":"","id":48468790,"location_subtype":"","month":"2016-04"},{"category":"anti-social-behaviour","location_type":"Force","location":{"latitude":"51.575944","street":{"id":975344,"name":"On or near St Barnabas Road"},"longitude":"-0.020667"},"context":"","outcome_status":null,"persistent_id":"","id":48468795,"location_subtype":"","month":"2016-04"},{"category":"anti-social-behaviour","location_type":"Force","location":{"latitude":"51.579977","street":{"id":975368,"name":"On or near Lorne Road"},"longitude":"-0.022512"},"context":"","outcome_status":null,"persistent_id":"","id":48468802,"location_subtype":"","month":"2016-04"},{"category":"anti-social-behaviour","location_type":"Force","location":{"latitude":"51.575330","street":{"id":975369,"name":"On or near Longfellow Road"},"longitude":"-0.025845"},"context":"","outcome_status":null,"persistent_id":"","id":48468830,"location_subtype":"","month":"2016-04"},{"category":"anti-social-behaviour","location_type":"Force","location":{"latitude":"51.576792","street":{"id":975384,"name":"On or near Gandhi Close"},"longitude":"-0.017642"},"context":"","outcome_status":null,"persistent_id":"","id":48468214,"location_subtype":"","month":"2016-04"},{"category":"anti-social-behaviour","location_type":"Force","location":{"latitude":"51.576792","street":{"id":975384,"name":"On or near Gandhi Close"},"longitude":"-0.017642"},"context":"","outcome_status":null,"persistent_id":"","id":48468215,"location_subtype":"","month":"2016-04"},{"category":"anti-social-behaviour","location_type":"Force","location":{"latitude":"51.574145","street":{"id":975336,"name":"On or near Verulam Avenue"},"longitude":"-0.029707"},"context":"","outcome_status":null,"persistent_id":"","id":48468848,"location_subtype":"","month":"2016-04"},{"category":"anti-social-behaviour","location_type":"Force","location":{"latitude":"51.580848","street":{"id":975323,"name":"On or near Parking Area"},"longitude":"-0.029908"},"context":"","outcome_status":null,"persistent_id":"","id":48468871,"location_subtype":"","month":"2016-04"},{"category":"burglary","location_type":"Force","location":{"latitude":"51.580848","street":{"id":975323,"name":"On or near Parking Area"},"longitude":"-0.029908"},"context":"","outcome_status":{"category":"Investigation complete; no suspect identified","date":"2016-05"},"persistent_id":"349a7e956040d69bd5d07a62512292d5997bb5ee84599629ea5014c6523c7a1d","id":48541264,"location_subtype":"","month":"2016-04"},{"category":"burglary","location_type":"Force","location":{"latitude":"51.580332","street":{"id":975409,"name":"On or near Beatrice Road"},"longitude":"-0.019538"},"context":"","outcome_status":{"category":"Status update unavailable","date":"2016-08"},"persistent_id":"3565b346b0dd160654656ad2660fac70a52f260a1f4599d7cf80b38718d0abcb","id":48549476,"location_subtype":"","month":"2016-04"},{"category":"burglary","location_type":"Force","location":{"latitude":"51.576275","street":{"id":975334,"name":"On or near Wellesley Road"},"longitude":"-0.020046"},"context":"","outcome_status":{"category":"Investigation complete; no suspect identified","date":"2016-12"},"persistent_id":"be544323e611dbb9d242d9a649bb7ecaefe403fff53b5c1f2586e4aa73cd5433","id":48567593,"location_subtype":"","month":"2016-04"},{"category":"burglary","location_type":"Force","location":{"latitude":"51.579317","street":{"id":975445,"name":"On or near Ansar Gardens"},"longitude":"-0.030883"},"context":"","outcome_status":{"category":"Status update unavailable","date":"2016-08"},"persistent_id":"e0f21a500c339d41dc144238f6b0f60cb7d8f5498ee8773998e5e3f5242e19cd","id":48542926,"location_subtype":"","month":"2016-04"},{"category":"burglary","location_type":"Force","location":{"latitude":"51.574327","street":{"id":975410,"name":"On or near Beaconsfield Road"},"longitude":"-0.025023"},"context":"","outcome_status":{"category":"Status update unavailable","date":"2016-08"},"persistent_id":"a81a3cf417f76438194a226d64a04285cc2d91ce5e92f8331fe3c998a55f63d1","id":48509997,"location_subtype":"","month":"2016-04"},{"category":"burglary","location_type":"Force","location":{"latitude":"51.578813","street":{"id":975331,"name":"On or near Yunus Khan Close"},"longitude":"-0.019633"},"context":"","outcome_status":{"category":"Status update unavailable","date":"2016-08"},"persistent_id":"d467d197db7ddcaae70332aec7a0d199cba37a3654eadbaf5a02e96380d486b5","id":48479198,"location_subtype":"","month":"2016-04"},{"category":"burglary","location_type":"Force","location":{"latitude":"51.579349","street":{"id":975379,"name":"On or near Helena Road"},"longitude":"-0.023117"},"context":"","outcome_status":{"category":"Offender sent to prison","date":"2016-12"},"persistent_id":"a16dc75ac72d14c4c30a5a32af91e3e5ecaf8165a19170ce98515c45ac74088b","id":48513645,"location_subtype":"","month":"2016-04"},{"category":"burglary","location_type":"Force","location":{"latitude":"51.575330","street":{"id":975369,"name":"On or near Longfellow Road"},"longitude":"-0.025845"},"context":"","outcome_status":{"category":"Investigation complete; no suspect identified","date":"2016-05"},"persistent_id":"34a8734d7d66f7821b3bbd85ac120f20b7d3d8f9fc66e49a099beed7a1e6cdb9","id":48500110,"location_subtype":"","month":"2016-04"},{"category":"burglary","location_type":"Force","location":{"latitude":"51.580096","street":{"id":975371,"name":"On or near Leopold Road"},"longitude":"-0.020501"},"context":"","outcome_status":{"category":"Status update unavailable","date":"2016-08"},"persistent_id":"21193c8c46201b1f440de4515a8f4449a01ceb73fd45b44bef7e18d48831ba68","id":48554388,"location_subtype":"","month":"2016-04"},{"category":"criminal-damage-arson","location_type":"Force","location":{"latitude":"51.575330","street":{"id":975369,"name":"On or near Longfellow Road"},"longitude":"-0.025845"},"context":"","outcome_status":{"category":"Investigation complete; no suspect identified","date":"2016-04"},"persistent_id":"e774b153612e65fc2e84edbcb953a7358ab6360fc2b04de5f1b877c3f00c6d4e","id":48509256,"location_subtype":"","month":"2016-04"},{"category":"criminal-damage-arson","location_type":"Force","location":{"latitude":"51.580219","street":{"id":975468,"name":"On or near Frederic Street"},"longitude":"-0.033687"},"context":"","outcome_status":{"category":"Status update unavailable","date":"2016-08"},"persistent_id":"6e03db359cdf392319560dc5ecb3ab48442b210aa56761e77c386d7d2c6b6daa","id":48506425,"location_subtype":"","month":"2016-04"},{"category":"criminal-damage-arson","location_type":"Force","location":{"latitude":"51.577258","street":{"id":975375,"name":"On or near Kirk Road"},"longitude":"-0.024463"},"context":"","outcome_status":{"category":"Investigation complete; no suspect identified","date":"2016-10"},"persistent_id":"9ecdd23288119105f8b04c5b1de9270671d4389deefac1f0a0457acaef47f20c","id":48510252,"location_subtype":"","month":"2016-04"},{"category":"drugs","location_type":"Force","location":{"latitude":"51.577351","street":{"id":975469,"name":"On or near Forster Road"},"longitude":"-0.035370"},"context":"","outcome_status":{"category":"Offender given a drugs possession warning","date":"2016-04"},"persistent_id":"493eb74890f0f86238c445a48ddcc471f5bdd5546e8eebcdf0b44efdf916b1c4","id":48502852,"location_subtype":"","month":"2016-04"},{"category":"drugs","location_type":"Force","location":{"latitude":"51.580806","street":{"id":975444,"name":"On or near Brunner Road"},"longitude":"-0.031151"},"context":"","outcome_status":{"category":"Offender given a drugs possession warning","date":"2016-04"},"persistent_id":"c35f05381acccf71dc9d847b38f145fbd5a9bcc8ffa19e31977870ac662af01d","id":48553548,"location_subtype":"","month":"2016-04"},{"category":"drugs","location_type":"Force","location":{"latitude":"51.573364","street":{"id":975341,"name":"On or near Sylvester Road"},"longitude":"-0.027100"},"context":"","outcome_status":{"category":"Offender given a drugs possession warning","date":"2016-04"},"persistent_id":"4c9dace8fae91ed351c1efd728e898e6ecbd39a4595b0d262c22638540c39eef","id":48495453,"location_subtype":"","month":"2016-04"},{"category":"drugs","location_type":"Force","location":{"latitude":"51.575330","street":{"id":975369,"name":"On or near Longfellow Road"},"longitude":"-0.025845"},"context":"","outcome_status":{"category":"Offender given a caution","date":"2016-04"},"persistent_id":"ce4ea5d20d68101d34c6a38e2821b3b69f85c8d6e8dd4ed02589b19a1628349d","id":48554303,"location_subtype":"","month":"2016-04"},{"category":"drugs","location_type":"Force","location":{"latitude":"51.578231","street":{"id":975347,"name":"On or near Somerset Road"},"longitude":"-0.021375"},"context":"","outcome_status":{"category":"Offender given a drugs possession warning","date":"2016-04"},"persistent_id":"eeb35ca2552a5d9fe8606108b386286d718557ffc6e39971d71b2deab2f9e281","id":48513153,"location_subtype":"","month":"2016-04"},{"category":"drugs","location_type":"Force","location":{"latitude":"51.574893","street":{"id":975385,"name":"On or near Gamuel Close"},"longitude":"-0.023411"},"context":"","outcome_status":{"category":"Offender given a drugs possession warning","date":"2016-04"},"persistent_id":"804f03a836c8e8156c7917afdad264bdcb208f902e88b8aff52edc8bbe49a12e","id":48567819,"location_subtype":"","month":"2016-04"},{"category":"drugs","location_type":"Force","location":{"latitude":"51.575330","street":{"id":975369,"name":"On or near Longfellow Road"},"longitude":"-0.025845"},"context":"","outcome_status":{"category":"Offender given a drugs possession warning","date":"2016-05"},"persistent_id":"ee06362e653c9430ad594f0f1cfd94cb51bed901f4cf2d6109d454ce40b0f0cd","id":48516941,"location_subtype":"","month":"2016-04"},{"category":"drugs","location_type":"Force","location":{"latitude":"51.576792","street":{"id":975384,"name":"On or near Gandhi Close"},"longitude":"-0.017642"},"context":"","outcome_status":{"category":"Offender given a drugs possession warning","date":"2016-04"},"persistent_id":"2cd13e4b82eca54152c9e1bbdf59d28d98e32825af72a87e900f94af12651adf","id":48523352,"location_subtype":"","month":"2016-04"},{"category":"other-theft","location_type":"Force","location":{"latitude":"51.575871","street":{"id":975419,"name":"On or near Petrol Station"},"longitude":"-0.030209"},"context":"","outcome_status":{"category":"Investigation complete; no suspect identified","date":"2016-05"},"persistent_id":"fa859e5d3fe9d0c20f86122b77f25d6bea67c87d807e74516fcebf3926a091c0","id":48511535,"location_subtype":"","month":"2016-04"},{"category":"other-theft","location_type":"Force","location":{"latitude":"51.575871","street":{"id":975419,"name":"On or near Petrol Station"},"longitude":"-0.030209"},"context":"","outcome_status":{"category":"Investigation complete; no suspect identified","date":"2016-05"},"persistent_id":"090cd010d55c61296fe8a9f594e37230d5cf6a16a4dd26708238d073a0c37a1b","id":48510365,"location_subtype":"","month":"2016-04"},{"category":"other-theft","location_type":"Force","location":{"latitude":"51.575871","street":{"id":975419,"name":"On or near Petrol Station"},"longitude":"-0.030209"},"context":"","outcome_status":{"category":"Investigation complete; no suspect identified","date":"2016-06"},"persistent_id":"5c19add685fcfeea40d702d62892aa9bda023e8a924a34d4707f4ae0dca2758b","id":48506006,"location_subtype":"","month":"2016-04"},{"category":"other-theft","location_type":"Force","location":{"latitude":"51.575871","street":{"id":975419,"name":"On or near Petrol Station"},"longitude":"-0.030209"},"context":"","outcome_status":{"category":"Investigation complete; no suspect identified","date":"2016-05"},"persistent_id":"49ba510164ff9fd6c7f943a155c6dbccfd8f11737cba2b8e6fc2ff8ec2329497","id":48513154,"location_subtype":"","month":"2016-04"},{"category":"other-theft","location_type":"Force","location":{"latitude":"51.575871","street":{"id":975419,"name":"On or near Petrol Station"},"longitude":"-0.030209"},"context":"","outcome_status":{"category":"Investigation complete; no suspect identified","date":"2016-07"},"persistent_id":"ac747a490a0c59ff4d8df1c766a15ce5b2b6b3d861a1d17f6ef1f4fcb50a7f7f","id":48558870,"location_subtype":"","month":"2016-04"},{"category":"other-theft","location_type":"BTP","location":{"latitude":"51.581500","street":{"id":1486835,"name":"Walthamstow Queens Road (station)"},"longitude":"-0.023828"},"context":"","outcome_status":{"category":"Status update unavailable","date":"2016-08"},"persistent_id":"","id":64822039,"location_subtype":"STATION","month":"2016-04"},{"category":"other-theft","location_type":"Force","location":{"latitude":"51.573364","street":{"id":975341,"name":"On or near Sylvester Road"},"longitude":"-0.027100"},"context":"","outcome_status":{"category":"Status update unavailable","date":"2016-08"},"persistent_id":"d20a152b02876f7da9899b34a9fd43c2b07026ae10dfe14d1d12609f7f50c35a","id":48557427,"location_subtype":"","month":"2016-04"},{"category":"other-theft","location_type":"Force","location":{"latitude":"51.573364","street":{"id":975341,"name":"On or near Sylvester Road"},"longitude":"-0.027100"},"context":"","outcome_status":{"category":"Status update unavailable","date":"2016-08"},"persistent_id":"af48cdc6e13c5506a9b662a355d53362ea1600d6c677f833bb0ee0f6fd5b6ee5","id":48553432,"location_subtype":"","month":"2016-04"},{"category":"other-theft","location_type":"Force","location":{"latitude":"51.575871","street":{"id":975419,"name":"On or near Petrol Station"},"longitude":"-0.030209"},"context":"","outcome_status":{"category":"Investigation complete; no suspect identified","date":"2016-04"},"persistent_id":"1201447247c8c0c05f2df007f2f92938a617b0829b59466e0e5962da74a9dae8","id":48489013,"location_subtype":"","month":"2016-04"},{"category":"other-theft","location_type":"Force","location":{"latitude":"51.574327","street":{"id":975410,"name":"On or near Beaconsfield Road"},"longitude":"-0.025023"},"context":"","outcome_status":{"category":"Investigation complete; no suspect identified","date":"2016-07"},"persistent_id":"0d5e653238f6f59a6806fdaa7463faade6b88e7e8e7972ef85700a0e794c5b3e","id":48556401,"location_subtype":"","month":"2016-04"},{"category":"possession-of-weapons","location_type":"Force","location":{"latitude":"51.575944","street":{"id":975344,"name":"On or near St Barnabas Road"},"longitude":"-0.020667"},"context":"","outcome_status":{"category":"Status update unavailable","date":"2016-08"},"persistent_id":"263a8f58ed07435f9f088bc2377f3d2868c754a17de6fe6c8a917719b900283d","id":48559651,"location_subtype":"","month":"2016-04"},{"category":"possession-of-weapons","location_type":"Force","location":{"latitude":"51.577481","street":{"id":975355,"name":"On or near Rutland Road"},"longitude":"-0.020080"},"context":"","outcome_status":{"category":"Court result unavailable","date":"2016-11"},"persistent_id":"a6f0f634ec3f64f276546c459aa27ae9dab5e7493e26f57e6312a4263e52507c","id":48567980,"location_subtype":"","month":"2016-04"},{"category":"public-order","location_type":"Force","location":{"latitude":"51.577980","street":{"id":975412,"name":"On or near Ashford Close"},"longitude":"-0.029945"},"context":"","outcome_status":{"category":"Investigation complete; no suspect identified","date":"2016-08"},"persistent_id":"73145fa54bf08eae7619954736662d9889db7498f15d10b03457ba69f1f76505","id":48515531,"location_subtype":"","month":"2016-04"},{"category":"public-order","location_type":"Force","location":{"latitude":"51.577980","street":{"id":975412,"name":"On or near Ashford Close"},"longitude":"-0.029945"},"context":"","outcome_status":{"category":"Status update unavailable","date":"2016-08"},"persistent_id":"73145fa54bf08eae7619954736662d9889db7498f15d10b03457ba69f1f76505","id":48515530,"location_subtype":"","month":"2016-04"},{"category":"public-order","location_type":"Force","location":{"latitude":"51.577980","street":{"id":975412,"name":"On or near Ashford Close"},"longitude":"-0.029945"},"context":"","outcome_status":{"category":"Defendant found not guilty","date":"2016-06"},"persistent_id":"e8802ad216cc4b0ed66af4a11daa97332916cf8f2c42b91549d5c884f5bc01a3","id":48477230,"location_subtype":"","month":"2016-04"},{"category":"robbery","location_type":"Force","location":{"latitude":"51.577351","street":{"id":975469,"name":"On or near Forster Road"},"longitude":"-0.035370"},"context":"","outcome_status":{"category":"Investigation complete; no suspect identified","date":"2016-04"},"persistent_id":"2a1bd63c3c2fa30dfa757d5f42a0ac7853e820ef6e8e656c3cfd83af74caf3a3","id":48554643,"location_subtype":"","month":"2016-04"},{"category":"robbery","location_type":"Force","location":{"latitude":"51.576332","street":{"id":975443,"name":"On or near Downsfield Road"},"longitude":"-0.031431"},"context":"","outcome_status":{"category":"Status update unavailable","date":"2016-08"},"persistent_id":"adf086e1b23148bbc82500fa77dbea077a323d93ef97f69ad628e47b587ceb49","id":48496849,"location_subtype":"","month":"2016-04"},{"category":"robbery","location_type":"Force","location":{"latitude":"51.577351","street":{"id":975469,"name":"On or near Forster Road"},"longitude":"-0.035370"},"context":"","outcome_status":{"category":"Status update unavailable","date":"2016-08"},"persistent_id":"2a1bd63c3c2fa30dfa757d5f42a0ac7853e820ef6e8e656c3cfd83af74caf3a3","id":48554641,"location_subtype":"","month":"2016-04"},{"category":"shoplifting","location_type":"Force","location":{"latitude":"51.575871","street":{"id":975419,"name":"On or near Petrol Station"},"longitude":"-0.030209"},"context":"","outcome_status":{"category":"Investigation complete; no suspect identified","date":"2016-06"},"persistent_id":"2be57d7dc6be342b21219d97c900363ffaa914f355b62831501d63891b320155","id":48516524,"location_subtype":"","month":"2016-04"},{"category":"shoplifting","location_type":"Force","location":{"latitude":"51.575871","street":{"id":975419,"name":"On or near Petrol Station"},"longitude":"-0.030209"},"context":"","outcome_status":{"category":"Investigation complete; no suspect identified","date":"2016-12"},"persistent_id":"41bf45921cb103d96f71961e4a92735d78a10d2e27e65e07149fa1e887d732de","id":48507111,"location_subtype":"","month":"2016-04"},{"category":"shoplifting","location_type":"Force","location":{"latitude":"51.575871","street":{"id":975419,"name":"On or near Petrol Station"},"longitude":"-0.030209"},"context":"","outcome_status":{"category":"Investigation complete; no suspect identified","date":"2016-07"},"persistent_id":"b092f0274db1cc98d4022d6cc37c8cbc64567d1f8cafa1efb85b233d6153b4c3","id":48478098,"location_subtype":"","month":"2016-04"},{"category":"theft-from-the-person","location_type":"Force","location":{"latitude":"51.575330","street":{"id":975369,"name":"On or near Longfellow Road"},"longitude":"-0.025845"},"context":"","outcome_status":{"category":"Investigation complete; no suspect identified","date":"2016-07"},"persistent_id":"84902729ae4254726e8602592b7f66ced4a61e8e65c0f9d2ce4f03239179e5bb","id":48481474,"location_subtype":"","month":"2016-04"},{"category":"theft-from-the-person","location_type":"Force","location":{"latitude":"51.577269","street":{"id":975358,"name":"On or near Richmond Close"},"longitude":"-0.025083"},"context":"","outcome_status":{"category":"Status update unavailable","date":"2016-08"},"persistent_id":"ee6f18c23333827b3d46425a20dedd746f3a50b8bd7a65f2de44a1f2494004dd","id":48496553,"location_subtype":"","month":"2016-04"},{"category":"vehicle-crime","location_type":"Force","location":{"latitude":"51.578959","street":{"id":975461,"name":"On or near Lynmouth Road"},"longitude":"-0.035228"},"context":"","outcome_status":{"category":"Investigation complete; no suspect identified","date":"2016-05"},"persistent_id":"8ced155fe7191c52f5eee1facfdb215dc83987d896212fd6360a2acf1a966463","id":48551533,"location_subtype":"","month":"2016-04"},{"category":"vehicle-crime","location_type":"Force","location":{"latitude":"51.575871","street":{"id":975419,"name":"On or near Petrol Station"},"longitude":"-0.030209"},"context":"","outcome_status":{"category":"Status update unavailable","date":"2016-08"},"persistent_id":"9cc9c5121f44cf9ee13951c4272f56a5a0fe9d3a63fdea44729dda690a39dc2e","id":48557656,"location_subtype":"","month":"2016-04"},{"category":"vehicle-crime","location_type":"Force","location":{"latitude":"51.580332","street":{"id":975409,"name":"On or near Beatrice Road"},"longitude":"-0.019538"},"context":"","outcome_status":{"category":"Status update unavailable","date":"2016-08"},"persistent_id":"3fe572bb5a5652af24e308df8c130b3639ca3ca9783eaecd94e4426f2b223dab","id":48562068,"location_subtype":"","month":"2016-04"},{"category":"vehicle-crime","location_type":"Force","location":{"latitude":"51.577980","street":{"id":975412,"name":"On or near Ashford Close"},"longitude":"-0.029945"},"context":"","outcome_status":{"category":"Investigation complete; no suspect identified","date":"2016-05"},"persistent_id":"75e25b4a77934706c48cf40b006bdd55d610628c01b3f45bea8a9dfb4d19c360","id":48511814,"location_subtype":"","month":"2016-04"},{"category":"vehicle-crime","location_type":"Force","location":{"latitude":"51.577481","street":{"id":975355,"name":"On or near Rutland Road"},"longitude":"-0.020080"},"context":"","outcome_status":{"category":"Status update unavailable","date":"2016-08"},"persistent_id":"be6603522a6816a8e8620da9488467d155db6c8be2bb2c6b155c7cfb2b103244","id":48563451,"location_subtype":"","month":"2016-04"},{"category":"vehicle-crime","location_type":"Force","location":{"latitude":"51.580332","street":{"id":975409,"name":"On or near Beatrice Road"},"longitude":"-0.019538"},"context":"","outcome_status":{"category":"Status update unavailable","date":"2016-08"},"persistent_id":"9aeaf46cfae5a6ed57c5eed55ba8573f23ca0a54f56d0e23b5305dd72210805f","id":48504864,"location_subtype":"","month":"2016-04"},{"category":"vehicle-crime","location_type":"Force","location":{"latitude":"51.577217","street":{"id":975408,"name":"On or near Betts Mews"},"longitude":"-0.029487"},"context":"","outcome_status":{"category":"Status update unavailable","date":"2016-08"},"persistent_id":"bb792ebf748f8bb3fa380e6ad2bc37237d524a356b12156d8c1506cff981dd3c","id":48486457,"location_subtype":"","month":"2016-04"},{"category":"vehicle-crime","location_type":"Force","location":{"latitude":"51.577980","street":{"id":975412,"name":"On or near Ashford Close"},"longitude":"-0.029945"},"context":"","outcome_status":{"category":"Status update unavailable","date":"2016-08"},"persistent_id":"5e054b065c809c58d283c3bf59be69a6117b6a510f80801d07a5a15e54b60057","id":48478630,"location_subtype":"","month":"2016-04"},{"category":"violent-crime","location_type":"Force","location":{"latitude":"51.575383","street":{"id":975353,"name":"On or near Samira Close"},"longitude":"-0.024169"},"context":"","outcome_status":{"category":"Investigation complete; no suspect identified","date":"2016-06"},"persistent_id":"27df355be6d9e43e1e176c4e637cd5535e6ae3f9cfd7d4ca58371d3313adcc3e","id":48508217,"location_subtype":"","month":"2016-04"},{"category":"violent-crime","location_type":"Force","location":{"latitude":"51.580332","street":{"id":975409,"name":"On or near Beatrice Road"},"longitude":"-0.019538"},"context":"","outcome_status":{"category":"Status update unavailable","date":"2016-08"},"persistent_id":"991c77db265bca9ecf51068c797de2faa94296d8610e94537c5e287ef2974241","id":48513213,"location_subtype":"","month":"2016-04"},{"category":"violent-crime","location_type":"Force","location":{"latitude":"51.576796","street":{"id":975446,"name":"On or near Albany Road"},"longitude":"-0.031728"},"context":"","outcome_status":{"category":"Offender given a caution","date":"2016-05"},"persistent_id":"055777aafb15eca9174ae6e4fcd3f3c156ef84059e564a9819e9bdf41f8b72d8","id":48563624,"location_subtype":"","month":"2016-04"},{"category":"violent-crime","location_type":"Force","location":{"latitude":"51.578231","street":{"id":975347,"name":"On or near Somerset Road"},"longitude":"-0.021375"},"context":"","outcome_status":{"category":"Offender given a caution","date":"2016-04"},"persistent_id":"efa6057d0233ddd7209a5a148e9437966754d6fa03de532ee8f431a89cb8e5b5","id":48513742,"location_subtype":"","month":"2016-04"},{"category":"violent-crime","location_type":"Force","location":{"latitude":"51.574893","street":{"id":975385,"name":"On or near Gamuel Close"},"longitude":"-0.023411"},"context":"","outcome_status":{"category":"Investigation complete; no suspect identified","date":"2016-07"},"persistent_id":"cc28604def5bc8d6266ec70fd30912f403bef0b74f31a8320a1f81b4738c979a","id":48497536,"location_subtype":"","month":"2016-04"},{"category":"violent-crime","location_type":"Force","location":{"latitude":"51.579926","street":{"id":975436,"name":"On or near St James's Street"},"longitude":"-0.031809"},"context":"","outcome_status":{"category":"Investigation complete; no suspect identified","date":"2016-04"},"persistent_id":"a143ef76d1aca1f50c55299b480ef8a4ec82c2239ed1650973473d7be5beb241","id":48477555,"location_subtype":"","month":"2016-04"},{"category":"violent-crime","location_type":"Force","location":{"latitude":"51.574145","street":{"id":975336,"name":"On or near Verulam Avenue"},"longitude":"-0.029707"},"context":"","outcome_status":{"category":"Investigation complete; no suspect identified","date":"2016-05"},"persistent_id":"93164c3d364531d73b78a26860a07435134c9232ada8c0911aa6bf48132b373f","id":48562061,"location_subtype":"","month":"2016-04"},{"category":"violent-crime","location_type":"Force","location":{"latitude":"51.575944","street":{"id":975344,"name":"On or near St Barnabas Road"},"longitude":"-0.020667"},"context":"","outcome_status":{"category":"Status update unavailable","date":"2016-08"},"persistent_id":"c078374e339dd142c3112832f2d4c0fd8eeac8a20a7485379361ec552ff3d5ae","id":48559965,"location_subtype":"","month":"2016-04"},{"category":"violent-crime","location_type":"Force","location":{"latitude":"51.579155","street":{"id":975435,"name":"On or near The Crescent"},"longitude":"-0.031929"},"context":"","outcome_status":{"category":"Investigation complete; no suspect identified","date":"2016-10"},"persistent_id":"e0f2c9aa38e5da88329fd4c7e7cbac07b51c35a278ff7e784fb919b2ea2f8946","id":48494675,"location_subtype":"","month":"2016-04"},{"category":"violent-crime","location_type":"Force","location":{"latitude":"51.577682","street":{"id":975340,"name":"On or near Tennyson Road"},"longitude":"-0.026696"},"context":"","outcome_status":{"category":"Investigation complete; no suspect identified","date":"2016-06"},"persistent_id":"4f95862ce96ca307b86cb6955896cbc0b65b148014d0862d61d4a537fa010659","id":48493783,"location_subtype":"","month":"2016-04"},{"category":"violent-crime","location_type":"Force","location":{"latitude":"51.575844","street":{"id":975438,"name":"On or near Myrtle Road"},"longitude":"-0.031798"},"context":"","outcome_status":{"category":"Investigation complete; no suspect identified","date":"2016-07"},"persistent_id":"e2f1395dff9f79af320406f629987c7eaf8eae2560d5a83c01cc5303219eb66c","id":48513807,"location_subtype":"","month":"2016-04"},{"category":"violent-crime","location_type":"BTP","location":{"latitude":"51.581500","street":{"id":1486835,"name":"Walthamstow Queens Road (station)"},"longitude":"-0.023828"},"context":"","outcome_status":{"category":"Status update unavailable","date":"2016-08"},"persistent_id":"","id":64822038,"location_subtype":"STATION","month":"2016-04"},{"category":"violent-crime","location_type":"Force","location":{"latitude":"51.579920","street":{"id":975380,"name":"On or near Gosport Road"},"longitude":"-0.027119"},"context":"","outcome_status":{"category":"Defendant found not guilty","date":"2016-08"},"persistent_id":"f610d9fb11f23ae46f7cf7aecf2aa50267bc43dbaaf672e92be5c10781c4a623","id":48507219,"location_subtype":"","month":"2016-04"},{"category":"violent-crime","location_type":"Force","location":{"latitude":"51.581227","street":{"id":975322,"name":"On or near Parking Area"},"longitude":"-0.028938"},"context":"","outcome_status":{"category":"Status update unavailable","date":"2016-08"},"persistent_id":"fe4ca9364f636d390c54f44b375475a9d90673f90a247e97a20250bf53d9f8b5","id":48556608,"location_subtype":"","month":"2016-04"},{"category":"violent-crime","location_type":"Force","location":{"latitude":"51.579155","street":{"id":975435,"name":"On or near The Crescent"},"longitude":"-0.031929"},"context":"","outcome_status":{"category":"Status update unavailable","date":"2016-08"},"persistent_id":"e63a3fa5fd1f8611ff02ad85ab54198f0a136e7d51c23ec6e13d4a4067baaa9e","id":48564294,"location_subtype":"","month":"2016-04"},{"category":"violent-crime","location_type":"Force","location":{"latitude":"51.578231","street":{"id":975347,"name":"On or near Somerset Road"},"longitude":"-0.021375"},"context":"","outcome_status":{"category":"Offender given suspended prison sentence","date":"2016-04"},"persistent_id":"eb535530cbf8aa8ca94acb86ec522d6ee5ccbb572f23d61d4817b2e9d5cda51a","id":48479730,"location_subtype":"","month":"2016-04"},{"category":"violent-crime","location_type":"Force","location":{"latitude":"51.575383","street":{"id":975353,"name":"On or near Samira Close"},"longitude":"-0.024169"},"context":"","outcome_status":{"category":"Court case unable to proceed","date":"2016-06"},"persistent_id":"614255bacf5bf8247014c1f0f14e9543d258a5f7081b6626178e5f4eef5bd53e","id":48503145,"location_subtype":"","month":"2016-04"},{"category":"violent-crime","location_type":"Force","location":{"latitude":"51.577481","street":{"id":975355,"name":"On or near Rutland Road"},"longitude":"-0.020080"},"context":"","outcome_status":{"category":"Investigation complete; no suspect identified","date":"2016-07"},"persistent_id":"69d5f63231f38b68be417ab591055815ea4f1797452d96dec75d6c3da0583d0f","id":48510250,"location_subtype":"","month":"2016-04"},{"category":"violent-crime","location_type":"Force","location":{"latitude":"51.574374","street":{"id":975400,"name":"On or near Cambridge Close"},"longitude":"-0.024631"},"context":"","outcome_status":{"category":"Investigation complete; no suspect identified","date":"2016-05"},"persistent_id":"56b70c2035a311d91bfb1203775a87e5170ca363414cc7b9a32f55dfb8b138c2","id":48508221,"location_subtype":"","month":"2016-04"},{"category":"violent-crime","location_type":"Force","location":{"latitude":"51.577394","street":{"id":975398,"name":"On or near Campus Road"},"longitude":"-0.027704"},"context":"","outcome_status":{"category":"Investigation complete; no suspect identified","date":"2016-07"},"persistent_id":"7167d3b7bae04b822f3ef5a5737e707def99598534f600f768b88b72d84d95c8","id":48563113,"location_subtype":"","month":"2016-04"},{"category":"violent-crime","location_type":"Force","location":{"latitude":"51.577481","street":{"id":975355,"name":"On or near Rutland Road"},"longitude":"-0.020080"},"context":"","outcome_status":{"category":"Offender fined","date":"2016-08"},"persistent_id":"05033ad1cce4230b919f348f11922f71f79b7d14c0cb1153c5d93b9536b2310d","id":48516794,"location_subtype":"","month":"2016-04"}]