[{"category":"anti-social-behaviour","location_type":"Force","location":{"latitude":"51.506517","street":{"id":952311,"name":"On or near Uxbridge Road"},"longitude":"-0.239840"},"context":"","outcome_status":null,"persistent_id":"","id":48465948,"location_subtype":"","month":"2016-04"},{"category":"anti-social-behaviour","location_type":"Force","location":{"latitude":"51.506517","street":{"id":952311,"name":"On or near Uxbridge Road"},"longitude":"-0.239840"},"context":"","outcome_status":null,"persistent_id":"","id":48465946,"location_subtype":"","month":"2016-04"},{"category":"anti-social-behaviour","location_type":"Force","location":{"latitude":"51.506517","street":{"id":952311,"name":"On or near Uxbridge Road"},"longitude":"-0.239840"},"context":"","outcome_status":null,"persistent_id":"","id":48465945,"location_subtype":"","month":"2016-04"},{"category":"anti-social-behaviour","location_type":"Force","location":{"latitude":"51.506517","street":{"id":952311,"name":"On or near Uxbridge Road"},"longitude":"-0.239840"},"context":"","outcome_status":null,"persistent_id":"","id":48465944,"location_subtype":"","month":"2016-04"},{"category":"anti-social-behaviour","location_type":"Force","location":{"latitude":"51.506517","street":{"id":952311,"name":"On or near Uxbridge Road"},"longitude":"-0.239840"},"context":"","outcome_status":null,"persistent_id":"","id":48465943,"location_subtype":"","month":"2016-04"},{"category":"anti-social-behaviour","location_type":"Force","location":{"latitude":"51.501276","street":{"id":952327,"name":"On or near Greenside Road"},"longitude":"-0.238140"},"context":"","outcome_status":null,"persistent_id":"","id":48465937,"location_subtype":"","month":"2016-04"},{"category":"anti-social-behaviour","location_type":"Force","location":{"latitude":"51.506274","street":{"id":952341,"name":"On or near Supermarket"},"longitude":"-0.238034"},"context":"","outcome_status":null,"persistent_id":"","id":48465936,"location_subtype":"","month":"2016-04"},{"category":"anti-social-behaviour","location_type":"Force","location":{"latitude":"51.501270","street":{"id":952322,"name":"On or near Leysfield Road"},"longitude":"-0.237708"},"context":"","outcome_status":null,"persistent_id":"","id":48465934,"location_subtype":"","month":"2016-04"},{"category":"anti-social-behaviour","location_type":"Force","location":{"latitude":"51.506274","street":{"id":952341,"name":"On or near Supermarket"},"longitude":"-0.238034"},"context":"","outcome_status":null,"persistent_id":"","id":48465930,"location_subtype":"","month":"2016-04"},{"category":"anti-social-behaviour","location_type":"Force","location":{"latitude":"51.501118","street":{"id":952295,"name":"On or near Elgin Avenue"},"longitude":"-0.236590"},"context":"","outcome_status":null,"persistent_id":"","id":48465928,"location_subtype":"","month":"2016-04"},{"category":"anti-social-behaviour","location_type":"Force","location":{"latitude":"51.505004","street":{"id":952338,"name":"On or near Boscombe Road"},"longitude":"-0.236700"},"context":"","outcome_status":null,"persistent_id":"","id":48465927,"location_subtype":"","month":"2016-04"},{"category":"anti-social-behaviour","location_type":"Force","location":{"latitude":"51.505004","street":{"id":952338,"name":"On or near Boscombe Road"},"longitude":"-0.236700"},"context":"","outcome_status":null,"persistent_id":"","id":48465924,"location_subtype":"","month":"2016-04"},{"category":"anti-social-behaviour","location_type":"Force","location":{"latitude":"51.502252","street":{"id":952337,"name":"On or near Cathnor Road"},"longitude":"-0.234875"},"context":"","outcome_status":null,"persistent_id":"","id":48465906,"location_subtype":"","month":"2016-04"},{"category":"anti-social-behaviour","location_type":"Force","location":{"latitude":"51.504586","street":{"id":952313,"name":"On or near The Glade"},"longitude":"-0.235217"},"context":"","outcome_status":null,"persistent_id":"","id":48465904,"location_subtype":"","month":"2016-04"},{"category":"anti-social-behaviour","location_type":"Force","location":{"latitude":"51.502830","street":{"id":952314,"name":"On or near Stowe Road"},"longitude":"-0.233210"},"context":"","outcome_status":null,"persistent_id":"","id":48465894,"location_subtype":"","month":"2016-04"},{"category":"anti-social-behaviour","location_type":"Force","location":{"latitude":"51.506517","street":{"id":952311,"name":"On or near Uxbridge Road"},"longitude":"-0.239840"},"context":"","outcome_status":null,"persistent_id":"","id":48465949,"location_subtype":"","month":"2016-04"},{"category":"anti-social-behaviour","location_type":"Force","location":{"latitude":"51.506517","street":{"id":952311,"name":"On or near Uxbridge Road"},"longitude":"-0.239840"},"context":"","outcome_status":null,"persistent_id":"","id":48465947,"location_subtype":"","month":"2016-04"},{"category":"anti-social-behaviour","location_type":"Force","location":{"latitude":"51.501984","street":{"id":952407,"name":"On or near Warple Way"},"longitude":"-0.252968"},"context":"","outcome_status":null,"persistent_id":"","id":48465990,"location_subtype":"","month":"2016-04"},{"category":"anti-social-behaviour","location_type":"Force","location":{"latitude":"51.501641","street":{"id":952387,"name":"On or near Emlyn Road"},"longitude":"-0.251684"},"context":"","outcome_status":null,"persistent_id":"","id":48465989,"location_subtype":"","month":"2016-04"},{"category":"anti-social-behaviour","location_type":"Force","location":{"latitude":"51.501641","street":{"id":952387,"name":"On or near Emlyn Road"},"longitude":"-0.251684"},"context":"","outcome_status":null,"persistent_id":"","id":48465988,"location_subtype":"","month":"2016-04"},{"category":"anti-social-behaviour","location_type":"Force","location":{"latitude":"51.505242","street":{"id":952367,"name":"On or near Valetta Road"},"longitude":"-0.245927"},"context":"","outcome_status":null,"persistent_id":"","id":48465984,"location_subtype":"","month":"2016-04"},{"category":"anti-social-behaviour","location_type":"Force","location":{"latitude":"51.505242","street":{"id":952367,"name":"On or near Valetta Road"},"longitude":"-0.245927"},"context":"","outcome_status":null,"persistent_id":"","id":48465983,"location_subtype":"","month":"2016-04"},{"category":"anti-social-behaviour","location_type":"Force","location":{"latitude":"51.505242","street":{"id":952367,"name":"On or near Valetta Road"},"longitude":"-0.245927"},"context":"","outcome_status":null,"persistent_id":"","id":48465982,"location_subtype":"","month":"2016-04"},{"category":"anti-social-behaviour","location_type":"Force","location":{"latitude":"51.505242","street":{"id":952367,"name":"On or near Valetta Road"},"longitude":"-0.245927"},"context":"","outcome_status":null,"persistent_id":"","id":48465981,"location_subtype":"","month":"2016-04"},{"category":"anti-social-behaviour","location_type":"Force","location":{"latitude":"51.505242","street":{"id":952367,"name":"On or near Valetta Road"},"longitude":"-0.245927"},"context":"","outcome_status":null,"persistent_id":"","id":48465980,"location_subtype":"","month":"2016-04"},{"category":"anti-social-behaviour","location_type":"Force","location":{"latitude":"51.505242","street":{"id":952367,"name":"On or near Valetta Road"},"longitude":"-0.245927"},"context":"","outcome_status":null,"persistent_id":"","id":48465979,"location_subtype":"","month":"2016-04"},{"category":"anti-social-behaviour","location_type":"Force","location":{"latitude":"51.505242","street":{"id":952367,"name":"On or near Valetta Road"},"longitude":"-0.245927"},"context":"","outcome_status":null,"persistent_id":"","id":48465978,"location_subtype":"","month":"2016-04"},{"category":"anti-social-behaviour","location_type":"Force","location":{"latitude":"51.504555","street":{"id":952396,"name":"On or near Becklow Road"},"longitude":"-0.243331"},"context":"","outcome_status":null,"persistent_id":"","id":48465968,"location_subtype":"","month":"2016-04"},{"category":"anti-social-behaviour","location_type":"Force","location":{"latitude":"51.504555","street":{"id":952396,"name":"On or near Becklow Road"},"longitude":"-0.243331"},"context":"","outcome_status":null,"persistent_id":"","id":48465966,"location_subtype":"","month":"2016-04"},{"category":"anti-social-behaviour","location_type":"Force","location":{"latitude":"51.503940","street":{"id":952326,"name":"On or near Hadyn Park Road"},"longitude":"-0.241294"},"context":"","outcome_status":null,"persistent_id":"","id":48465960,"location_subtype":"","month":"2016-04"},{"category":"anti-social-behaviour","location_type":"Force","location":{"latitude":"51.506517","street":{"id":952311,"name":"On or near Uxbridge Road"},"longitude":"-0.239840"},"context":"","outcome_status":null,"persistent_id":"","id":48465950,"location_subtype":"","month":"2016-04"},{"category":"anti-social-behaviour","location_type":"Force","location":{"latitude":"51.506274","street":{"id":952341,"name":"On or near Supermarket"},"longitude":"-0.238034"},"context":"","outcome_status":null,"persistent_id":"","id":48465935,"location_subtype":"","month":"2016-04"},{"category":"bicycle-theft","location_type":"Force","location":{"latitude":"51.502579","street":{"id":952323,"name":"On or near Leffern Road"},"longitude":"-0.237485"},"context":"","outcome_status":{"category":"Status update unavailable","date":"2016-08"},"persistent_id":"751b6c7487dd8d7a291f8283eaa6dec1c0ba3a937c6492c41e7bd349e2b80976","id":48488028,"location_subtype":"","month":"2016-04"},{"category":"bicycle-theft","location_type":"Force","location":{"latitude":"51.503012","street":{"id":952386,"name":"On or near Gayford Road"},"longitude":"-0.245335"},"context":"","outcome_status":{"category":"Investigation complete; no suspect identified","date":"2016-06"},"persistent_id":"5ff37aafb91ae97989c67b944947c807f24ae15ecb5a83dd1de7c1681a4ef364","id":48515958,"location_subtype":"","month":"2016-04"},{"category":"bicycle-theft","location_type":"Force","location":{"latitude":"51.502231","street":{"id":952397,"name":"On or near Bassein Park Road"},"longitude":"-0.243017"},"context":"","outcome_status":{"category":"Investigation complete; no suspect identified","date":"2016-06"},"persistent_id":"081792f61ff21c7a97ab461d2d76f43aeac0e40802ce0706c5d1cc3f61821c84","id":48514808,"location_subtype":"","month":"2016-04"},{"category":"burglary","location_type":"Force","location":{"latitude":"51.502231","street":{"id":952397,"name":"On or near Bassein Park Road"},"longitude":"-0.243017"},"context":"","outcome_status":{"category":"Investigation complete; no suspect identified","date":"2016-05"},"persistent_id":"f1ea250017919185e50128b6ffef2c8017bdfa8bb4602ab9e2e2d2fd9de264a4","id":48522800,"location_subtype":"","month":"2016-04"},{"category":"burglary","location_type":"Force","location":{"latitude":"51.505610","street":{"id":952324,"name":"On or near Keith Grove"},"longitude":"-0.240524"},"context":"","outcome_status":{"category":"Investigation complete; no suspect identified","date":"2016-04"},"persistent_id":"93b79bc2dd83716ca9485a6c10a04cc316eda67aca4fb0e48a4dfa1576c2cfb9","id":48491319,"location_subtype":"","month":"2016-04"},{"category":"burglary","location_type":"Force","location":{"latitude":"51.502421","street":{"id":952372,"name":"On or near Rylett Road"},"longitude":"-0.244955"},"context":"","outcome_status":{"category":"Investigation complete; no suspect identified","date":"2016-06"},"persistent_id":"abd954876c730954ff4bcf031646ef9fa14f35341e61e96751aab401a32d2755","id":48477932,"location_subtype":"","month":"2016-04"},{"category":"burglary","location_type":"Force","location":{"latitude":"51.503111","street":{"id":952404,"name":"On or near Supermarket"},"longitude":"-0.243545"},"context":"","outcome_status":{"category":"Investigation complete; no suspect identified","date":"2017-01"},"persistent_id":"7ee7571c54d8d74761c09e7b796ca607bb9eb5a284077e0afe3a7a15f54e703a","id":48512750,"location_subtype":"","month":"2016-04"},{"category":"burglary","location_type":"Force","location":{"latitude":"51.503093","street":{"id":952393,"name":"On or near Cobbold Road"},"longitude":"-0.248344"},"context":"","outcome_status":{"category":"Investigation complete; no suspect identified","date":"2016-05"},"persistent_id":"3448460bdf0e710c56a1f732e9cce12f32f7ee517a970cdaf5627556b551d9da","id":48514502,"location_subtype":"","month":"2016-04"},{"category":"burglary","location_type":"Force","location":{"latitude":"51.502231","street":{"id":952397,"name":"On or near Bassein Park Road"},"longitude":"-0.243017"},"context":"","outcome_status":{"category":"Investigation complete; no suspect identified","date":"2016-04"},"persistent_id":"4796dc67062bd8fba5dc997934695ab0306079ca90d7c6f095213e28ae65066d","id":48523184,"location_subtype":"","month":"2016-04"},{"category":"burglary","location_type":"Force","location":{"latitude":"51.500622","street":{"id":952305,"name":"On or near Shopping Area"},"longitude":"-0.235875"},"context":"","outcome_status":{"category":"Investigation complete; no suspect identified","date":"2016-04"},"persistent_id":"046626bae12ad68f3616d866b8c4943e6537060f358f92ca2c108f8c9d73d27a","id":48521847,"location_subtype":"","month":"2016-04"},{"category":"criminal-damage-arson","location_type":"Force","location":{"latitude":"51.503012","street":{"id":952386,"name":"On or near Gayford Road"},"longitude":"-0.245335"},"context":"","outcome_status":{"category":"Investigation complete; no suspect identified","date":"2016-04"},"persistent_id":"b9d37336f6bbb59248af8a2893a41f1d60c9700c1a220f214fda90285c6c3f1d","id":48485187,"location_subtype":"","month":"2016-04"},{"category":"criminal-damage-arson","location_type":"Force","location":{"latitude":"51.505368","street":{"id":952371,"name":"On or near St Elmo Road"},"longitude":"-0.245936"},"context":"","outcome_status":{"category":"Offender given a caution","date":"2016-07"},"persistent_id":"461ebdabfe69521c23b3e4930f59041554c7af90510ed05c7db61b9f68116dbd","id":48477241,"location_subtype":"","month":"2016-04"},{"category":"criminal-damage-arson","location_type":"Force","location":{"latitude":"51.504029","street":{"id":952312,"name":"On or near Thornfield Road"},"longitude":"-0.233423"},"context":"","outcome_status":{"category":"Investigation complete; no suspect identified","date":"2016-06"},"persistent_id":"65cf1402946a19d775616dd496efadb92695ee945a229d2121b341377136332b","id":48479556,"location_subtype":"","month":"2016-04"},{"category":"criminal-damage-arson","location_type":"Force","location":{"latitude":"51.504029","street":{"id":952312,"name":"On or near Thornfield Road"},"longitude":"-0.233423"},"context":"","outcome_status":{"category":"Investigation complete; no suspect identified","date":"2016-06"},"persistent_id":"f951175ef49e0916c70439c40928461b97a7b2d3b452b82a916e539fb146ac50","id":48479602,"location_subtype":"","month":"2016-04"},{"category":"criminal-damage-arson","location_type":"Force","location":{"latitude":"51.506517","street":{"id":952311,"name":"On or near Uxbridge Road"},"longitude":"-0.239840"},"context":"","outcome_status":{"category":"Local resolution","date":"2016-06"},"persistent_id":"bbe3e2eeedc5ff7827d92f1439b758fe6d2b31468f90859e0fd39cf02476c556","id":48485849,"location_subtype":"","month":"2016-04"},{"category":"criminal-damage-arson","location_type":"Force","location":{"latitude":"51.505988","street":{"id":952309,"name":"On or near Westbridge Close"},"longitude":"-0.238722"},"context":"","outcome_status":{"category":"Status update unavailable","date":"2016-08"},"persistent_id":"9c093a9aae3a9390f36e5a7e760ad8ca809ccb270fa9691536f79fb844678ca7","id":48490941,"location_subtype":"","month":"2016-04"},{"category":"criminal-damage-arson","location_type":"Force","location":{"latitude":"51.500938","street":{"id":952302,"name":"On or near Ashchurch Grove"},"longitude":"-0.241337"},"context":"","outcome_status":{"category":"Offender given a caution","date":"2016-05"},"persistent_id":"90d3bfcabb89ebbfc22fd9ce75681560081eaeff8b8c135d495b102aee756b56","id":48496863,"location_subtype":"","month":"2016-04"},{"category":"criminal-damage-arson","location_type":"Force","location":{"latitude":"51.502699","street":{"id":952377,"name":"On or near Laurence Mews"},"longitude":"-0.242437"},"context":"","outcome_status":{"category":"Status update unavailable","date":"2016-08"},"persistent_id":"a98600519beffd9318a222a2bdf50ef182064f7f3ca8f536c29542f8ce0dfd83","id":48512589,"location_subtype":"","month":"2016-04"},{"category":"criminal-damage-arson","location_type":"Force","location":{"latitude":"51.505368","street":{"id":952371,"name":"On or near St Elmo Road"},"longitude":"-0.245936"},"context":"","outcome_status":{"category":"Status update unavailable","date":"2016-08"},"persistent_id":"5cd6f4f0bee6b31846e49636497ed1bf7393bd8a437576bf7663a8643633ec56","id":48513193,"location_subtype":"","month":"2016-04"},{"category":"criminal-damage-arson","location_type":"Force","location":{"latitude":"51.500612","street":{"id":952303,"name":"On or near Ashchurch Grove"},"longitude":"-0.241192"},"context":"","outcome_status":{"category":"Status update unavailable","date":"2016-08"},"persistent_id":"1249a2e27f3603d6865362d6cfd484b7f627faad137b4298892b881418f9be67","id":48516645,"location_subtype":"","month":"2016-04"},{"category":"criminal-damage-arson","location_type":"Force","location":{"latitude":"51.502556","street":{"id":952333,"name":"On or near Davisville Road"},"longitude":"-0.240151"},"context":"","outcome_status":{"category":"Investigation complete; no suspect identified","date":"2016-04"},"persistent_id":"3b6eb417460f413e123cdc61d25b100296e2be72aa740e2640007c05bd1cf0b9","id":48509165,"location_subtype":"","month":"2016-04"},{"category":"drugs","location_type":"Force","location":{"latitude":"51.503296","street":{"id":952320,"name":"On or near Melina Road"},"longitude":"-0.236088"},"context":"","outcome_status":{"category":"Offender fined","date":"2016-04"},"persistent_id":"f2f7d8da7336630fdffe10c89c19d8a746b9dec7d7722e80e3c7698bd2025164","id":48487425,"location_subtype":"","month":"2016-04"},{"category":"drugs","location_type":"Force","location":{"latitude":"51.503702","street":{"id":952370,"name":"On or near Stronsa Road"},"longitude":"-0.248176"},"context":"","outcome_status":{"category":"Offender given a drugs possession warning","date":"2016-04"},"persistent_id":"66a682a101e77e2f63f692677ec29ea561d5ab665146e50bded347707923ae19","id":48509295,"location_subtype":"","month":"2016-04"},{"category":"drugs","location_type":"Force","location":{"latitude":"51.505392","street":{"id":952321,"name":"On or near Lycett Place"},"longitude":"-0.241555"},"context":"","outcome_status":{"category":"Status update unavailable","date":"2016-08"},"persistent_id":"3bf50c032ee9daf5e244498dc4a7911046648d1f8e03f0cb903fae352a3c54e2","id":48504481,"location_subtype":"","month":"2016-04"},{"category":"drugs","location_type":"Force","location":{"latitude":"51.503275","street":{"id":952378,"name":"On or near Landor Walk"},"longitude":"-0.242487"},"context":"","outcome_status":{"category":"Offender given a drugs possession warning","date":"2016-04"},"persistent_id":"4db77f9d729321a92971a016226ad19dd71e5cadf0328ff85e22f59a090cffd2","id":48508626,"location_subtype":"","month":"2016-04"},{"category":"drugs","location_type":"Force","location":{"latitude":"51.502252","street":{"id":952337,"name":"On or near Cathnor Road"},"longitude":"-0.234875"},"context":"","outcome_status":{"category":"Court result unavailable","date":"2016-12"},"persistent_id":"0afbc0237baf1741a2f21a68c5cb1d8caadbebd52925dbc83773bc22c65b0c3a","id":48489145,"location_subtype":"","month":"2016-04"},{"category":"drugs","location_type":"Force","location":{"latitude":"51.503940","street":{"id":952326,"name":"On or near Hadyn Park Road"},"longitude":"-0.241294"},"context":"","outcome_status":{"category":"Offender fined","date":"2016-08"},"persistent_id":"f8b12ed76622269111d150014913c634d3ba879eb2df8ea1917f4a722f790090","id":48493696,"location_subtype":"","month":"2016-04"},{"category":"drugs","location_type":"Force","location":{"latitude":"51.503936","street":{"id":952319,"name":"On or near Old Forge Mews"},"longitude":"-0.235617"},"context":"","outcome_status":{"category":"Defendant found not guilty","date":"2016-05"},"persistent_id":"01ee070f6c69a58a2c4afa7145e2b38f296e6227266c0261ff493ff1097ffce5","id":48488000,"location_subtype":"","month":"2016-04"},{"category":"drugs","location_type":"Force","location":{"latitude":"51.503296","street":{"id":952320,"name":"On or near Melina Road"},"longitude":"-0.236088"},"context":"","outcome_status":{"category":"Court case unable to proceed","date":"2016-04"},"persistent_id":"203fa38d9c3dd1cc06431255a2504b3d94a4c893211fb151c79e6998b6554b8d","id":48479050,"location_subtype":"","month":"2016-04"},{"category":"drugs","location_type":"Force","location":{"latitude":"51.502252","street":{"id":952337,"name":"On or near Cathnor Road"},"longitude":"-0.234875"},"context":"","outcome_status":{"category":"Court result unavailable","date":"2016-10"},"persistent_id":"d6f1bcdc48841229fd9e3fe4bf54b5b5b38bfa737013dadede47ead894fbc023","id":48489103,"location_subtype":"","month":"2016-04"},{"category":"other-theft","location_type":"Force","location":{"latitude":"51.503667","street":{"id":952335,"name":"On or near Coningham Road"},"longitude":"-0.234460"},"context":"","outcome_status":{"category":"Investigation complete; no suspect identified","date":"2016-04"},"persistent_id":"3868ac1de2d29ba671d2a236f6c02954a3aa5af53bf24ca006355369e7303f39","id":48501421,"location_subtype":"","month":"2016-04"},{"category":"other-theft","location_type":"Force","location":{"latitude":"51.501270","street":{"id":952322,"name":"On or near Leysfield Road"},"longitude":"-0.237708"},"context":"","outcome_status":{"category":"Status update unavailable","date":"2016-08"},"persistent_id":"bf010e7607fc0062a7757685f3c9bee8e0f7914d678de478955872ccaf1c1c7e","id":48485620,"location_subtype":"","month":"2016-04"},{"category":"other-theft","location_type":"Force","location":{"latitude":"51.503667","street":{"id":952335,"name":"On or near Coningham Road"},"longitude":"-0.234460"},"context":"","outcome_status":{"category":"Local resolution","date":"2016-04"},"persistent_id":"34289b145d272e3694ee4bcf1c8f03658ee4e8d9115a3a263afc1741df6df12f","id":48492780,"location_subtype":"","month":"2016-04"},{"category":"other-theft","location_type":"Force","location":{"latitude":"51.503275","street":{"id":952378,"name":"On or near Landor Walk"},"longitude":"-0.242487"},"context":"","outcome_status":{"category":"Investigation complete; no suspect identified","date":"2016-06"},"persistent_id":"777c0f73b75875f5a973dfd28f2c42ad932d0db3b118935135482e61d5ea9411","id":48490830,"location_subtype":"","month":"2016-04"},{"category":"other-theft","location_type":"Force","location":{"latitude":"51.504029","street":{"id":952312,"name":"On or near Thornfield Road"},"longitude":"-0.233423"},"context":"","outcome_status":{"category":"Investigation complete; no suspect identified","date":"2016-04"},"persistent_id":"a7b93ab8dfa9f65421a8b595f00cfc791daac3856fd7ae1cd25993ac8bce6380","id":48485269,"location_subtype":"","month":"2016-04"},{"category":"possession-of-weapons","location_type":"Force","location":{"latitude":"51.506274","street":{"id":952341,"name":"On or near Supermarket"},"longitude":"-0.238034"},"context":"","outcome_status":{"category":"Court result unavailable","date":"2016-10"},"persistent_id":"3a92664d8603147eb6ff3c3120db1ed1dec27a9ba8495a7df9b9a32db9f53245","id":48519649,"location_subtype":"","month":"2016-04"},{"category":"public-order","location_type":"Force","location":{"latitude":"51.502579","street":{"id":952323,"name":"On or near Leffern Road"},"longitude":"-0.237485"},"context":"","outcome_status":{"category":"Investigation complete; no suspect identified","date":"2016-05"},"persistent_id":"d7557e96e3da84a97dcd0d519c1d40b12fea6fca0a2ad3f615de4df3e26805fc","id":48512967,"location_subtype":"","month":"2016-04"},{"category":"public-order","location_type":"Force","location":{"latitude":"51.505878","street":{"id":952395,"name":"On or near Clifton Avenue"},"longitude":"-0.243972"},"context":"","outcome_status":{"category":"Investigation complete; no suspect identified","date":"2016-06"},"persistent_id":"473d773005ceb5a000409fe65b30a5457abdf2a7f48997e3b39065198abf2db4","id":48513127,"location_subtype":"","month":"2016-04"},{"category":"public-order","location_type":"Force","location":{"latitude":"51.506274","street":{"id":952341,"name":"On or near Supermarket"},"longitude":"-0.238034"},"context":"","outcome_status":{"category":"Investigation complete; no suspect identified","date":"2016-06"},"persistent_id":"336710788db41d16a5810f480b2abd5f410582a6a94efe470d0ec24a4cf9f2bc","id":48522783,"location_subtype":"","month":"2016-04"},{"category":"public-order","location_type":"Force","location":{"latitude":"51.502579","street":{"id":952323,"name":"On or near Leffern Road"},"longitude":"-0.237485"},"context":"","outcome_status":{"category":"Investigation complete; no suspect identified","date":"2016-07"},"persistent_id":"a9d6b6493aa0ca4432d189474e9912c48a9a178f78d9ecc8cc4ddba111acddbd","id":48514413,"location_subtype":"","month":"2016-04"},{"category":"public-order","location_type":"Force","location":{"latitude":"51.502838","street":{"id":952315,"name":"On or near Starfield Road"},"longitude":"-0.240976"},"context":"","outcome_status":{"category":"Investigation complete; no suspect identified","date":"2016-04"},"persistent_id":"7c7d15d3cd9f9c0bcc85094decd6ec55808a218d2a5391c3b75341676608f842","id":48481853,"location_subtype":"","month":"2016-04"},{"category":"public-order","location_type":"Force","location":{"latitude":"51.502252","street":{"id":952337,"name":"On or near Cathnor Road"},"longitude":"-0.234875"},"context":"","outcome_status":{"category":"Local resolution","date":"2016-04"},"persistent_id":"5146c2ade9e167aaa5230333071ba0e6cc1e1c93728d39ae4a9cad0322938305","id":48484388,"location_subtype":"","month":"2016-04"},{"category":"robbery","location_type":"Force","location":{"latitude":"51.503818","street":{"id":952394,"name":"On or near Cobbold Mews"},"longitude":"-0.243921"},"context":"","outcome_status":{"category":"Investigation complete; no suspect identified","date":"2016-06"},"persistent_id":"446661e284c4c2a8ddc5a41db08f41dd9acdd6ac7ba878c2fe0a483e1d28de82","id":48517529,"location_subtype":"","month":"2016-04"},{"category":"robbery","location_type":"Force","location":{"latitude":"51.502838","street":{"id":952315,"name":"On or near Starfield Road"},"longitude":"-0.240976"},"context":"","outcome_status":{"category":"Investigation complete; no suspect identified","date":"2016-06"},"persistent_id":"d4d66d1aacacb7779b0727dc94c140a0815c7a1e4bf02228540318498b5ba902","id":48495681,"location_subtype":"","month":"2016-04"},{"category":"robbery","location_type":"Force","location":{"latitude":"51.506274","street":{"id":952341,"name":"On or near Supermarket"},"longitude":"-0.238034"},"context":"","outcome_status":{"category":"Investigation complete; no suspect identified","date":"2016-06"},"persistent_id":"4e7d12bc0a374cfcc368b679bb7adbbfa80bef4ad3547e495a329f1c919293c7","id":48498134,"location_subtype":"","month":"2016-04"},{"category":"shoplifting","location_type":"Force","location":{"latitude":"51.500938","street":{"id":952302,"name":"On or near Ashchurch Grove"},"longitude":"-0.241337"},"context":"","outcome_status":{"category":"Offender sent to prison","date":"2016-04"},"persistent_id":"c150c8f871c0867a0f9472f7f20de57e47f222c27c8d54c4835b8c0608635461","id":48510745,"location_subtype":"","month":"2016-04"},{"category":"shoplifting","location_type":"Force","location":{"latitude":"51.500938","street":{"id":952302,"name":"On or near Ashchurch Grove"},"longitude":"-0.241337"},"context":"","outcome_status":{"category":"Offender sent to prison","date":"2016-04"},"persistent_id":"c3a6d64df948742fc851df4100a2836d2c49367ffc6a9cb9b2addd577ddf4988","id":48498536,"location_subtype":"","month":"2016-04"},{"category":"shoplifting","location_type":"Force","location":{"latitude":"51.500938","street":{"id":952302,"name":"On or near Ashchurch Grove"},"longitude":"-0.241337"},"context":"","outcome_status":{"category":"Investigation complete; no suspect identified","date":"2016-06"},"persistent_id":"f7bc6330bbc8d0f0fcb8804431a73f7d08c26bf3eea93d78cd8b2ab33859da33","id":48492697,"location_subtype":"","month":"2016-04"},{"category":"shoplifting","location_type":"Force","location":{"latitude":"51.506274","street":{"id":952341,"name":"On or near Supermarket"},"longitude":"-0.238034"},"context":"","outcome_status":{"category":"Investigation complete; no suspect identified","date":"2016-06"},"persistent_id":"f32c0ac97803f791b836c33cba368332f087032cbde8986316ae3c415963ad53","id":48495449,"location_subtype":"","month":"2016-04"},{"category":"shoplifting","location_type":"Force","location":{"latitude":"51.500668","street":{"id":952291,"name":"On or near Kelmscott Gardens"},"longitude":"-0.240138"},"context":"","outcome_status":{"category":"Investigation complete; no suspect identified","date":"2016-06"},"persistent_id":"548d2a155539fd8d1d771f4c8be8a93fe7faf952a468a9fbe551f32b2a3fc9b0","id":48518852,"location_subtype":"","month":"2016-04"},{"category":"theft-from-the-person","location_type":"Force","location":{"latitude":"51.506274","street":{"id":952341,"name":"On or near Supermarket"},"longitude":"-0.238034"},"context":"","outcome_status":{"category":"Investigation complete; no suspect identified","date":"2016-05"},"persistent_id":"203ae180fe74e6b8e3102b9d88a2c2a9f81fd8eebe7b218b0921025015f5c525","id":48518170,"location_subtype":"","month":"2016-04"},{"category":"theft-from-the-person","location_type":"Force","location":{"latitude":"51.501276","street":{"id":952327,"name":"On or near Greenside Road"},"longitude":"-0.238140"},"context":"","outcome_status":{"category":"Investigation complete; no suspect identified","date":"2016-06"},"persistent_id":"8a844265fc8bfa36a0fc3172654b0317c237539dd0f9c972fe12007bddad5099","id":48521295,"location_subtype":"","month":"2016-04"},{"category":"vehicle-crime","location_type":"Force","location":{"latitude":"51.501303","street":{"id":952332,"name":"On or near Elgin Close"},"longitude":"-0.235762"},"context":"","outcome_status":{"category":"Status update unavailable","date":"2016-08"},"persistent_id":"6ee60f7f961bf3b167526c208a646b9d24a35af16bd8660c909d67435ed73cf3","id":48515414,"location_subtype":"","month":"2016-04"},{"category":"vehicle-crime","location_type":"Force","location":{"latitude":"51.505484","street":{"id":952401,"name":"On or near Askew Crescent"},"longitude":"-0.243511"},"context":"","outcome_status":{"category":"Status update unavailable","date":"2016-08"},"persistent_id":"3d1cdde3de38aa529f53b4314aabdf7c573483583dde048358752e58615819be","id":48515984,"location_subtype":"","month":"2016-04"},{"category":"vehicle-crime","location_type":"Force","location":{"latitude":"51.505368","street":{"id":952371,"name":"On or near St Elmo Road"},"longitude":"-0.245936"},"context":"","outcome_status":{"category":"Status update unavailable","date":"2016-08"},"persistent_id":"a03db187d3b04cc13b20ef2a8b4a899016a0bb667150485661aaa8296ccd7c7e","id":48516000,"location_subtype":"","month":"2016-04"},{"category":"vehicle-crime","location_type":"Force","location":{"latitude":"51.503468","street":{"id":952376,"name":"On or near Lefroy Road"},"longitude":"-0.249986"},"context":"","outcome_status":{"category":"Investigation complete; no suspect identified","date":"2016-04"},"persistent_id":"611f8096439746f36760c51d6e1750b94621d22f39aaba3f9dfd62e610bee0c9","id":48492700,"location_subtype":"","month":"2016-04"},{"category":"vehicle-crime","location_type":"Force","location":{"latitude":"51.502556","street":{"id":952333,"name":"On or near Davisville Road"},"longitude":"-0.240151"},"context":"","outcome_status":{"category":"Status update unavailable","date":"2016-08"},"persistent_id":"e8cc4b2feafd5b66e23898d59895b84900d32eb05c14e90400146abfcfea244c","id":48516756,"location_subtype":"","month":"2016-04"},{"category":"vehicle-crime","location_type":"Force","location":{"latitude":"51.506274","street":{"id":952341,"name":"On or near Supermarket"},"longitude":"-0.238034"},"context":"","outcome_status":{"category":"Court result unavailable","date":"2016-10"},"persistent_id":"cae51ce095eb1345881bbebf4c4f9cfb93086b93213092a22b6c5d09d601dac5","id":48492440,"location_subtype":"","month":"2016-04"},{"category":"vehicle-crime","location_type":"Force","location":{"latitude":"51.503667","street":{"id":952335,"name":"On or near Coningham Road"},"longitude":"-0.234460"},"context":"","outcome_status":{"category":"Status update unavailable","date":"2016-08"},"persistent_id":"b4da5b1002ebefcf193f594e19563f8c5bb7c91dfc70a04c1aeabcbbae40cf22","id":48517071,"location_subtype":"","month":"2016-04"},{"category":"vehicle-crime","location_type":"Force","location":{"latitude":"51.501822","street":{"id":952364,"name":"On or near Wendell Road"},"longitude":"-0.247557"},"context":"","outcome_status":{"category":"Investigation complete; no suspect identified","date":"2016-06"},"persistent_id":"9abb589a430cfe052e5444c44f15c43e062366f215c4025ab5e208483181cced","id":48519289,"location_subtype":"","month":"2016-04"},{"category":"vehicle-crime","location_type":"Force","location":{"latitude":"51.502556","street":{"id":952333,"name":"On or near Davisville Road"},"longitude":"-0.240151"},"context":"","outcome_status":{"category":"Status update unavailable","date":"2016-08"},"persistent_id":"b2aedfc6b15e49107c3fc3f47dcd8c24065b8818f2011f1ceea2fc00c0451879","id":48521643,"location_subtype":"","month":"2016-04"},{"category":"vehicle-crime","location_type":"Force","location":{"latitude":"51.506274","street":{"id":952341,"name":"On or near Supermarket"},"longitude":"-0.238034"},"context":"","outcome_status":{"category":"Investigation complete; no suspect identified","date":"2016-07"},"persistent_id":"b60459a35e7123ea074b35afcb80874667e6dca1b76a922b0d2ebd5347e9455b","id":48504852,"location_subtype":"","month":"2016-04"},{"category":"vehicle-crime","location_type":"Force","location":{"latitude":"51.502579","street":{"id":952323,"name":"On or near Leffern Road"},"longitude":"-0.237485"},"context":"","outcome_status":{"category":"Status update unavailable","date":"2016-08"},"persistent_id":"5412a60a315aeb8be473afa3a52f074c565b5614595f419f05404986da5d30d7","id":48498894,"location_subtype":"","month":"2016-04"},{"category":"vehicle-crime","location_type":"Force","location":{"latitude":"51.503012","street":{"id":952386,"name":"On or near Gayford Road"},"longitude":"-0.245335"},"context":"","outcome_status":{"category":"Investigation complete; no suspect identified","date":"2016-04"},"persistent_id":"91e8a61bf79e8b9aef50db0609868ed3bef70d9239c9898e3dc2f21717c7a644","id":48483619,"location_subtype":"","month":"2016-04"},{"category":"vehicle-crime","location_type":"Force","location":{"latitude":"51.503667","street":{"id":952335,"name":"On or near Coningham Road"},"longitude":"-0.234460"},"context":"","outcome_status":{"category":"Offender given a caution","date":"2016-05"},"persistent_id":"c3f220a301b93ddb69b4372cfef0267308ebabd025528c146156331326967b34","id":48525710,"location_subtype":"","month":"2016-04"},{"category":"vehicle-crime","location_type":"Force","location":{"latitude":"51.502733","street":{"id":952316,"name":"On or near Scott's Road"},"longitude":"-0.233387"},"context":"","outcome_status":{"category":"Investigation complete; no suspect identified","date":"2016-05"},"persistent_id":"87a097830eab339f9ada7b7df5b8060a28687fc5a11b522b328c7e548ede2de1","id":48528364,"location_subtype":"","month":"2016-04"},{"category":"vehicle-crime","location_type":"Force","location":{"latitude":"51.506274","street":{"id":952341,"name":"On or near Supermarket"},"longitude":"-0.238034"},"context":"","outcome_status":{"category":"Status update unavailable","date":"2016-08"},"persistent_id":"cae51ce095eb1345881bbebf4c4f9cfb93086b93213092a22b6c5d09d601dac5","id":48490321,"location_subtype":"","month":"2016-04"},{"category":"vehicle-crime","location_type":"Force","location":{"latitude":"51.505097","street":{"id":952310,"name":"On or near Vespan Road"},"longitude":"-0.240457"},"context":"","outcome_status":{"category":"Defendant found not guilty","date":"2016-06"},"persistent_id":"89846cc75a37d1aa1572b1618870b9606cdfab6e1e76793c1326c51e8728d06a","id":48511692,"location_subtype":"","month":"2016-04"},{"category":"vehicle-crime","location_type":"Force","location":{"latitude":"51.506517","street":{"id":952311,"name":"On or near Uxbridge Road"},"longitude":"-0.239840"},"context":"","outcome_status":{"category":"Investigation complete; no suspect identified","date":"2016-04"},"persistent_id":"41173f8d159b352cf365859fe149cc714c73e94b2fefe80139ba3f166680bad2","id":48512268,"location_subtype":"","month":"2016-04"},{"category":"vehicle-crime","location_type":"Force","location":{"latitude":"51.505392","street":{"id":952321,"name":"On or near Lycett Place"},"longitude":"-0.241555"},"context":"","outcome_status":{"category":"Investigation complete; no suspect identified","date":"2016-06"},"persistent_id":"d604388f1c60055a771392e86f4eb4f6da6a5ab7d08d1e56a4373ef6997a2837","id":48488942,"location_subtype":"","month":"2016-04"},{"category":"vehicle-crime","location_type":"Force","location":{"latitude":"51.503468","street":{"id":952376,"name":"On or near Lefroy Road"},"longitude":"-0.249986"},"context":"","outcome_status":{"category":"Investigation complete; no suspect identified","date":"2016-04"},"persistent_id":"0e179df2892a7a9b525c49dd885320ab879a579005730e710ddcd7de94aa24d2","id":48488887,"location_subtype":"","month":"2016-04"},{"category":"vehicle-crime","location_type":"Force","location":{"latitude":"51.503012","street":{"id":952386,"name":"On or near Gayford Road"},"longitude":"-0.245335"},"context":"","outcome_status":{"category":"Investigation complete; no suspect identified","date":"2016-04"},"persistent_id":"70ae50662c49467a891f34a4f47d9c54972ddcc45cc38c2bcd80d4e2fc55f0f4","id":48487630,"location_subtype":"","month":"2016-04"},{"category":"vehicle-crime","location_type":"Force","location":{"latitude":"51.503835","street":{"id":952318,"name":"On or near Percy Road"},"longitude":"-0.239093"},"context":"","outcome_status":{"category":"Investigation complete; no suspect identified","date":"2016-05"},"persistent_id":"d2f948a88d13b43160f1f20ec76372ce30cce7009bf4a28256e638a980a56283","id":48505009,"location_subtype":"","month":"2016-04"},{"category":"vehicle-crime","location_type":"Force","location":{"latitude":"51.504586","street":{"id":952313,"name":"On or near The Glade"},"longitude":"-0.235217"},"context":"","outcome_status":{"category":"Status update unavailable","date":"2016-08"},"persistent_id":"2be360367689d98ca49cbb9cc44e73a8e6e5b47fb6e8f068566446aecab0628c","id":48490089,"location_subtype":"","month":"2016-04"},{"category":"vehicle-crime","location_type":"Force","location":{"latitude":"51.504029","street":{"id":952312,"name":"On or near Thornfield Road"},"longitude":"-0.233423"},"context":"","outcome_status":{"category":"Court result unavailable","date":"2016-10"},"persistent_id":"ba53b785dc1bd5927faf10f1b63c6fdc49dd7e603a2aef2d894be686a13c187e","id":48504620,"location_subtype":"","month":"2016-04"},{"category":"vehicle-crime","location_type":"Force","location":{"latitude":"51.505242","street":{"id":952367,"name":"On or near Valetta Road"},"longitude":"-0.245927"},"context":"","outcome_status":{"category":"Status update unavailable","date":"2016-08"},"persistent_id":"a72b626bc7821fdce2d9fa2da0800609557a90b86d3905ec89de4dfcfa44fcdf","id":48489366,"location_subtype":"","month":"2016-04"},{"category":"vehicle-crime","location_type":"Force","location":{"latitude":"51.503835","street":{"id":952318,"name":"On or near Percy Road"},"longitude":"-0.239093"},"context":"","outcome_status":{"category":"Status update unavailable","date":"2016-08"},"persistent_id":"0bac602e9793e887de089b25e278271f16e909ceaf9c70d0749ef334a2ea6565","id":48484199,"location_subtype":"","month":"2016-04"},{"category":"vehicle-crime","location_type":"Force","location":{"latitude":"51.503835","street":{"id":952318,"name":"On or near Percy Road"},"longitude":"-0.239093"},"context":"","outcome_status":{"category":"Investigation complete; no suspect identified","date":"2016-06"},"persistent_id":"6e6357558d7cec4f2a364bc52ea9545b3ee39b0437834b7f68682eb37bec3a0d","id":48510187,"location_subtype":"","month":"2016-04"},{"category":"vehicle-crime","location_type":"Force","location":{"latitude":"51.503818","street":{"id":952394,"name":"On or near Cobbold Mews"},"longitude":"-0.243921"},"context":"","outcome_status":{"category":"Status update unavailable","date":"2016-08"},"persistent_id":"e789cf083bf2f33fe75b87762d7254d85c9f13e9b63bf09cd030485c5544adbd","id":48485141,"location_subtype":"","month":"2016-04"},{"category":"vehicle-crime","location_type":"Force","location":{"latitude":"51.503012","street":{"id":952386,"name":"On or near Gayford Road"},"longitude":"-0.245335"},"context":"","outcome_status":{"category":"Status update unavailable","date":"2016-08"},"persistent_id":"1a2f08a54bbd05a5b40936b1f9dc61d8e46984c8af5a021d162ebe38bf4d582b","id":48485041,"location_subtype":"","month":"2016-04"},{"category":"vehicle-crime","location_type":"Force","location":{"latitude":"51.504537","street":{"id":952317,"name":"On or near Roxwell Road"},"longitude":"-0.240320"},"context":"","outcome_status":{"category":"Investigation complete; no suspect identified","date":"2016-05"},"persistent_id":"1d9a46fc6b5739252c23c08ece92d3a72b6bbda20fd8827c19953236e1e0074f","id":48511060,"location_subtype":"","month":"2016-04"},{"category":"vehicle-crime","location_type":"Force","location":{"latitude":"51.503012","street":{"id":952386,"name":"On or near Gayford Road"},"longitude":"-0.245335"},"context":"","outcome_status":{"category":"Investigation complete; no suspect identified","date":"2016-04"},"persistent_id":"ccf11fe322d1a6bd9ee380db803be58dd9cf672868286fdee80bce023958324e","id":48511604,"location_subtype":"","month":"2016-04"},{"category":"vehicle-crime","location_type":"Force","location":{"latitude":"51.501641","street":{"id":952387,"name":"On or near Emlyn Road"},"longitude":"-0.251684"},"context":"","outcome_status":{"category":"Status update unavailable","date":"2016-08"},"persistent_id":"7c3c44e5ee384ddc3a1eb95fdd876357d11ba60b063a43d5dc12f232aec7f82b","id":48512088,"location_subtype":"","month":"2016-04"},{"category":"vehicle-crime","location_type":"Force","location":{"latitude":"51.501276","street":{"id":952327,"name":"On or near Greenside Road"},"longitude":"-0.238140"},"context":"","outcome_status":{"category":"Status update unavailable","date":"2016-08"},"persistent_id":"0c1a02b56f803cc6aa7d9c76b232bba075012adce2efeb27576df36f99ff55f1","id":48512092,"location_subtype":"","month":"2016-04"},{"category":"vehicle-crime","location_type":"Force","location":{"latitude":"51.502691","street":{"id":952308,"name":"On or near Westville Road"},"longitude":"-0.238316"},"context":"","outcome_status":{"category":"Status update unavailable","date":"2016-08"},"persistent_id":"33e374773a731e03a71121de8c825b213b84750e3e3b328245cddcfd64fd3796","id":48497982,"location_subtype":"","month":"2016-04"},{"category":"vehicle-crime","location_type":"Force","location":{"latitude":"51.505097","street":{"id":952310,"name":"On or near Vespan Road"},"longitude":"-0.240457"},"context":"","outcome_status":{"category":"Court result unavailable","date":"2017-01"},"persistent_id":"9dc273b103469003e90b16988811cf6fc52b57a79d2365aed329e28f6aef715c","id":48501797,"location_subtype":"","month":"2016-04"},{"category":"vehicle-crime","location_type":"Force","location":{"latitude":"51.503667","street":{"id":952335,"name":"On or near Coningham Road"},"longitude":"-0.234460"},"context":"","outcome_status":{"category":"Investigation complete; no suspect identified","date":"2016-05"},"persistent_id":"4189ea2a3d724dc5a9d810d53a31df719f140bd81241b0b357512186c64889ca","id":48512731,"location_subtype":"","month":"2016-04"},{"category":"vehicle-crime","location_type":"Force","location":{"latitude":"51.506517","street":{"id":952311,"name":"On or near Uxbridge Road"},"longitude":"-0.239840"},"context":"","outcome_status":{"category":"Offender given a caution","date":"2016-04"},"persistent_id":"1f94db7003fa83f1ca80e2348d1d286dae010453af4688aaf2771e5dae0db8ea","id":48501799,"location_subtype":"","month":"2016-04"},{"category":"vehicle-crime","location_type":"Force","location":{"latitude":"51.503012","street":{"id":952386,"name":"On or near Gayford Road"},"longitude":"-0.245335"},"context":"","outcome_status":{"category":"Status update unavailable","date":"2016-08"},"persistent_id":"da442205bacbfa4c197fd8d79946a2e7033b71308e1be16a9332aecc9fa6ccda","id":48493924,"location_subtype":"","month":"2016-04"},{"category":"vehicle-crime","location_type":"Force","location":{"latitude":"51.505097","street":{"id":952310,"name":"On or near Vespan Road"},"longitude":"-0.240457"},"context":"","outcome_status":{"category":"Investigation complete; no suspect identified","date":"2016-07"},"persistent_id":"45d35f4fc4a1050ab03aef14b9900d1a1ee9be3433d547e497fa5587fb482ec8","id":48513690,"location_subtype":"","month":"2016-04"},{"category":"vehicle-crime","location_type":"Force","location":{"latitude":"51.503468","street":{"id":952376,"name":"On or near Lefroy Road"},"longitude":"-0.249986"},"context":"","outcome_status":{"category":"Status update unavailable","date":"2016-08"},"persistent_id":"4b481afe0406047764fa1e6e0441841fc346b91b0f76971f778ff4ab28ce996d","id":48492894,"location_subtype":"","month":"2016-04"},{"category":"vehicle-crime","location_type":"Force","location":{"latitude":"51.504310","street":{"id":952380,"name":"On or near Jeddo Road"},"longitude":"-0.247951"},"context":"","outcome_status":{"category":"Investigation complete; no suspect identified","date":"2017-05"},"persistent_id":"42845ccd6ff10ab9b5bbad311fc1cbfc41c1b5ac2ae23efe4d20ee9eed5aab49","id":48514547,"location_subtype":"","month":"2016-04"},{"category":"vehicle-crime","location_type":"Force","location":{"latitude":"51.502922","street":{"id":952334,"name":"On or near Curwen Road"},"longitude":"-0.241751"},"context":"","outcome_status":{"category":"Status update unavailable","date":"2016-08"},"persistent_id":"d3829bc4ef9089c4973f62f49a7d880d7257852e16120d0403b43bfd6de89441","id":48484443,"location_subtype":"","month":"2016-04"},{"category":"violent-crime","location_type":"Force","location":{"latitude":"51.506274","street":{"id":952341,"name":"On or near Supermarket"},"longitude":"-0.238034"},"context":"","outcome_status":{"category":"Investigation complete; no suspect identified","date":"2016-06"},"persistent_id":"f45d7ca94a5ec95c3606a9344253d7898f7ab7ec6e45840d13f6255cd8b8dbfa","id":48513357,"location_subtype":"","month":"2016-04"},{"category":"violent-crime","location_type":"Force","location":{"latitude":"51.506517","street":{"id":952311,"name":"On or near Uxbridge Road"},"longitude":"-0.239840"},"context":"","outcome_status":{"category":"Investigation complete; no suspect identified","date":"2016-05"},"persistent_id":"43ff27da73df732ec82db7768a6b4f3288117c92033edf6dea7e7025a8682235","id":48506035,"location_subtype":"","month":"2016-04"},{"category":"violent-crime","location_type":"Force","location":{"latitude":"51.503012","street":{"id":952386,"name":"On or near Gayford Road"},"longitude":"-0.245335"},"context":"","outcome_status":{"category":"Status update unavailable","date":"2016-08"},"persistent_id":"7c0f3027e75cf2381c4100feb094bfc1fabfbd1a48569715e3c2d42074b35d6f","id":48503350,"location_subtype":"","month":"2016-04"},{"category":"violent-crime","location_type":"Force","location":{"latitude":"51.505392","street":{"id":952321,"name":"On or near Lycett Place"},"longitude":"-0.241555"},"context":"","outcome_status":{"category":"Investigation complete; no suspect identified","date":"2016-04"},"persistent_id":"ba928befcbecf5823e82d4267aaf44b085f44e0764f27b3f2d1478101a83627a","id":48498568,"location_subtype":"","month":"2016-04"},{"category":"violent-crime","location_type":"Force","location":{"latitude":"51.501641","street":{"id":952387,"name":"On or near Emlyn Road"},"longitude":"-0.251684"},"context":"","outcome_status":{"category":"Investigation complete; no suspect identified","date":"2016-06"},"persistent_id":"a45ef3bc22ae4b066407274257ee0d684238746f9c660f481f06d27440049863","id":48496219,"location_subtype":"","month":"2016-04"},{"category":"violent-crime","location_type":"Force","location":{"latitude":"51.505368","street":{"id":952371,"name":"On or near St Elmo Road"},"longitude":"-0.245936"},"context":"","outcome_status":{"category":"Investigation complete; no suspect identified","date":"2016-06"},"persistent_id":"0e8826bc4475d34b77b34e83743e627b9c61aaeb0210b5c06f08d2a87873e3f2","id":48495137,"location_subtype":"","month":"2016-04"},{"category":"violent-crime","location_type":"Force","location":{"latitude":"51.506517","street":{"id":952311,"name":"On or near Uxbridge Road"},"longitude":"-0.239840"},"context":"","outcome_status":{"category":"Status update unavailable","date":"2016-08"},"persistent_id":"763028ac36a163e8e6b5fb1c6f20f880147e6cdc598c440d9bea06e2b5585354","id":48493874,"location_subtype":"","month":"2016-04"},{"category":"violent-crime","location_type":"Force","location":{"latitude":"51.501276","street":{"id":952327,"name":"On or near Greenside Road"},"longitude":"-0.238140"},"context":"","outcome_status":{"category":"Status update unavailable","date":"2016-08"},"persistent_id":"e5362533d40ca109cb4d4daa8292dcea9bfe99755691e23cb43a19f2998af48d","id":48490337,"location_subtype":"","month":"2016-04"},{"category":"violent-crime","location_type":"Force","location":{"latitude":"51.500992","street":{"id":952288,"name":"On or near Parnell Close"},"longitude":"-0.235414"},"context":"","outcome_status":{"category":"Court result unavailable","date":"2017-02"},"persistent_id":"0f8e690981259902001cc5c47225662f7be98471f1d36808040ae9a2dd4b78f3","id":48490462,"location_subtype":"","month":"2016-04"},{"category":"violent-crime","location_type":"Force","location":{"latitude":"51.504029","street":{"id":952312,"name":"On or near Thornfield Road"},"longitude":"-0.233423"},"context":"","outcome_status":{"category":"Investigation complete; no suspect identified","date":"2016-06"},"persistent_id":"f696641a94a21a8e04cb6c61a309e4fbea1ab95f3774e8e0ef617c0b67b110f6","id":48512334,"location_subtype":"","month":"2016-04"},{"category":"violent-crime","location_type":"Force","location":{"latitude":"51.503296","street":{"id":952320,"name":"On or near Melina Road"},"longitude":"-0.236088"},"context":"","outcome_status":{"category":"Offender given community sentence","date":"2016-05"},"persistent_id":"b5afd29f7221f1b6bdfed913131ac11f0009f4b3f77a5f169509003a0084efe2","id":48478641,"location_subtype":"","month":"2016-04"},{"category":"violent-crime","location_type":"Force","location":{"latitude":"51.500622","street":{"id":952305,"name":"On or near Shopping Area"},"longitude":"-0.235875"},"context":"","outcome_status":{"category":"Investigation complete; no suspect identified","date":"2016-06"},"persistent_id":"0599e14c53fae98c552f4d522fde5db1d1f822560150a1fe763962251d8d5cae","id":48512180,"location_subtype":"","month":"2016-04"},{"category":"violent-crime","location_type":"Force","location":{"latitude":"51.503702","street":{"id":952370,"name":"On or near Stronsa Road"},"longitude":"-0.248176"},"context":"","outcome_status":{"category":"Investigation complete; no suspect identified","date":"2016-06"},"persistent_id":"0460c8f5db063047ae92769051923df12e15ae6cc98f85fbd1238af7182ef7b9","id":48512984,"location_subtype":"","month":"2016-04"},{"category":"violent-crime","location_type":"Force","location":{"latitude":"51.503296","street":{"id":952320,"name":"On or near Melina Road"},"longitude":"-0.236088"},"context":"","outcome_status":{"category":"Investigation complete; no suspect identified","date":"2016-05"},"persistent_id":"87c5c416bd85988d20014ff6796eb5c5f65261a2db95e4aba88e2cca22c68b76","id":48512714,"location_subtype":"","month":"2016-04"},{"category":"violent-crime","location_type":"Force","location":{"latitude":"51.505368","street":{"id":952371,"name":"On or near St Elmo Road"},"longitude":"-0.245936"},"context":"","outcome_status":{"category":"Investigation complete; no suspect identified","date":"2016-06"},"persistent_id":"477dac12d3302e11e4403be1f096722afcbe133a53e63ccd0d38c0a68ee9a7f6","id":48513349,"location_subtype":"","month":"2016-04"},{"category":"violent-crime","location_type":"Force","location":{"latitude":"51.500668","street":{"id":952291,"name":"On or near Kelmscott Gardens"},"longitude":"-0.240138"},"context":"","outcome_status":{"category":"Offender given community sentence","date":"2016-05"},"persistent_id":"5984af77a397103c54d4cb1c25c8c96882b4721ba76fe02aa76eeb26093f737b","id":48513068,"location_subtype":"","month":"2016-04"},{"category":"violent-crime","location_type":"Force","location":{"latitude":"51.502733","street":{"id":952316,"name":"On or near Scott's Road"},"longitude":"-0.233387"},"context":"","outcome_status":{"category":"Investigation complete; no suspect identified","date":"2016-07"},"persistent_id":"95e02d9f105c55c7f272f809fb160a66121a5d9e9663e2910f13a36dd6f209cb","id":48513931,"location_subtype":"","month":"2016-04"},{"category":"violent-crime","location_type":"Force","location":{"latitude":"51.501270","street":{"id":952322,"name":"On or near Leysfield Road"},"longitude":"-0.237708"},"context":"","outcome_status":{"category":"Investigation complete; no suspect identified","date":"2016-06"},"persistent_id":"2012440415c0c29bb0b86f8a5ffc67a3cdf83f1244ccd2b5b800e0eb4bd0c476","id":48513288,"location_subtype":"","month":"2016-04"},{"category":"violent-crime","location_type":"Force","location":{"latitude":"51.506274","street":{"id":952341,"name":"On or near Supermarket"},"longitude":"-0.238034"},"context":"","outcome_status":{"category":"Local resolution","date":"2016-05"},"persistent_id":"5819ddda92dec51ad0ba482a9313a015aac70f2412e9e9c5c3d211a25e587377","id":48515138,"location_subtype":"","month":"2016-04"},{"category":"violent-crime","location_type":"Force","location":{"latitude":"51.505988","street":{"id":952309,"name":"On or near Westbridge Close"},"longitude":"-0.238722"},"context":"","outcome_status":{"category":"Investigation complete; no suspect identified","date":"2016-04"},"persistent_id":"415a0f956ec8c4585a3b844f92074851934eccc8feeb621092e6856140de2419","id":48515991,"location_subtype":"","month":"2016-04"},{"category":"violent-crime","location_type":"Force","location":{"latitude":"51.502691","street":{"id":952308,"name":"On or near Westville Road"},"longitude":"-0.238316"},"context":"","outcome_status":{"category":"Investigation complete; no suspect identified","date":"2016-06"},"persistent_id":"dbb8e564e55d346a0a231d26c366c76775a7055d607f27af057ee003cba89f8b","id":48516592,"location_subtype":"","month":"2016-04"},{"category":"violent-crime","location_type":"Force","location":{"latitude":"51.505988","street":{"id":952309,"name":"On or near Westbridge Close"},"longitude":"-0.238722"},"context":"","outcome_status":{"category":"Investigation complete; no suspect identified","date":"2016-04"},"persistent_id":"942fc5d4f7d38abbd34014040215f82894c31f57c503d9599effd7b130fa8346","id":48516899,"location_subtype":"","month":"2016-04"},{"category":"violent-crime","location_type":"Force","location":{"latitude":"51.506274","street":{"id":952341,"name":"On or near Supermarket"},"longitude":"-0.238034"},"context":"","outcome_status":{"category":"Investigation complete; no suspect identified","date":"2016-12"},"persistent_id":"725206136c484c98dffa13d8f350bc4fecbe9bd90dfbdad447c66efd15478ed8","id":48517956,"location_subtype":"","month":"2016-04"},{"category":"violent-crime","location_type":"Force","location":{"latitude":"51.506517","street":{"id":952311,"name":"On or near Uxbridge Road"},"longitude":"-0.239840"},"context":"","outcome_status":{"category":"Investigation complete; no suspect identified","date":"2016-06"},"persistent_id":"26cbc76553773ec2d5cbe1057d6cbe829a52b7e759289bfbd7992e93def83b6c","id":48521812,"location_subtype":"","month":"2016-04"},{"category":"violent-crime","location_type":"Force","location":{"latitude":"51.505392","street":{"id":952321,"name":"On or near Lycett Place"},"longitude":"-0.241555"},"context":"","outcome_status":{"category":"Status update unavailable","date":"2016-08"},"persistent_id":"fa5881d57a27f4c509d77e17c5394904c7e68e483b4838b7b0c83c3b6ad0e4cf","id":48523071,"location_subtype":"","month":"2016-04"},{"category":"violent-crime","location_type":"Force","location":{"latitude":"51.503012","street":{"id":952386,"name":"On or near Gayford Road"},"longitude":"-0.245335"},"context":"","outcome_status":{"category":"Investigation complete; no suspect identified","date":"2016-04"},"persistent_id":"a68e33fc5da77d330ed870acafc23f00e8c02ffe86616bb9adbe32244bdf1ab0","id":48493465,"location_subtype":"","month":"2016-04"},{"category":"violent-crime","location_type":"Force","location":{"latitude":"51.502838","street":{"id":952315,"name":"On or near Starfield Road"},"longitude":"-0.240976"},"context":"","outcome_status":{"category":"Local resolution","date":"2016-05"},"persistent_id":"89700aa057b596cf99efb85195972f51bc5b14b35fe45caac464e136cdbb85e4","id":48481779,"location_subtype":"","month":"2016-04"},{"category":"violent-crime","location_type":"Force","location":{"latitude":"51.500938","street":{"id":952302,"name":"On or near Ashchurch Grove"},"longitude":"-0.241337"},"context":"","outcome_status":{"category":"Investigation complete; no suspect identified","date":"2016-07"},"persistent_id":"164aa6b7b6d23ce33156a86e339dbad15ee883b52459d0fa3e0851a30a590d32","id":48481439,"location_subtype":"","month":"2016-04"},{"category":"violent-crime","location_type":"Force","location":{"latitude":"51.503296","street":{"id":952320,"name":"On or near Melina Road"},"longitude":"-0.236088"},"context":"","outcome_status":{"category":"Investigation complete; no suspect identified","date":"2016-05"},"persistent_id":"ce82defed70c5b944b5af5aab383030b4274d15f093bf1996d20988e70a310ca","id":48513192,"location_subtype":"","month":"2016-04"},{"category":"violent-crime","location_type":"Force","location":{"latitude":"51.504555","street":{"id":952396,"name":"On or near Becklow Road"},"longitude":"-0.243331"},"context":"","outcome_status":{"category":"Defendant found not guilty","date":"2016-07"},"persistent_id":"5a40721b236bae2a5fd13bb0b2451050aae7346196cc2060fd40292320f94eda","id":48487249,"location_subtype":"","month":"2016-04"},{"category":"violent-crime","location_type":"Force","location":{"latitude":"51.503667","street":{"id":952335,"name":"On or near Coningham Road"},"longitude":"-0.234460"},"context":"","outcome_status":{"category":"Investigation complete; no suspect identified","date":"2016-06"},"persistent_id":"8603338966eee8c663894a3186fa92c6cd5672373e5e2b8a4890b73393a8990f","id":48522576,"location_subtype":"","month":"2016-04"},{"category":"violent-crime","location_type":"Force","location":{"latitude":"51.506517","street":{"id":952311,"name":"On or near Uxbridge Road"},"longitude":"-0.239840"},"context":"","outcome_status":{"category":"Investigation complete; no suspect identified","date":"2016-06"},"persistent_id":"db17a6b61f6ede2962d30603d8edc315c2c52fee7e16775dc9d1c0e5f553aac1","id":48504848,"location_subtype":"","month":"2016-04"},{"category":"violent-crime","location_type":"Force","location":{"latitude":"51.503088","street":{"id":952400,"name":"On or near Askew Road"},"longitude":"-0.243214"},"context":"","outcome_status":{"category":"Investigation complete; no suspect identified","date":"2016-05"},"persistent_id":"b9b10e997d4aff2131fa849bf3bb6cf1c46c2094424831214268f85edb3dc119","id":48479543,"location_subtype":"","month":"2016-04"},{"category":"violent-crime","location_type":"Force","location":{"latitude":"51.503296","street":{"id":952320,"name":"On or near Melina Road"},"longitude":"-0.236088"},"context":"","outcome_status":{"category":"Investigation complete; no suspect identified","date":"2016-05"},"persistent_id":"9ca4f69db03f309f100b8c699b7c2a98b7b7ea15b9b48cf06c964d68f108eb8f","id":48505066,"location_subtype":"","month":"2016-04"},{"category":"violent-crime","location_type":"Force","location":{"latitude":"51.501641","street":{"id":952387,"name":"On or near Emlyn Road"},"longitude":"-0.251684"},"context":"","outcome_status":{"category":"Investigation complete; no suspect identified","date":"2016-06"},"persistent_id":"68b3cdf3c181bb6bbe7c828ebf463dd136138447ea9199dced6c018b10fb2857","id":48487759,"location_subtype":"","month":"2016-04"},{"category":"violent-crime","location_type":"Force","location":{"latitude":"51.503296","street":{"id":952320,"name":"On or near Melina Road"},"longitude":"-0.236088"},"context":"","outcome_status":{"category":"Court case unable to proceed","date":"2017-08"},"persistent_id":"8ff28a07e21085428a8051a379bf3bd29a0fd0972f02d83c71cf1a0bbb74a734","id":48497171,"location_subtype":"","month":"2016-04"},{"category":"violent-crime","location_type":"Force","location":{"latitude":"51.503012","street":{"id":952386,"name":"On or near Gayford Road"},"longitude":"-0.245335"},"context":"","outcome_status":{"category":"Investigation complete; no suspect identified","date":"2016-05"},"persistent_id":"7c0f3027e75cf2381c4100feb094bfc1fabfbd1a48569715e3c2d42074b35d6f","id":48503352,"location_subtype":"","month":"2016-04"},{"category":"other-crime","location_type":"Force","location":{"latitude":"51.502699","street":{"id":952377,"name":"On or near Laurence Mews"},"longitude":"-0.242437"},"context":"","outcome_status":{"category":"Offender sent to prison","date":"2016-04"},"persistent_id":"a96c88d736756fbe20934334d7bcc2a376248259bbba20d7a05c299aa4d61ad1","id":48509298,"location_subtype":"","month":"2016-04"},{"category":"other-crime","location_type":"Force","location":{"latitude":"51.503275","street":{"id":952378,"name":"On or near Landor Walk"},"longitude":"-0.242487"},"context":"","outcome_status":{"category":"Investigation complete; no suspect identified","date":"2016-04"},"persistent_id":"8565142e8bdc40a80d4e49ff5bb795a46d522e1b56c429f7973c870e5abb5ae7","id":48479566,"location_subtype":"","month":"2016-04"},{"category":"other-crime","location_type":"Force","location":{"latitude":"51.502556","street":{"id":952333,"name":"On or near Davisville Road"},"longitude":"-0.240151"},"context":"","outcome_status":{"category":"Court result unavailable","date":"2016-12"},"persistent_id":"1bd57630a1b2fa24332b0ea7aa11f84c47c37308d6a95af535114b33ef85aff2","id":48506697,"location_subtype":"","month":"2016-04"}]