[{"category":"anti-social-behaviour","location_type":"Force","location":{"latitude":"51.502250","street":{"id":951840,"name":"On or near Belvedere Road"},"longitude":"-0.336828"},"context":"","outcome_status":null,"persistent_id":"","id":48474359,"location_subtype":"","month":"2016-04"},{"category":"anti-social-behaviour","location_type":"Force","location":{"latitude":"51.507490","street":{"id":951738,"name":"On or near Walker Close"},"longitude":"-0.342402"},"context":"","outcome_status":null,"persistent_id":"","id":48474396,"location_subtype":"","month":"2016-04"},{"category":"anti-social-behaviour","location_type":"Force","location":{"latitude":"51.511307","street":{"id":958047,"name":"On or near William's Road"},"longitude":"-0.324999"},"context":"","outcome_status":null,"persistent_id":"","id":48473970,"location_subtype":"","month":"2016-04"},{"category":"anti-social-behaviour","location_type":"Force","location":{"latitude":"51.511307","street":{"id":958047,"name":"On or near William's Road"},"longitude":"-0.324999"},"context":"","outcome_status":null,"persistent_id":"","id":48473971,"location_subtype":"","month":"2016-04"},{"category":"anti-social-behaviour","location_type":"Force","location":{"latitude":"51.511307","street":{"id":958047,"name":"On or near William's Road"},"longitude":"-0.324999"},"context":"","outcome_status":null,"persistent_id":"","id":48473972,"location_subtype":"","month":"2016-04"},{"category":"anti-social-behaviour","location_type":"Force","location":{"latitude":"51.511307","street":{"id":958047,"name":"On or near William's Road"},"longitude":"-0.324999"},"context":"","outcome_status":null,"persistent_id":"","id":48473973,"location_subtype":"","month":"2016-04"},{"category":"anti-social-behaviour","location_type":"Force","location":{"latitude":"51.511307","street":{"id":958047,"name":"On or near William's Road"},"longitude":"-0.324999"},"context":"","outcome_status":null,"persistent_id":"","id":48473974,"location_subtype":"","month":"2016-04"},{"category":"anti-social-behaviour","location_type":"Force","location":{"latitude":"51.511307","street":{"id":958047,"name":"On or near William's Road"},"longitude":"-0.324999"},"context":"","outcome_status":null,"persistent_id":"","id":48473975,"location_subtype":"","month":"2016-04"},{"category":"anti-social-behaviour","location_type":"Force","location":{"latitude":"51.511307","street":{"id":958047,"name":"On or near William's Road"},"longitude":"-0.324999"},"context":"","outcome_status":null,"persistent_id":"","id":48473977,"location_subtype":"","month":"2016-04"},{"category":"anti-social-behaviour","location_type":"Force","location":{"latitude":"51.496267","street":{"id":951888,"name":"On or near Wellmeadow Road"},"longitude":"-0.326515"},"context":"","outcome_status":null,"persistent_id":"","id":48473978,"location_subtype":"","month":"2016-04"},{"category":"anti-social-behaviour","location_type":"Force","location":{"latitude":"51.510030","street":{"id":958128,"name":"On or near Chignell Place"},"longitude":"-0.326256"},"context":"","outcome_status":null,"persistent_id":"","id":48473983,"location_subtype":"","month":"2016-04"},{"category":"anti-social-behaviour","location_type":"Force","location":{"latitude":"51.510030","street":{"id":958128,"name":"On or near Chignell Place"},"longitude":"-0.326256"},"context":"","outcome_status":null,"persistent_id":"","id":48473984,"location_subtype":"","month":"2016-04"},{"category":"anti-social-behaviour","location_type":"Force","location":{"latitude":"51.508279","street":{"id":951862,"name":"On or near Grosvenor Road"},"longitude":"-0.328323"},"context":"","outcome_status":null,"persistent_id":"","id":48473986,"location_subtype":"","month":"2016-04"},{"category":"anti-social-behaviour","location_type":"Force","location":{"latitude":"51.508279","street":{"id":951862,"name":"On or near Grosvenor Road"},"longitude":"-0.328323"},"context":"","outcome_status":null,"persistent_id":"","id":48473987,"location_subtype":"","month":"2016-04"},{"category":"anti-social-behaviour","location_type":"Force","location":{"latitude":"51.508279","street":{"id":951862,"name":"On or near Grosvenor Road"},"longitude":"-0.328323"},"context":"","outcome_status":null,"persistent_id":"","id":48473988,"location_subtype":"","month":"2016-04"},{"category":"anti-social-behaviour","location_type":"Force","location":{"latitude":"51.511894","street":{"id":958020,"name":"On or near Endsleigh Road"},"longitude":"-0.327643"},"context":"","outcome_status":null,"persistent_id":"","id":48473989,"location_subtype":"","month":"2016-04"},{"category":"anti-social-behaviour","location_type":"Force","location":{"latitude":"51.500284","street":{"id":951842,"name":"On or near Westlea Road"},"longitude":"-0.329466"},"context":"","outcome_status":null,"persistent_id":"","id":48473994,"location_subtype":"","month":"2016-04"},{"category":"anti-social-behaviour","location_type":"Force","location":{"latitude":"51.509021","street":{"id":958125,"name":"On or near Michael Gaynor Close"},"longitude":"-0.330530"},"context":"","outcome_status":null,"persistent_id":"","id":48473995,"location_subtype":"","month":"2016-04"},{"category":"anti-social-behaviour","location_type":"Force","location":{"latitude":"51.509021","street":{"id":958125,"name":"On or near Michael Gaynor Close"},"longitude":"-0.330530"},"context":"","outcome_status":null,"persistent_id":"","id":48473996,"location_subtype":"","month":"2016-04"},{"category":"anti-social-behaviour","location_type":"Force","location":{"latitude":"51.508921","street":{"id":958130,"name":"On or near Barchester Close"},"longitude":"-0.331700"},"context":"","outcome_status":null,"persistent_id":"","id":48474002,"location_subtype":"","month":"2016-04"},{"category":"anti-social-behaviour","location_type":"Force","location":{"latitude":"51.508921","street":{"id":958130,"name":"On or near Barchester Close"},"longitude":"-0.331700"},"context":"","outcome_status":null,"persistent_id":"","id":48474003,"location_subtype":"","month":"2016-04"},{"category":"anti-social-behaviour","location_type":"Force","location":{"latitude":"51.508921","street":{"id":958130,"name":"On or near Barchester Close"},"longitude":"-0.331700"},"context":"","outcome_status":null,"persistent_id":"","id":48474004,"location_subtype":"","month":"2016-04"},{"category":"anti-social-behaviour","location_type":"Force","location":{"latitude":"51.513200","street":{"id":958080,"name":"On or near Alexandria Road"},"longitude":"-0.319654"},"context":"","outcome_status":null,"persistent_id":"","id":48473926,"location_subtype":"","month":"2016-04"},{"category":"anti-social-behaviour","location_type":"Force","location":{"latitude":"51.512367","street":{"id":958054,"name":"On or near Lancing Road"},"longitude":"-0.319858"},"context":"","outcome_status":null,"persistent_id":"","id":48473928,"location_subtype":"","month":"2016-04"},{"category":"anti-social-behaviour","location_type":"Force","location":{"latitude":"51.510942","street":{"id":958105,"name":"On or near Witham Road"},"longitude":"-0.322072"},"context":"","outcome_status":null,"persistent_id":"","id":48473935,"location_subtype":"","month":"2016-04"},{"category":"anti-social-behaviour","location_type":"Force","location":{"latitude":"51.508794","street":{"id":958137,"name":"On or near Uxbridge Road"},"longitude":"-0.336057"},"context":"","outcome_status":null,"persistent_id":"","id":48474352,"location_subtype":"","month":"2016-04"},{"category":"anti-social-behaviour","location_type":"Force","location":{"latitude":"51.508794","street":{"id":958137,"name":"On or near Uxbridge Road"},"longitude":"-0.336057"},"context":"","outcome_status":null,"persistent_id":"","id":48474353,"location_subtype":"","month":"2016-04"},{"category":"anti-social-behaviour","location_type":"Force","location":{"latitude":"51.508404","street":{"id":951752,"name":"On or near Clocktower Mews"},"longitude":"-0.338362"},"context":"","outcome_status":null,"persistent_id":"","id":48474369,"location_subtype":"","month":"2016-04"},{"category":"anti-social-behaviour","location_type":"Force","location":{"latitude":"51.508404","street":{"id":951752,"name":"On or near Clocktower Mews"},"longitude":"-0.338362"},"context":"","outcome_status":null,"persistent_id":"","id":48474370,"location_subtype":"","month":"2016-04"},{"category":"anti-social-behaviour","location_type":"Force","location":{"latitude":"51.508231","street":{"id":951749,"name":"On or near George Street"},"longitude":"-0.338844"},"context":"","outcome_status":null,"persistent_id":"","id":48474375,"location_subtype":"","month":"2016-04"},{"category":"anti-social-behaviour","location_type":"Force","location":{"latitude":"51.508231","street":{"id":951749,"name":"On or near George Street"},"longitude":"-0.338844"},"context":"","outcome_status":null,"persistent_id":"","id":48474376,"location_subtype":"","month":"2016-04"},{"category":"anti-social-behaviour","location_type":"Force","location":{"latitude":"51.508231","street":{"id":951749,"name":"On or near George Street"},"longitude":"-0.338844"},"context":"","outcome_status":null,"persistent_id":"","id":48474377,"location_subtype":"","month":"2016-04"},{"category":"anti-social-behaviour","location_type":"Force","location":{"latitude":"51.508231","street":{"id":951749,"name":"On or near George Street"},"longitude":"-0.338844"},"context":"","outcome_status":null,"persistent_id":"","id":48474378,"location_subtype":"","month":"2016-04"},{"category":"anti-social-behaviour","location_type":"Force","location":{"latitude":"51.508231","street":{"id":951749,"name":"On or near George Street"},"longitude":"-0.338844"},"context":"","outcome_status":null,"persistent_id":"","id":48474379,"location_subtype":"","month":"2016-04"},{"category":"anti-social-behaviour","location_type":"Force","location":{"latitude":"51.505362","street":{"id":951740,"name":"On or near St Mark's Road"},"longitude":"-0.340058"},"context":"","outcome_status":null,"persistent_id":"","id":48474380,"location_subtype":"","month":"2016-04"},{"category":"anti-social-behaviour","location_type":"Force","location":{"latitude":"51.503921","street":{"id":951746,"name":"On or near Mallard Close"},"longitude":"-0.342459"},"context":"","outcome_status":null,"persistent_id":"","id":48474390,"location_subtype":"","month":"2016-04"},{"category":"anti-social-behaviour","location_type":"Force","location":{"latitude":"51.510521","street":{"id":958197,"name":"On or near Conolly Road"},"longitude":"-0.341182"},"context":"","outcome_status":null,"persistent_id":"","id":48474391,"location_subtype":"","month":"2016-04"},{"category":"anti-social-behaviour","location_type":"Force","location":{"latitude":"51.507490","street":{"id":951738,"name":"On or near Walker Close"},"longitude":"-0.342402"},"context":"","outcome_status":null,"persistent_id":"","id":48474394,"location_subtype":"","month":"2016-04"},{"category":"anti-social-behaviour","location_type":"Force","location":{"latitude":"51.507490","street":{"id":951738,"name":"On or near Walker Close"},"longitude":"-0.342402"},"context":"","outcome_status":null,"persistent_id":"","id":48474395,"location_subtype":"","month":"2016-04"},{"category":"bicycle-theft","location_type":"Force","location":{"latitude":"51.508794","street":{"id":958137,"name":"On or near Uxbridge Road"},"longitude":"-0.336057"},"context":"","outcome_status":{"category":"Status update unavailable","date":"2016-08"},"persistent_id":"b804e9f7992b4e8a31bfffd3663b7f0a417c1e787f0e970680d3b7c76679bff0","id":48497797,"location_subtype":"","month":"2016-04"},{"category":"bicycle-theft","location_type":"Force","location":{"latitude":"51.508794","street":{"id":958137,"name":"On or near Uxbridge Road"},"longitude":"-0.336057"},"context":"","outcome_status":{"category":"Court result unavailable","date":"2016-11"},"persistent_id":"11ace264bb8b011174d75f069fae140445ddf7190e3684037b8f4a804659404d","id":48559285,"location_subtype":"","month":"2016-04"},{"category":"bicycle-theft","location_type":"Force","location":{"latitude":"51.513046","street":{"id":958083,"name":"On or near Supermarket"},"longitude":"-0.321418"},"context":"","outcome_status":{"category":"Investigation complete; no suspect identified","date":"2016-05"},"persistent_id":"7fe753ac1591f23d6302f23ba4004768862e5e76f31ccb015c27174bbfc390b5","id":48504422,"location_subtype":"","month":"2016-04"},{"category":"burglary","location_type":"Force","location":{"latitude":"51.506965","street":{"id":951861,"name":"On or near Grosvenor Road"},"longitude":"-0.327564"},"context":"","outcome_status":{"category":"Status update unavailable","date":"2016-08"},"persistent_id":"99500035029c7c2fd969cd38ed7ded9b50393428287ea44381e6ef04f74bdff7","id":48564462,"location_subtype":"","month":"2016-04"},{"category":"burglary","location_type":"Force","location":{"latitude":"51.504018","street":{"id":951877,"name":"On or near Rosedale Close"},"longitude":"-0.334084"},"context":"","outcome_status":{"category":"Status update unavailable","date":"2016-08"},"persistent_id":"89a7cb514eb09ac737f50c5cb81144f7fef391e63c65459fd29bf9725afb5f63","id":48560620,"location_subtype":"","month":"2016-04"},{"category":"burglary","location_type":"Force","location":{"latitude":"51.504917","street":{"id":951754,"name":"On or near Bostonthorpe Road"},"longitude":"-0.338475"},"context":"","outcome_status":{"category":"Status update unavailable","date":"2016-08"},"persistent_id":"fa517c0d17fb94eba1a06de9534e15419922a2cc2b0ed24e9496be5433bff3f3","id":48565263,"location_subtype":"","month":"2016-04"},{"category":"burglary","location_type":"Force","location":{"latitude":"51.503921","street":{"id":951746,"name":"On or near Mallard Close"},"longitude":"-0.342459"},"context":"","outcome_status":{"category":"Status update unavailable","date":"2016-08"},"persistent_id":"e167bf76913d38f083c9f1e43561607c51d89a993f2e04cb796aa57ef1cbed74","id":48520071,"location_subtype":"","month":"2016-04"},{"category":"burglary","location_type":"Force","location":{"latitude":"51.512142","street":{"id":958012,"name":"On or near Romsey Road"},"longitude":"-0.325544"},"context":"","outcome_status":{"category":"Status update unavailable","date":"2016-08"},"persistent_id":"b293d248e244444478626573cd5e76e12d2f9bb15cd08d850d2bc554fad6bea4","id":48529501,"location_subtype":"","month":"2016-04"},{"category":"burglary","location_type":"Force","location":{"latitude":"51.512142","street":{"id":958012,"name":"On or near Romsey Road"},"longitude":"-0.325544"},"context":"","outcome_status":{"category":"Investigation complete; no suspect identified","date":"2016-06"},"persistent_id":"49f9804c47161c4b9904db2609c17d132b6852d89c3ffe8522d2d1a6c8951d12","id":48552259,"location_subtype":"","month":"2016-04"},{"category":"burglary","location_type":"Force","location":{"latitude":"51.504182","street":{"id":951901,"name":"On or near Osterley Park View Road"},"longitude":"-0.337421"},"context":"","outcome_status":{"category":"Investigation complete; no suspect identified","date":"2016-06"},"persistent_id":"037db5ae4e504afe4d561a71435e14649b005d791a4f33b87185e3eb9e100f56","id":48515075,"location_subtype":"","month":"2016-04"},{"category":"criminal-damage-arson","location_type":"Force","location":{"latitude":"51.511549","street":{"id":958045,"name":"On or near Kirn Road"},"longitude":"-0.319917"},"context":"","outcome_status":{"category":"Offender given community sentence","date":"2016-05"},"persistent_id":"bd551a9e8e8a2819db82cea11c5dc6975c2951faa7c4663cfa80467a1ed2a042","id":48510501,"location_subtype":"","month":"2016-04"},{"category":"criminal-damage-arson","location_type":"Force","location":{"latitude":"51.511307","street":{"id":958047,"name":"On or near William's Road"},"longitude":"-0.324999"},"context":"","outcome_status":{"category":"Status update unavailable","date":"2016-08"},"persistent_id":"fcd2607f3b40b462e30b772a98d540f054960119adc29943e685da636727f8f6","id":48564992,"location_subtype":"","month":"2016-04"},{"category":"criminal-damage-arson","location_type":"Force","location":{"latitude":"51.500284","street":{"id":951842,"name":"On or near Westlea Road"},"longitude":"-0.329466"},"context":"","outcome_status":{"category":"Status update unavailable","date":"2016-08"},"persistent_id":"f3cc86839a276f3949cfc621e37ced71ed646806ce32a9d41c82a271f61c7f59","id":48506935,"location_subtype":"","month":"2016-04"},{"category":"criminal-damage-arson","location_type":"Force","location":{"latitude":"51.510030","street":{"id":958128,"name":"On or near Chignell Place"},"longitude":"-0.326256"},"context":"","outcome_status":{"category":"Investigation complete; no suspect identified","date":"2016-07"},"persistent_id":"906c5b93628bb8ba30222146c15a1083ca31a4f7fe7201677e7c62be637995ba","id":48504418,"location_subtype":"","month":"2016-04"},{"category":"criminal-damage-arson","location_type":"Force","location":{"latitude":"51.509271","street":{"id":958196,"name":"On or near Half Acre Road"},"longitude":"-0.341775"},"context":"","outcome_status":{"category":"Status update unavailable","date":"2016-08"},"persistent_id":"adf255f753c3ad6f2060f724fdc841fe3e9406895a9499bf0f303611e65a3eba","id":48540033,"location_subtype":"","month":"2016-04"},{"category":"criminal-damage-arson","location_type":"Force","location":{"latitude":"51.511894","street":{"id":958020,"name":"On or near Endsleigh Road"},"longitude":"-0.327643"},"context":"","outcome_status":{"category":"Local resolution","date":"2016-06"},"persistent_id":"15c4b32c3f4ba468f0a9af20c0b546c0b222065c412ac5aa24eba788035970f1","id":48557698,"location_subtype":"","month":"2016-04"},{"category":"criminal-damage-arson","location_type":"Force","location":{"latitude":"51.509021","street":{"id":958125,"name":"On or near Michael Gaynor Close"},"longitude":"-0.330530"},"context":"","outcome_status":{"category":"Investigation complete; no suspect identified","date":"2016-04"},"persistent_id":"0e608d211ffb0364233d9adbf547fd60ec8bf732215e35ea14e43fe7a49e7cbe","id":48542964,"location_subtype":"","month":"2016-04"},{"category":"criminal-damage-arson","location_type":"Force","location":{"latitude":"51.507490","street":{"id":951738,"name":"On or near Walker Close"},"longitude":"-0.342402"},"context":"","outcome_status":{"category":"Offender given conditional discharge","date":"2016-04"},"persistent_id":"4de0d1fa43025b76d244ef37d6a42e73210cae77cd25f0c138581defafc96009","id":48493371,"location_subtype":"","month":"2016-04"},{"category":"drugs","location_type":"Force","location":{"latitude":"51.511894","street":{"id":958020,"name":"On or near Endsleigh Road"},"longitude":"-0.327643"},"context":"","outcome_status":{"category":"Investigation complete; no suspect identified","date":"2016-11"},"persistent_id":"3582e6f34c2d398e285a101983d2d8367101487018e4b55c018f8c9790df4680","id":48558988,"location_subtype":"","month":"2016-04"},{"category":"drugs","location_type":"Force","location":{"latitude":"51.510030","street":{"id":958128,"name":"On or near Chignell Place"},"longitude":"-0.326256"},"context":"","outcome_status":{"category":"Offender given a drugs possession warning","date":"2016-04"},"persistent_id":"a78b8d97e638424fc69a389ac11e365e2ddf8233511a8c07cf35315c22fe6630","id":48510144,"location_subtype":"","month":"2016-04"},{"category":"drugs","location_type":"Force","location":{"latitude":"51.510030","street":{"id":958128,"name":"On or near Chignell Place"},"longitude":"-0.326256"},"context":"","outcome_status":{"category":"Offender given penalty notice","date":"2016-04"},"persistent_id":"6bd400da8784257de9a26e0005cea9ccb1a99dab32800cad6544bd967c152550","id":48527210,"location_subtype":"","month":"2016-04"},{"category":"drugs","location_type":"Force","location":{"latitude":"51.510030","street":{"id":958128,"name":"On or near Chignell Place"},"longitude":"-0.326256"},"context":"","outcome_status":{"category":"Investigation complete; no suspect identified","date":"2016-06"},"persistent_id":"a7e6620b0564efa6e02e24367335c1edf1baceac5248f9425ddd2dad315b5938","id":48528165,"location_subtype":"","month":"2016-04"},{"category":"drugs","location_type":"Force","location":{"latitude":"51.510030","street":{"id":958128,"name":"On or near Chignell Place"},"longitude":"-0.326256"},"context":"","outcome_status":{"category":"Offender fined","date":"2016-05"},"persistent_id":"c0f4bda4abfe907ec8ccc67188c2bbc9b3894dae3ae78fba0f38012a488c5e27","id":48527280,"location_subtype":"","month":"2016-04"},{"category":"drugs","location_type":"Force","location":{"latitude":"51.512142","street":{"id":958012,"name":"On or near Romsey Road"},"longitude":"-0.325544"},"context":"","outcome_status":{"category":"Offender given penalty notice","date":"2016-04"},"persistent_id":"343bda03df1e4fe54a7b3b482547ae796d22eebfe169190c222fc327d8ff8b99","id":48532425,"location_subtype":"","month":"2016-04"},{"category":"drugs","location_type":"Force","location":{"latitude":"51.510030","street":{"id":958128,"name":"On or near Chignell Place"},"longitude":"-0.326256"},"context":"","outcome_status":{"category":"Investigation complete; no suspect identified","date":"2016-04"},"persistent_id":"5aede0ab94ef73665ca598986e124a0b1a86d6dd02a3d00e810ae35709227f72","id":48531968,"location_subtype":"","month":"2016-04"},{"category":"drugs","location_type":"Force","location":{"latitude":"51.510030","street":{"id":958128,"name":"On or near Chignell Place"},"longitude":"-0.326256"},"context":"","outcome_status":{"category":"Offender given penalty notice","date":"2016-04"},"persistent_id":"141dab2f7cde61e0bfb6245b945b9355849cdcfdf6a2f7ec9daa83876fdac471","id":48529709,"location_subtype":"","month":"2016-04"},{"category":"drugs","location_type":"Force","location":{"latitude":"51.511727","street":{"id":958058,"name":"On or near Green Man Gardens"},"longitude":"-0.323513"},"context":"","outcome_status":{"category":"Offender given penalty notice","date":"2016-05"},"persistent_id":"91c83c7645ba8b8fc9f4ec9f41d40c46af44303d6010b08821137af76c30f9bb","id":48531529,"location_subtype":"","month":"2016-04"},{"category":"drugs","location_type":"Force","location":{"latitude":"51.511307","street":{"id":958047,"name":"On or near William's Road"},"longitude":"-0.324999"},"context":"","outcome_status":{"category":"Court result unavailable","date":"2016-11"},"persistent_id":"b32c20d8c4066a38925f6939470b14f5d57473c61c324d23eb0a74d9c571734e","id":48559411,"location_subtype":"","month":"2016-04"},{"category":"drugs","location_type":"Force","location":{"latitude":"51.511007","street":{"id":958112,"name":"On or near Green Man Lane"},"longitude":"-0.323482"},"context":"","outcome_status":{"category":"Offender sent to prison","date":"2016-05"},"persistent_id":"9ce4f814f28d969984c434ee928bd6534ac4a76aafebd83da432b6ca257b2bf5","id":48531465,"location_subtype":"","month":"2016-04"},{"category":"other-theft","location_type":"Force","location":{"latitude":"51.509253","street":{"id":958148,"name":"On or near Petrol Station"},"longitude":"-0.334152"},"context":"","outcome_status":{"category":"Investigation complete; no suspect identified","date":"2016-04"},"persistent_id":"41529a0eeebd525ec85ca3e1a31043540fe2d7e53418493b3733aa66a02c669c","id":48521141,"location_subtype":"","month":"2016-04"},{"category":"other-theft","location_type":"Force","location":{"latitude":"51.509253","street":{"id":958148,"name":"On or near Petrol Station"},"longitude":"-0.334152"},"context":"","outcome_status":{"category":"Investigation complete; no suspect identified","date":"2016-04"},"persistent_id":"63e7515885ddfc1c3a9d762d2e68eab9471b84305aa72c55da959e6ba19a79cf","id":48483070,"location_subtype":"","month":"2016-04"},{"category":"other-theft","location_type":"Force","location":{"latitude":"51.510454","street":{"id":958132,"name":"On or near Shopping Area"},"longitude":"-0.325664"},"context":"","outcome_status":{"category":"Status update unavailable","date":"2016-08"},"persistent_id":"2bdead22644e6c5ad80e397d65a5595a08d7d6619983f779101ab7967a94fff7","id":48484203,"location_subtype":"","month":"2016-04"},{"category":"other-theft","location_type":"Force","location":{"latitude":"51.509021","street":{"id":958125,"name":"On or near Michael Gaynor Close"},"longitude":"-0.330530"},"context":"","outcome_status":{"category":"Status update unavailable","date":"2016-08"},"persistent_id":"36920c90fa76a0749c46c6c9f50ea05688b548774bbf7fca61d49627d14600e4","id":48497662,"location_subtype":"","month":"2016-04"},{"category":"other-theft","location_type":"Force","location":{"latitude":"51.506965","street":{"id":951747,"name":"On or near Lower Boston Road"},"longitude":"-0.339582"},"context":"","outcome_status":{"category":"Investigation complete; no suspect identified","date":"2016-05"},"persistent_id":"b5b5e717bab438127dd6f6dfb358b40433ee66fc8ec22af822f06d1ddbde10bc","id":48500161,"location_subtype":"","month":"2016-04"},{"category":"other-theft","location_type":"Force","location":{"latitude":"51.513046","street":{"id":958083,"name":"On or near Supermarket"},"longitude":"-0.321418"},"context":"","outcome_status":{"category":"Offender given a caution","date":"2016-05"},"persistent_id":"76b9f8823f4b7dbb220c102acaf4c3120efa7b09688fa066701ab2da20a81e45","id":48500234,"location_subtype":"","month":"2016-04"},{"category":"other-theft","location_type":"Force","location":{"latitude":"51.501406","street":{"id":951839,"name":"On or near Trumpers Way"},"longitude":"-0.336946"},"context":"","outcome_status":{"category":"Status update unavailable","date":"2016-08"},"persistent_id":"8a4275c9b45042496296d3eee3ff8a1bf304dffb0f224512a1e8f4b9bd0d315d","id":48507075,"location_subtype":"","month":"2016-04"},{"category":"other-theft","location_type":"Force","location":{"latitude":"51.509253","street":{"id":958148,"name":"On or near Petrol Station"},"longitude":"-0.334152"},"context":"","outcome_status":{"category":"Investigation complete; no suspect identified","date":"2016-04"},"persistent_id":"07f3b52a1a6a8fc24250a84ac8b29114a81329937a347666918e2b40d50908aa","id":48530715,"location_subtype":"","month":"2016-04"},{"category":"other-theft","location_type":"Force","location":{"latitude":"51.503564","street":{"id":951741,"name":"On or near St Margaret's Road"},"longitude":"-0.340109"},"context":"","outcome_status":{"category":"Investigation complete; no suspect identified","date":"2016-05"},"persistent_id":"ef27e015c34bbcd9b2f172eebaca87e37510fc3fd5b96a03a5f8d7df044f8765","id":48531571,"location_subtype":"","month":"2016-04"},{"category":"other-theft","location_type":"Force","location":{"latitude":"51.509110","street":{"id":958146,"name":"On or near Broadway"},"longitude":"-0.337386"},"context":"","outcome_status":{"category":"Investigation complete; no suspect identified","date":"2016-06"},"persistent_id":"149254cae9974231c48b9aed29b4867199e77b99ca6c68e5017b2b09d09b4632","id":48547872,"location_subtype":"","month":"2016-04"},{"category":"other-theft","location_type":"Force","location":{"latitude":"51.502250","street":{"id":951840,"name":"On or near Belvedere Road"},"longitude":"-0.336828"},"context":"","outcome_status":{"category":"Investigation complete; no suspect identified","date":"2016-04"},"persistent_id":"3b8c8c8d3ab9cf3e5cd8114b1b63be8b6fb3985ee3fb88282873f04b972b22ad","id":48557907,"location_subtype":"","month":"2016-04"},{"category":"other-theft","location_type":"Force","location":{"latitude":"51.509253","street":{"id":958148,"name":"On or near Petrol Station"},"longitude":"-0.334152"},"context":"","outcome_status":{"category":"Investigation complete; no suspect identified","date":"2016-04"},"persistent_id":"43d73a1339108d0247b3fafd4b9f61aab2ed450e4a56b51c7614d7d3f26fff03","id":48564784,"location_subtype":"","month":"2016-04"},{"category":"other-theft","location_type":"Force","location":{"latitude":"51.504244","street":{"id":951871,"name":"On or near Petrol Station"},"longitude":"-0.333514"},"context":"","outcome_status":{"category":"Investigation complete; no suspect identified","date":"2016-04"},"persistent_id":"d9b32f6b0273c9745001a36c03954880999ddd745ddcc226ee61940ed83c9a62","id":48566338,"location_subtype":"","month":"2016-04"},{"category":"other-theft","location_type":"Force","location":{"latitude":"51.509253","street":{"id":958148,"name":"On or near Petrol Station"},"longitude":"-0.334152"},"context":"","outcome_status":{"category":"Investigation complete; no suspect identified","date":"2016-04"},"persistent_id":"c9a64858ac5931925e276cef47914d9485c3c6082ebac994d1dd3d7b8304b794","id":48562449,"location_subtype":"","month":"2016-04"},{"category":"other-theft","location_type":"Force","location":{"latitude":"51.509993","street":{"id":958121,"name":"On or near Walsingham Road"},"longitude":"-0.326819"},"context":"","outcome_status":{"category":"Investigation complete; no suspect identified","date":"2016-04"},"persistent_id":"3e681afbfcdd3542fb21a3617bc8ab98c99be75bbfbfe03950ff573beac77a6a","id":48526305,"location_subtype":"","month":"2016-04"},{"category":"other-theft","location_type":"Force","location":{"latitude":"51.507913","street":{"id":951879,"name":"On or near Montague Avenue"},"longitude":"-0.334792"},"context":"","outcome_status":{"category":"Investigation complete; no suspect identified","date":"2016-04"},"persistent_id":"7058b31e4814d39dc65645a3b7a1d939fd4c16c1fd698fb9e87d7de5268262f4","id":48483617,"location_subtype":"","month":"2016-04"},{"category":"public-order","location_type":"Force","location":{"latitude":"51.504244","street":{"id":951871,"name":"On or near Petrol Station"},"longitude":"-0.333514"},"context":"","outcome_status":{"category":"Investigation complete; no suspect identified","date":"2016-05"},"persistent_id":"40006eeb1c35e55e9f07131df512ecaf665ffceb60940e4fbc32b4f16c8ded7e","id":48532359,"location_subtype":"","month":"2016-04"},{"category":"public-order","location_type":"Force","location":{"latitude":"51.510454","street":{"id":958132,"name":"On or near Shopping Area"},"longitude":"-0.325664"},"context":"","outcome_status":{"category":"Status update unavailable","date":"2016-08"},"persistent_id":"15530333e1897ce930dea138750615646eb70b05e4e0a754cd08fcfe1de77bd4","id":48562306,"location_subtype":"","month":"2016-04"},{"category":"public-order","location_type":"Force","location":{"latitude":"51.511549","street":{"id":958045,"name":"On or near Kirn Road"},"longitude":"-0.319917"},"context":"","outcome_status":{"category":"Court result unavailable","date":"2016-11"},"persistent_id":"47eac18a1b165c3134d60928daee9210a63c08c88e3a6b8ca7d22f62202d2ae7","id":48511137,"location_subtype":"","month":"2016-04"},{"category":"public-order","location_type":"Force","location":{"latitude":"51.505400","street":{"id":951884,"name":"On or near Cambridge Road"},"longitude":"-0.333875"},"context":"","outcome_status":{"category":"Investigation complete; no suspect identified","date":"2016-09"},"persistent_id":"09875243ab2d3d47fa0cc471cd4b6a3d315cc031ee83360bf5e85267e237787a","id":48499175,"location_subtype":"","month":"2016-04"},{"category":"public-order","location_type":"Force","location":{"latitude":"51.509253","street":{"id":958148,"name":"On or near Petrol Station"},"longitude":"-0.334152"},"context":"","outcome_status":{"category":"Investigation complete; no suspect identified","date":"2016-06"},"persistent_id":"1d630ecc60b7751d6611059fa2821962bfa4ef001c5655e2c9013153c5c2cef4","id":48556549,"location_subtype":"","month":"2016-04"},{"category":"public-order","location_type":"Force","location":{"latitude":"51.511007","street":{"id":958112,"name":"On or near Green Man Lane"},"longitude":"-0.323482"},"context":"","outcome_status":{"category":"Investigation complete; no suspect identified","date":"2016-04"},"persistent_id":"c45dbdb7dc6efb27b4e11795ee4cbec65d66d8d52de0e8b90f365603b1256093","id":48541425,"location_subtype":"","month":"2016-04"},{"category":"public-order","location_type":"Force","location":{"latitude":"51.510030","street":{"id":958128,"name":"On or near Chignell Place"},"longitude":"-0.326256"},"context":"","outcome_status":{"category":"Status update unavailable","date":"2016-08"},"persistent_id":"906c5b93628bb8ba30222146c15a1083ca31a4f7fe7201677e7c62be637995ba","id":48504416,"location_subtype":"","month":"2016-04"},{"category":"robbery","location_type":"Force","location":{"latitude":"51.510942","street":{"id":958105,"name":"On or near Witham Road"},"longitude":"-0.322072"},"context":"","outcome_status":{"category":"Investigation complete; no suspect identified","date":"2016-06"},"persistent_id":"14791a83be6ec1f44825262afa64377029d429401fb57ffe82bea746aa280fd1","id":48507853,"location_subtype":"","month":"2016-04"},{"category":"robbery","location_type":"Force","location":{"latitude":"51.507415","street":{"id":951880,"name":"On or near Maunder Road"},"longitude":"-0.336482"},"context":"","outcome_status":{"category":"Investigation complete; no suspect identified","date":"2016-06"},"persistent_id":"8072b06ebcc77c8b04e8692b0e7d0a2dac8fdcdda93e14a598031d57393b65cc","id":48563801,"location_subtype":"","month":"2016-04"},{"category":"shoplifting","location_type":"Force","location":{"latitude":"51.513046","street":{"id":958083,"name":"On or near Supermarket"},"longitude":"-0.321418"},"context":"","outcome_status":{"category":"Court result unavailable","date":"2017-05"},"persistent_id":"5df8fe3b118967bbbc93d1751b4a4f825462793da5fc5d96736cf44a5153f971","id":48533574,"location_subtype":"","month":"2016-04"},{"category":"shoplifting","location_type":"Force","location":{"latitude":"51.496167","street":{"id":951896,"name":"On or near Boston Manor Road"},"longitude":"-0.325222"},"context":"","outcome_status":{"category":"Status update unavailable","date":"2016-08"},"persistent_id":"87e26659be1b059ae5bdfad4ed4ed6f0c0271f08fa3f31a91c2f8e51d949b13a","id":48559992,"location_subtype":"","month":"2016-04"},{"category":"shoplifting","location_type":"Force","location":{"latitude":"51.513046","street":{"id":958083,"name":"On or near Supermarket"},"longitude":"-0.321418"},"context":"","outcome_status":{"category":"Investigation complete; no suspect identified","date":"2016-05"},"persistent_id":"ae161b70de3bda390cc772bcd81f5cf92c6b9d6d1990800271686fd7776f9d01","id":48563266,"location_subtype":"","month":"2016-04"},{"category":"shoplifting","location_type":"Force","location":{"latitude":"51.513046","street":{"id":958083,"name":"On or near Supermarket"},"longitude":"-0.321418"},"context":"","outcome_status":{"category":"Court result unavailable","date":"2016-12"},"persistent_id":"ca74dc345b3879a5061bafb8acc6afd4fd30a48f3d505f4864e76c76c0a4a4da","id":48534539,"location_subtype":"","month":"2016-04"},{"category":"shoplifting","location_type":"Force","location":{"latitude":"51.513046","street":{"id":958083,"name":"On or near Supermarket"},"longitude":"-0.321418"},"context":"","outcome_status":{"category":"Investigation complete; no suspect identified","date":"2016-05"},"persistent_id":"f45aaf65f1abb2bc47d7ca8c3233a33d72187843796863fe981f06624480048f","id":48500749,"location_subtype":"","month":"2016-04"},{"category":"shoplifting","location_type":"Force","location":{"latitude":"51.513046","street":{"id":958083,"name":"On or near Supermarket"},"longitude":"-0.321418"},"context":"","outcome_status":{"category":"Investigation complete; no suspect identified","date":"2016-04"},"persistent_id":"bdb9aebb32881a18603285313bd3bf8aa4275fa3b5f48718d1e97eb7f0ec31dd","id":48566336,"location_subtype":"","month":"2016-04"},{"category":"shoplifting","location_type":"Force","location":{"latitude":"51.513046","street":{"id":958083,"name":"On or near Supermarket"},"longitude":"-0.321418"},"context":"","outcome_status":{"category":"Investigation complete; no suspect identified","date":"2016-05"},"persistent_id":"507e845d68a204fb1f9cbfcc3959cdd58096ac903d0105024f7d1ce6fff282c0","id":48553916,"location_subtype":"","month":"2016-04"},{"category":"shoplifting","location_type":"Force","location":{"latitude":"51.513046","street":{"id":958083,"name":"On or near Supermarket"},"longitude":"-0.321418"},"context":"","outcome_status":{"category":"Investigation complete; no suspect identified","date":"2016-04"},"persistent_id":"cecf8d4d52fa05a414adbec282b9251f6baf90a3d86a21da40b65fade3adf725","id":48559705,"location_subtype":"","month":"2016-04"},{"category":"shoplifting","location_type":"Force","location":{"latitude":"51.513046","street":{"id":958083,"name":"On or near Supermarket"},"longitude":"-0.321418"},"context":"","outcome_status":{"category":"Status update unavailable","date":"2016-08"},"persistent_id":"e60ca3b7de4b5743cc44ce647b3d3996afaa13b7835c8b72c2b0a8b21d1223da","id":48535942,"location_subtype":"","month":"2016-04"},{"category":"shoplifting","location_type":"Force","location":{"latitude":"51.508009","street":{"id":951882,"name":"On or near Jessamine Road"},"longitude":"-0.337123"},"context":"","outcome_status":{"category":"Status update unavailable","date":"2016-08"},"persistent_id":"c4fe81a1da56e15ca98a1a4ab138bc1167ebacfbf1c626cff14834ae274b3020","id":48558468,"location_subtype":"","month":"2016-04"},{"category":"shoplifting","location_type":"Force","location":{"latitude":"51.513046","street":{"id":958083,"name":"On or near Supermarket"},"longitude":"-0.321418"},"context":"","outcome_status":{"category":"Investigation complete; no suspect identified","date":"2016-04"},"persistent_id":"be173733e5fb6ae31a5fd95973a68b11d856250208ea435859edf6063f23f415","id":48532420,"location_subtype":"","month":"2016-04"},{"category":"shoplifting","location_type":"Force","location":{"latitude":"51.508009","street":{"id":951882,"name":"On or near Jessamine Road"},"longitude":"-0.337123"},"context":"","outcome_status":{"category":"Investigation complete; no suspect identified","date":"2016-05"},"persistent_id":"77e3628568acdd505da9d8e18bdc27cceafbe76cb703db368697d929f1c521bc","id":48504631,"location_subtype":"","month":"2016-04"},{"category":"theft-from-the-person","location_type":"Force","location":{"latitude":"51.511085","street":{"id":958102,"name":"On or near Parking Area"},"longitude":"-0.322672"},"context":"","outcome_status":{"category":"Investigation complete; no suspect identified","date":"2016-05"},"persistent_id":"f80606933cfa28267530dee4b10f9c97c6589372126a1f36809958a1128c843c","id":48491797,"location_subtype":"","month":"2016-04"},{"category":"theft-from-the-person","location_type":"Force","location":{"latitude":"51.498343","street":{"id":951848,"name":"On or near Boston Road"},"longitude":"-0.327087"},"context":"","outcome_status":{"category":"Investigation complete; no suspect identified","date":"2016-04"},"persistent_id":"2679fa552a5f60a6cc12839d24737c21b8ce830be28ae620d135ead26cd8a405","id":48480429,"location_subtype":"","month":"2016-04"},{"category":"vehicle-crime","location_type":"Force","location":{"latitude":"51.505305","street":{"id":951856,"name":"On or near Oaklands Road"},"longitude":"-0.330363"},"context":"","outcome_status":{"category":"Investigation complete; no suspect identified","date":"2016-04"},"persistent_id":"11e11ba82d872bea2652989d6a17484ddb9cfa36e8c476bbbc1a1014729a02e1","id":48558616,"location_subtype":"","month":"2016-04"},{"category":"vehicle-crime","location_type":"Force","location":{"latitude":"51.504917","street":{"id":951754,"name":"On or near Bostonthorpe Road"},"longitude":"-0.338475"},"context":"","outcome_status":{"category":"Status update unavailable","date":"2016-08"},"persistent_id":"091262967095c3c9b3331729cb6c4326f7bb2af8aab61e776eccba156d0d1ced","id":48535715,"location_subtype":"","month":"2016-04"},{"category":"vehicle-crime","location_type":"Force","location":{"latitude":"51.504917","street":{"id":951754,"name":"On or near Bostonthorpe Road"},"longitude":"-0.338475"},"context":"","outcome_status":{"category":"Investigation complete; no suspect identified","date":"2016-08"},"persistent_id":"f24f4ec3c2891c5941ad0645363c0194632749db3d798dcc03f4eb20392bba32","id":48541773,"location_subtype":"","month":"2016-04"},{"category":"vehicle-crime","location_type":"Force","location":{"latitude":"51.508794","street":{"id":958137,"name":"On or near Uxbridge Road"},"longitude":"-0.336057"},"context":"","outcome_status":{"category":"Status update unavailable","date":"2016-08"},"persistent_id":"7c70b27dcc853eb02c99962a36f1baa9a3d9c552e32b1270cb13420ea3e74057","id":48540099,"location_subtype":"","month":"2016-04"},{"category":"vehicle-crime","location_type":"Force","location":{"latitude":"51.503623","street":{"id":951874,"name":"On or near Studley Grange Road"},"longitude":"-0.336678"},"context":"","outcome_status":{"category":"Status update unavailable","date":"2016-08"},"persistent_id":"157c6ce655190cdc9dfb19d6da429027e1134990a2725235bd612686a3909811","id":48509814,"location_subtype":"","month":"2016-04"},{"category":"vehicle-crime","location_type":"Force","location":{"latitude":"51.509021","street":{"id":958125,"name":"On or near Michael Gaynor Close"},"longitude":"-0.330530"},"context":"","outcome_status":{"category":"Status update unavailable","date":"2016-08"},"persistent_id":"ae1e93d7ad2da481a0a4834a144e73adc66801fd2ffe9feabce1a99a19ed008a","id":48530131,"location_subtype":"","month":"2016-04"},{"category":"vehicle-crime","location_type":"Force","location":{"latitude":"51.509993","street":{"id":958121,"name":"On or near Walsingham Road"},"longitude":"-0.326819"},"context":"","outcome_status":{"category":"Status update unavailable","date":"2016-08"},"persistent_id":"6d54ae64e35ad2550e8618b53c07e5baacab97107e880769a4559d6fe4c43661","id":48561817,"location_subtype":"","month":"2016-04"},{"category":"vehicle-crime","location_type":"Force","location":{"latitude":"51.511007","street":{"id":958112,"name":"On or near Green Man Lane"},"longitude":"-0.323482"},"context":"","outcome_status":{"category":"Status update unavailable","date":"2016-08"},"persistent_id":"013be9e29322d838305684dfe78f962d439bfa0882fc1749a1f0ec93a19299ed","id":48529746,"location_subtype":"","month":"2016-04"},{"category":"vehicle-crime","location_type":"Force","location":{"latitude":"51.501406","street":{"id":951839,"name":"On or near Trumpers Way"},"longitude":"-0.336946"},"context":"","outcome_status":{"category":"Investigation complete; no suspect identified","date":"2016-05"},"persistent_id":"a43d3cce8bd0af286b34275f3bfaeb9c7a29fef94497a86e963c493e44e8f14b","id":48512261,"location_subtype":"","month":"2016-04"},{"category":"vehicle-crime","location_type":"Force","location":{"latitude":"51.508084","street":{"id":951735,"name":"On or near Parking Area"},"longitude":"-0.338590"},"context":"","outcome_status":{"category":"Status update unavailable","date":"2016-08"},"persistent_id":"4ea134146a7e33b3e4e39ebc8f61dac2b4322b39614a617e3c5abd8c8b48a0e8","id":48513312,"location_subtype":"","month":"2016-04"},{"category":"vehicle-crime","location_type":"Force","location":{"latitude":"51.496267","street":{"id":951888,"name":"On or near Wellmeadow Road"},"longitude":"-0.326515"},"context":"","outcome_status":{"category":"Investigation complete; no suspect identified","date":"2016-04"},"persistent_id":"628029714ee2807717a3b5240fae966beb4be6e3468fc32506f798d0c7d88240","id":48556027,"location_subtype":"","month":"2016-04"},{"category":"vehicle-crime","location_type":"Force","location":{"latitude":"51.506292","street":{"id":951878,"name":"On or near Montague Road"},"longitude":"-0.334030"},"context":"","outcome_status":{"category":"Status update unavailable","date":"2016-08"},"persistent_id":"a63a184f379b19643053b9a8915a32a0cdeafa3e2085c23084357ee9ce5d93e7","id":48530719,"location_subtype":"","month":"2016-04"},{"category":"vehicle-crime","location_type":"Force","location":{"latitude":"51.511716","street":{"id":958074,"name":"On or near Bedford Road"},"longitude":"-0.320848"},"context":"","outcome_status":{"category":"Status update unavailable","date":"2016-08"},"persistent_id":"fb7017067ee24c60832d2c5f4a0c25a56bb31deb0fc4bc99fc61b163ae6760ed","id":48559607,"location_subtype":"","month":"2016-04"},{"category":"vehicle-crime","location_type":"Force","location":{"latitude":"51.510517","street":{"id":958192,"name":"On or near Springfield Road"},"longitude":"-0.339006"},"context":"","outcome_status":{"category":"Investigation complete; no suspect identified","date":"2016-06"},"persistent_id":"80ace6da2800392487c0c4f71034ae7b2af64d4673264ba10f123fbd79b8ffeb","id":48558852,"location_subtype":"","month":"2016-04"},{"category":"vehicle-crime","location_type":"Force","location":{"latitude":"51.510517","street":{"id":958192,"name":"On or near Springfield Road"},"longitude":"-0.339006"},"context":"","outcome_status":{"category":"Investigation complete; no suspect identified","date":"2016-06"},"persistent_id":"19a1e50bda9a8f761f3ad5378be49dadd425450e50b7783f84d422d4e9fb52a1","id":48493826,"location_subtype":"","month":"2016-04"},{"category":"violent-crime","location_type":"Force","location":{"latitude":"51.506588","street":{"id":951867,"name":"On or near Dean's Road"},"longitude":"-0.333342"},"context":"","outcome_status":{"category":"Investigation complete; no suspect identified","date":"2016-06"},"persistent_id":"9f05504eabefd93ff5862849164729752252c1fe5f6e8ce38c4ee61f316cfa3b","id":48530718,"location_subtype":"","month":"2016-04"},{"category":"violent-crime","location_type":"Force","location":{"latitude":"51.511257","street":{"id":958075,"name":"On or near Bayham Road"},"longitude":"-0.321470"},"context":"","outcome_status":{"category":"Investigation complete; no suspect identified","date":"2016-06"},"persistent_id":"391c6a7f6ba9ae0dd52e54f500ae050427afa4a1ce3fc9c86246445e6568fa7b","id":48531830,"location_subtype":"","month":"2016-04"},{"category":"violent-crime","location_type":"Force","location":{"latitude":"51.507913","street":{"id":951879,"name":"On or near Montague Avenue"},"longitude":"-0.334792"},"context":"","outcome_status":{"category":"Investigation complete; no suspect identified","date":"2017-02"},"persistent_id":"fb19b3112c276c3ecd13e6ae169562a886774ccbfac81dd20975176a15062eb3","id":48532357,"location_subtype":"","month":"2016-04"},{"category":"violent-crime","location_type":"Force","location":{"latitude":"51.510517","street":{"id":958192,"name":"On or near Springfield Road"},"longitude":"-0.339006"},"context":"","outcome_status":{"category":"Investigation complete; no suspect identified","date":"2016-06"},"persistent_id":"5e1103ea22cff1bd778a288724d78231656737ce4dfba9695a01e62cadcea26f","id":48533463,"location_subtype":"","month":"2016-04"},{"category":"violent-crime","location_type":"Force","location":{"latitude":"51.504447","street":{"id":951868,"name":"On or near Cumberland Road"},"longitude":"-0.330740"},"context":"","outcome_status":{"category":"Status update unavailable","date":"2016-08"},"persistent_id":"288aa2ec539c24082ebb6f13f43372c10a3601031e55f4cd27b56540cd1955b2","id":48533845,"location_subtype":"","month":"2016-04"},{"category":"violent-crime","location_type":"Force","location":{"latitude":"51.510534","street":{"id":958118,"name":"On or near Parking Area"},"longitude":"-0.327520"},"context":"","outcome_status":{"category":"Status update unavailable","date":"2016-08"},"persistent_id":"486866cb48bf5f5769a49f933ac9f3dc121e9c49510138448cb432a455ab90d7","id":48541575,"location_subtype":"","month":"2016-04"},{"category":"violent-crime","location_type":"Force","location":{"latitude":"51.510534","street":{"id":958118,"name":"On or near Parking Area"},"longitude":"-0.327520"},"context":"","outcome_status":{"category":"Investigation complete; no suspect identified","date":"2016-05"},"persistent_id":"486866cb48bf5f5769a49f933ac9f3dc121e9c49510138448cb432a455ab90d7","id":48541577,"location_subtype":"","month":"2016-04"},{"category":"violent-crime","location_type":"Force","location":{"latitude":"51.508794","street":{"id":958137,"name":"On or near Uxbridge Road"},"longitude":"-0.336057"},"context":"","outcome_status":{"category":"Status update unavailable","date":"2016-08"},"persistent_id":"b148ba63cd4e7ff7e5c71c18b83df2bfe95e666a399d17fe01d9ba18cc272d1f","id":48547343,"location_subtype":"","month":"2016-04"},{"category":"violent-crime","location_type":"Force","location":{"latitude":"51.508794","street":{"id":958137,"name":"On or near Uxbridge Road"},"longitude":"-0.336057"},"context":"","outcome_status":{"category":"Investigation complete; no suspect identified","date":"2016-05"},"persistent_id":"b148ba63cd4e7ff7e5c71c18b83df2bfe95e666a399d17fe01d9ba18cc272d1f","id":48547346,"location_subtype":"","month":"2016-04"},{"category":"violent-crime","location_type":"Force","location":{"latitude":"51.509021","street":{"id":958125,"name":"On or near Michael Gaynor Close"},"longitude":"-0.330530"},"context":"","outcome_status":{"category":"Investigation complete; no suspect identified","date":"2016-05"},"persistent_id":"2053b4d79000bc7b5710603da32d0b86cfb56e60ff0f5b29dbc9a53f7bc92cd5","id":48505547,"location_subtype":"","month":"2016-04"},{"category":"violent-crime","location_type":"Force","location":{"latitude":"51.510023","street":{"id":958135,"name":"On or near York Close"},"longitude":"-0.337741"},"context":"","outcome_status":{"category":"Investigation complete; no suspect identified","date":"2016-06"},"persistent_id":"59e9812b9e321c5619f10886aee5841e901dc6a5c3b49596d2ad2a165ff1fbfe","id":48553990,"location_subtype":"","month":"2016-04"},{"category":"violent-crime","location_type":"Force","location":{"latitude":"51.510521","street":{"id":958197,"name":"On or near Conolly Road"},"longitude":"-0.341182"},"context":"","outcome_status":{"category":"Investigation complete; no suspect identified","date":"2016-11"},"persistent_id":"fe15f303615ebaf8a6edddafdf590813e280d024bde7978bb12a1da1ebce8953","id":48554241,"location_subtype":"","month":"2016-04"},{"category":"violent-crime","location_type":"Force","location":{"latitude":"51.509021","street":{"id":958125,"name":"On or near Michael Gaynor Close"},"longitude":"-0.330530"},"context":"","outcome_status":{"category":"Status update unavailable","date":"2016-08"},"persistent_id":"bd18c50dd438e5c69f3de2605bdde7de233efead650504bca84886508df8bf4f","id":48506326,"location_subtype":"","month":"2016-04"},{"category":"violent-crime","location_type":"Force","location":{"latitude":"51.507680","street":{"id":951876,"name":"On or near Seasons Close"},"longitude":"-0.337409"},"context":"","outcome_status":{"category":"Investigation complete; no suspect identified","date":"2016-12"},"persistent_id":"9423561103749245ef5f085f56363252ae0e4380653cc742e2bd46e1266ed57b","id":48559011,"location_subtype":"","month":"2016-04"},{"category":"violent-crime","location_type":"Force","location":{"latitude":"51.511814","street":{"id":958055,"name":"On or near Kirchen Road"},"longitude":"-0.320181"},"context":"","outcome_status":{"category":"Investigation complete; no suspect identified","date":"2016-06"},"persistent_id":"65a7654637aabd37bddeefb6871ac30e0e9cbc2c05761cd0cef10cf502d92240","id":48557635,"location_subtype":"","month":"2016-04"},{"category":"violent-crime","location_type":"Force","location":{"latitude":"51.507490","street":{"id":951738,"name":"On or near Walker Close"},"longitude":"-0.342402"},"context":"","outcome_status":{"category":"Investigation complete; no suspect identified","date":"2016-07"},"persistent_id":"5a426212baf52e322383d4545cfa0789dc49a73da597a537c4c622d7bb5afed1","id":48536842,"location_subtype":"","month":"2016-04"},{"category":"violent-crime","location_type":"Force","location":{"latitude":"51.510030","street":{"id":958128,"name":"On or near Chignell Place"},"longitude":"-0.326256"},"context":"","outcome_status":{"category":"Status update unavailable","date":"2016-08"},"persistent_id":"906c5b93628bb8ba30222146c15a1083ca31a4f7fe7201677e7c62be637995ba","id":48504414,"location_subtype":"","month":"2016-04"},{"category":"violent-crime","location_type":"Force","location":{"latitude":"51.511549","street":{"id":958045,"name":"On or near Kirn Road"},"longitude":"-0.319917"},"context":"","outcome_status":{"category":"Investigation complete; no suspect identified","date":"2016-05"},"persistent_id":"0d390c5e13e06d90dc893d6851aa0b00ae5e832f422d8f32270e4da0f8e7619d","id":48559711,"location_subtype":"","month":"2016-04"},{"category":"violent-crime","location_type":"Force","location":{"latitude":"51.510246","street":{"id":958143,"name":"On or near Church Road"},"longitude":"-0.335082"},"context":"","outcome_status":{"category":"Investigation complete; no suspect identified","date":"2016-05"},"persistent_id":"e926e909a63ceec8a91f803d52e819af04657af61bb330439ad23a873b4743e8","id":48560831,"location_subtype":"","month":"2016-04"},{"category":"violent-crime","location_type":"Force","location":{"latitude":"51.506855","street":{"id":951887,"name":"On or near Adelaide Court"},"longitude":"-0.336949"},"context":"","outcome_status":{"category":"Investigation complete; no suspect identified","date":"2016-05"},"persistent_id":"e03ab1b7a9f74aad28a64bb02c3e53135de5c17b249da365b6944f0573a2fb4f","id":48504467,"location_subtype":"","month":"2016-04"},{"category":"violent-crime","location_type":"Force","location":{"latitude":"51.500954","street":{"id":951734,"name":"On or near Shopping Area"},"longitude":"-0.339959"},"context":"","outcome_status":{"category":"Investigation complete; no suspect identified","date":"2016-10"},"persistent_id":"c3e684376ce6818c34b279a93e484e5a84b09c708ed00cba07733d60c880b95c","id":48509273,"location_subtype":"","month":"2016-04"},{"category":"violent-crime","location_type":"Force","location":{"latitude":"51.512469","street":{"id":958079,"name":"On or near Alexandria Road"},"longitude":"-0.322578"},"context":"","outcome_status":{"category":"Investigation complete; no suspect identified","date":"2016-04"},"persistent_id":"5a23cf489f0e3b2019bc16d306ab6c446f6b3253483e650c78095e7b39b2a72b","id":48503866,"location_subtype":"","month":"2016-04"},{"category":"violent-crime","location_type":"Force","location":{"latitude":"51.506588","street":{"id":951867,"name":"On or near Dean's Road"},"longitude":"-0.333342"},"context":"","outcome_status":{"category":"Offender given community sentence","date":"2016-05"},"persistent_id":"bcffc0766cad9c31dc536c3404dcb302f9f3495c9f0cfd80514a91437cc5038a","id":48558856,"location_subtype":"","month":"2016-04"},{"category":"violent-crime","location_type":"Force","location":{"latitude":"51.501406","street":{"id":951839,"name":"On or near Trumpers Way"},"longitude":"-0.336946"},"context":"","outcome_status":{"category":"Investigation complete; no suspect identified","date":"2017-12"},"persistent_id":"d86dd623313b946cad360fcb11ade1094fe0a381a39d4eb38c8ef19e028977f3","id":48536500,"location_subtype":"","month":"2016-04"},{"category":"violent-crime","location_type":"Force","location":{"latitude":"51.504917","street":{"id":951754,"name":"On or near Bostonthorpe Road"},"longitude":"-0.338475"},"context":"","outcome_status":{"category":"Offender given a caution","date":"2016-05"},"persistent_id":"2b4a7e54c8e6e44ec135c3765e0a7ddcb2ede87e9b697cb09a4381bea4994627","id":48567792,"location_subtype":"","month":"2016-04"},{"category":"violent-crime","location_type":"Force","location":{"latitude":"51.508794","street":{"id":958137,"name":"On or near Uxbridge Road"},"longitude":"-0.336057"},"context":"","outcome_status":{"category":"Investigation complete; no suspect identified","date":"2018-01"},"persistent_id":"e15e9b964427daf2e43abb8da8a4b97a1eb13f439a6c63c155b4a3b836163108","id":48512646,"location_subtype":"","month":"2016-04"},{"category":"violent-crime","location_type":"Force","location":{"latitude":"51.513200","street":{"id":958080,"name":"On or near Alexandria Road"},"longitude":"-0.319654"},"context":"","outcome_status":{"category":"Offender given a caution","date":"2016-04"},"persistent_id":"4677ae6dca3cef9c68e5b562945eb392e1c84c81e72c9fff99015ab3c19028c9","id":48506324,"location_subtype":"","month":"2016-04"},{"category":"violent-crime","location_type":"Force","location":{"latitude":"51.511257","street":{"id":958075,"name":"On or near Bayham Road"},"longitude":"-0.321470"},"context":"","outcome_status":{"category":"Status update unavailable","date":"2016-08"},"persistent_id":"62660cf420a48b469aac39c38242a0bb87b2f59784b4c766dc027b0706e96a24","id":48496480,"location_subtype":"","month":"2016-04"},{"category":"violent-crime","location_type":"Force","location":{"latitude":"51.510454","street":{"id":958132,"name":"On or near Shopping Area"},"longitude":"-0.325664"},"context":"","outcome_status":{"category":"Investigation complete; no suspect identified","date":"2016-07"},"persistent_id":"8d5f7df6509cc38560b35724b4c2fb244a4680b77c1e4c110a1b654f63cd79c5","id":48493372,"location_subtype":"","month":"2016-04"},{"category":"violent-crime","location_type":"Force","location":{"latitude":"51.509052","street":{"id":958195,"name":"On or near Laurel Gardens"},"longitude":"-0.340313"},"context":"","outcome_status":{"category":"Investigation complete; no suspect identified","date":"2016-05"},"persistent_id":"eaeddce9fdf7c2521d2e76091345c80bc807e207440c76de30e77f6f69e6eb3d","id":48480343,"location_subtype":"","month":"2016-04"},{"category":"violent-crime","location_type":"Force","location":{"latitude":"51.508404","street":{"id":951752,"name":"On or near Clocktower Mews"},"longitude":"-0.338362"},"context":"","outcome_status":{"category":"Status update unavailable","date":"2016-08"},"persistent_id":"c55093b510f788ccca42710739570b4996b754e44263fb4aa98ac49432c5bf5e","id":48487021,"location_subtype":"","month":"2016-04"},{"category":"violent-crime","location_type":"Force","location":{"latitude":"51.504244","street":{"id":951871,"name":"On or near Petrol Station"},"longitude":"-0.333514"},"context":"","outcome_status":{"category":"Investigation complete; no suspect identified","date":"2016-05"},"persistent_id":"601573acb3cc3bd1d806634a727080792d259f1afe0396259fe9ab28f85a8dc2","id":48486653,"location_subtype":"","month":"2016-04"},{"category":"violent-crime","location_type":"Force","location":{"latitude":"51.511190","street":{"id":958141,"name":"On or near Holly Park Road"},"longitude":"-0.334413"},"context":"","outcome_status":{"category":"Investigation complete; no suspect identified","date":"2016-05"},"persistent_id":"9cb539a129c2037cc7146985fddaa484acf998f12927834aa3e788ce7fc957cf","id":48498669,"location_subtype":"","month":"2016-04"},{"category":"violent-crime","location_type":"Force","location":{"latitude":"51.500284","street":{"id":951842,"name":"On or near Westlea Road"},"longitude":"-0.329466"},"context":"","outcome_status":{"category":"Investigation complete; no suspect identified","date":"2016-06"},"persistent_id":"8a1316a4911e68c6834abe672eac47306f5598547f620c8f22a667ab189d9cb2","id":48527153,"location_subtype":"","month":"2016-04"},{"category":"violent-crime","location_type":"Force","location":{"latitude":"51.503135","street":{"id":951881,"name":"On or near Lambourn Close"},"longitude":"-0.335226"},"context":"","outcome_status":{"category":"Investigation complete; no suspect identified","date":"2016-06"},"persistent_id":"0016daf7a62aa01fc524d8d47aa67c9a4fc02077164e0f4a28449ed79ce802db","id":48529594,"location_subtype":"","month":"2016-04"},{"category":"violent-crime","location_type":"Force","location":{"latitude":"51.509021","street":{"id":958125,"name":"On or near Michael Gaynor Close"},"longitude":"-0.330530"},"context":"","outcome_status":{"category":"Status update unavailable","date":"2016-08"},"persistent_id":"a27c146f655f2a73ab24853b719618e03444cf666a64364eb199a8b48a7aa5e4","id":48530710,"location_subtype":"","month":"2016-04"},{"category":"violent-crime","location_type":"Force","location":{"latitude":"51.504244","street":{"id":951871,"name":"On or near Petrol Station"},"longitude":"-0.333514"},"context":"","outcome_status":{"category":"Court case unable to proceed","date":"2016-06"},"persistent_id":"30d665c458b24933d1a95a50bb2fef0022ac79de4bdebbcd6888481ee4e85c0f","id":48546248,"location_subtype":"","month":"2016-04"},{"category":"violent-crime","location_type":"Force","location":{"latitude":"51.510297","street":{"id":958124,"name":"On or near Shirley Gardens"},"longitude":"-0.330425"},"context":"","outcome_status":{"category":"Investigation complete; no suspect identified","date":"2016-05"},"persistent_id":"5216877263b8339c6fb47b9408141b9a6fc0530e688078aa2aaa40caf7a3fff3","id":48485883,"location_subtype":"","month":"2016-04"},{"category":"other-crime","location_type":"Force","location":{"latitude":"51.510712","street":{"id":958123,"name":"On or near Singapore Road"},"longitude":"-0.326101"},"context":"","outcome_status":{"category":"Court case unable to proceed","date":"2016-05"},"persistent_id":"f205e5ff98f5eb91afe20d96879bc45bd8a4c5c1dfcf4c47f570ecb9278de4d4","id":48533060,"location_subtype":"","month":"2016-04"},{"category":"other-crime","location_type":"Force","location":{"latitude":"51.511727","street":{"id":958058,"name":"On or near Green Man Gardens"},"longitude":"-0.323513"},"context":"","outcome_status":{"category":"Investigation complete; no suspect identified","date":"2016-10"},"persistent_id":"049f4035d4eb76dbb08ba4d542feeab3f81476f12c83b8f03f243af6a1a79a74","id":48567842,"location_subtype":"","month":"2016-04"},{"category":"other-crime","location_type":"Force","location":{"latitude":"51.509993","street":{"id":958121,"name":"On or near Walsingham Road"},"longitude":"-0.326819"},"context":"","outcome_status":{"category":"Investigation complete; no suspect identified","date":"2016-06"},"persistent_id":"c36c0cc6858920d2efcfb0958fe076e7155af98edfe1d682ac0651337f4217ba","id":48531954,"location_subtype":"","month":"2016-04"}]