[{"category":"anti-social-behaviour","location_type":"Force","location":{"latitude":"51.395577","street":{"id":930422,"name":"On or near Matthew Court"},"longitude":"-0.134637"},"context":"","outcome_status":null,"persistent_id":"","id":57995651,"location_subtype":"","month":"2017-06"},{"category":"anti-social-behaviour","location_type":"Force","location":{"latitude":"51.397280","street":{"id":930502,"name":"On or near Shropshire Close"},"longitude":"-0.127509"},"context":"","outcome_status":null,"persistent_id":"","id":57995644,"location_subtype":"","month":"2017-06"},{"category":"anti-social-behaviour","location_type":"Force","location":{"latitude":"51.397280","street":{"id":930502,"name":"On or near Shropshire Close"},"longitude":"-0.127509"},"context":"","outcome_status":null,"persistent_id":"","id":57995645,"location_subtype":"","month":"2017-06"},{"category":"anti-social-behaviour","location_type":"Force","location":{"latitude":"51.395218","street":{"id":930504,"name":"On or near Middlesex Road"},"longitude":"-0.129577"},"context":"","outcome_status":null,"persistent_id":"","id":57995647,"location_subtype":"","month":"2017-06"},{"category":"anti-social-behaviour","location_type":"Force","location":{"latitude":"51.401355","street":{"id":932916,"name":"On or near Caernarvon Close"},"longitude":"-0.130937"},"context":"","outcome_status":null,"persistent_id":"","id":57995648,"location_subtype":"","month":"2017-06"},{"category":"anti-social-behaviour","location_type":"Force","location":{"latitude":"51.401432","street":{"id":933074,"name":"On or near Cedars Avenue"},"longitude":"-0.155144"},"context":"","outcome_status":null,"persistent_id":"","id":57995686,"location_subtype":"","month":"2017-06"},{"category":"anti-social-behaviour","location_type":"Force","location":{"latitude":"51.401355","street":{"id":932916,"name":"On or near Caernarvon Close"},"longitude":"-0.130937"},"context":"","outcome_status":null,"persistent_id":"","id":57995649,"location_subtype":"","month":"2017-06"},{"category":"anti-social-behaviour","location_type":"Force","location":{"latitude":"51.398737","street":{"id":930444,"name":"On or near Commonside East"},"longitude":"-0.144485"},"context":"","outcome_status":null,"persistent_id":"","id":57995659,"location_subtype":"","month":"2017-06"},{"category":"anti-social-behaviour","location_type":"Force","location":{"latitude":"51.401355","street":{"id":932916,"name":"On or near Caernarvon Close"},"longitude":"-0.130937"},"context":"","outcome_status":null,"persistent_id":"","id":57995650,"location_subtype":"","month":"2017-06"},{"category":"anti-social-behaviour","location_type":"Force","location":{"latitude":"51.399253","street":{"id":930526,"name":"On or near Lindsey Close"},"longitude":"-0.126595"},"context":"","outcome_status":null,"persistent_id":"","id":57995642,"location_subtype":"","month":"2017-06"},{"category":"anti-social-behaviour","location_type":"Force","location":{"latitude":"51.399253","street":{"id":930526,"name":"On or near Lindsey Close"},"longitude":"-0.126595"},"context":"","outcome_status":null,"persistent_id":"","id":57995640,"location_subtype":"","month":"2017-06"},{"category":"anti-social-behaviour","location_type":"Force","location":{"latitude":"51.399253","street":{"id":930526,"name":"On or near Lindsey Close"},"longitude":"-0.126595"},"context":"","outcome_status":null,"persistent_id":"","id":57995641,"location_subtype":"","month":"2017-06"},{"category":"anti-social-behaviour","location_type":"Force","location":{"latitude":"51.397280","street":{"id":930502,"name":"On or near Shropshire Close"},"longitude":"-0.127509"},"context":"","outcome_status":null,"persistent_id":"","id":57995643,"location_subtype":"","month":"2017-06"},{"category":"bicycle-theft","location_type":"Force","location":{"latitude":"51.398741","street":{"id":930438,"name":"On or near Conway Gardens"},"longitude":"-0.131719"},"context":"","outcome_status":{"category":"Status update unavailable","date":"2017-10"},"persistent_id":"9931b80b76e55e6deba895ffff99a0cf6ecd1e42585282cb0d28fb9c5255ef10","id":58056591,"location_subtype":"","month":"2017-06"},{"category":"bicycle-theft","location_type":"Force","location":{"latitude":"51.399508","street":{"id":930435,"name":"On or near Fern Avenue"},"longitude":"-0.134160"},"context":"","outcome_status":{"category":"Investigation complete; no suspect identified","date":"2017-07"},"persistent_id":"bf39c9d58650303dbc1761d9c4dba7973038b2bbc89430221e153a74da3b4d61","id":58075802,"location_subtype":"","month":"2017-06"},{"category":"bicycle-theft","location_type":"Force","location":{"latitude":"51.400891","street":{"id":932930,"name":"On or near Jonson Close"},"longitude":"-0.147618"},"context":"","outcome_status":{"category":"Status update unavailable","date":"2017-10"},"persistent_id":"2dd7b5676a1593d30ae466c737e2281c5db9f85d1214053e19b87252ad7c5db9","id":58025294,"location_subtype":"","month":"2017-06"},{"category":"bicycle-theft","location_type":"Force","location":{"latitude":"51.400889","street":{"id":932917,"name":"On or near Brecon Close"},"longitude":"-0.132178"},"context":"","outcome_status":{"category":"Status update unavailable","date":"2017-10"},"persistent_id":"1c82c2b46faf8ef393d4d94a73e94a3242f8d4524caefb8d32678e6f45902400","id":58037451,"location_subtype":"","month":"2017-06"},{"category":"burglary","location_type":"Force","location":{"latitude":"51.397280","street":{"id":930502,"name":"On or near Shropshire Close"},"longitude":"-0.127509"},"context":"","outcome_status":{"category":"Status update unavailable","date":"2017-10"},"persistent_id":"40cd545da52b7e97b58bb1e410badeb19400364d3a130280dc95500978a5fa9f","id":58075965,"location_subtype":"","month":"2017-06"},{"category":"burglary","location_type":"Force","location":{"latitude":"51.395909","street":{"id":930512,"name":"On or near Buckingham Road"},"longitude":"-0.129477"},"context":"","outcome_status":{"category":"Investigation complete; no suspect identified","date":"2017-06"},"persistent_id":"f3199f2492c2120c122e12e681f429ee7b4a297cfa6f5d139bb79f4bb014ccdd","id":58033937,"location_subtype":"","month":"2017-06"},{"category":"burglary","location_type":"Force","location":{"latitude":"51.400127","street":{"id":932932,"name":"On or near Franklin Crescent"},"longitude":"-0.143106"},"context":"","outcome_status":{"category":"Investigation complete; no suspect identified","date":"2017-08"},"persistent_id":"48d4ea5f06aa5100e3c8df65788a948235f3164fd53e67ece71d57683a8b6cf8","id":58011933,"location_subtype":"","month":"2017-06"},{"category":"burglary","location_type":"Force","location":{"latitude":"51.394034","street":{"id":930428,"name":"On or near Sports\/recreation Area"},"longitude":"-0.142203"},"context":"","outcome_status":{"category":"Court result unavailable","date":"2018-03"},"persistent_id":"4da18913ab343d13c04ceff1f91d66858b487c633c5712f54cd8d79a6c14b704","id":58034217,"location_subtype":"","month":"2017-06"},{"category":"criminal-damage-arson","location_type":"Force","location":{"latitude":"51.400402","street":{"id":932926,"name":"On or near Marlowe Square"},"longitude":"-0.145712"},"context":"","outcome_status":{"category":"Status update unavailable","date":"2017-10"},"persistent_id":"1d0fecba1809e5f3da6b9563c5e425193e634d9ab5bb5d7763a95cc37066bffc","id":58079187,"location_subtype":"","month":"2017-06"},{"category":"criminal-damage-arson","location_type":"Force","location":{"latitude":"51.397287","street":{"id":930421,"name":"On or near New Barns Avenue"},"longitude":"-0.136997"},"context":"","outcome_status":{"category":"Status update unavailable","date":"2017-10"},"persistent_id":"8db922c7125f9808e909c49cf4b43e5c872961f314a5a45ccd8f51cc3ca600c0","id":58052443,"location_subtype":"","month":"2017-06"},{"category":"criminal-damage-arson","location_type":"Force","location":{"latitude":"51.395627","street":{"id":930417,"name":"On or near Westmorland Way"},"longitude":"-0.132119"},"context":"","outcome_status":{"category":"Investigation complete; no suspect identified","date":"2017-07"},"persistent_id":"139e8665927152673b35254cbd0208bc407bb6520783c1d7da37a7eb2a926ac9","id":58026720,"location_subtype":"","month":"2017-06"},{"category":"criminal-damage-arson","location_type":"Force","location":{"latitude":"51.398737","street":{"id":930444,"name":"On or near Commonside East"},"longitude":"-0.144485"},"context":"","outcome_status":{"category":"Investigation complete; no suspect identified","date":"2017-07"},"persistent_id":"e2e4dfbc4901b11c96e3524ee429d5e4c71e0c89060ff0bd63edfd4c51482af8","id":58014623,"location_subtype":"","month":"2017-06"},{"category":"criminal-damage-arson","location_type":"Force","location":{"latitude":"51.402085","street":{"id":932905,"name":"On or near Wide Way"},"longitude":"-0.135033"},"context":"","outcome_status":{"category":"Offender given penalty notice","date":"2017-07"},"persistent_id":"103185f553711a26ba3588993fa5d0aa6a2678d05609fd5f83ea5300604c835b","id":58016610,"location_subtype":"","month":"2017-06"},{"category":"criminal-damage-arson","location_type":"Force","location":{"latitude":"51.398242","street":{"id":930529,"name":"On or near Dorset Gardens"},"longitude":"-0.125270"},"context":"","outcome_status":{"category":"Investigation complete; no suspect identified","date":"2017-07"},"persistent_id":"fe252af6c8acc0e0eea47fd4ed069c42a27e15effabfd0ff54ffec0403ae812b","id":58017935,"location_subtype":"","month":"2017-06"},{"category":"criminal-damage-arson","location_type":"Force","location":{"latitude":"51.396897","street":{"id":930513,"name":"On or near Berkshire Way"},"longitude":"-0.129451"},"context":"","outcome_status":{"category":"Status update unavailable","date":"2017-10"},"persistent_id":"5bb60d065a00ed9886ac2d767e82ef7ce64028e41e86d5a202b680723a1f0a1f","id":58042572,"location_subtype":"","month":"2017-06"},{"category":"drugs","location_type":"Force","location":{"latitude":"51.400889","street":{"id":932917,"name":"On or near Brecon Close"},"longitude":"-0.132178"},"context":"","outcome_status":{"category":"Court case unable to proceed","date":"2017-08"},"persistent_id":"8d6c53e75ea8e750fcc10f341b42acc1271913e525c2d41b0c44e84b0b166f29","id":58051439,"location_subtype":"","month":"2017-06"},{"category":"other-theft","location_type":"Force","location":{"latitude":"51.395218","street":{"id":930504,"name":"On or near Middlesex Road"},"longitude":"-0.129577"},"context":"","outcome_status":{"category":"Status update unavailable","date":"2017-10"},"persistent_id":"abb2b033267d43da20e463d9c683b81a18dfe059e2cb71ca2cccee515ea55993","id":58040805,"location_subtype":"","month":"2017-06"},{"category":"other-theft","location_type":"Force","location":{"latitude":"51.400734","street":{"id":932813,"name":"On or near Huntingdon Close"},"longitude":"-0.128101"},"context":"","outcome_status":{"category":"Investigation complete; no suspect identified","date":"2017-06"},"persistent_id":"92647904dade1b102e0365303e58778c4069ac208c26e2178da5fa45cf72f3ec","id":58021134,"location_subtype":"","month":"2017-06"},{"category":"other-theft","location_type":"Force","location":{"latitude":"51.395310","street":{"id":930420,"name":"On or near Northumberland Gardens"},"longitude":"-0.133109"},"context":"","outcome_status":{"category":"Investigation complete; no suspect identified","date":"2017-06"},"persistent_id":"752f6fad951d96c166c15c0bdb12ed7c9baab4c464cb613e67a1d49df7cbaa72","id":58025323,"location_subtype":"","month":"2017-06"},{"category":"other-theft","location_type":"Force","location":{"latitude":"51.398471","street":{"id":930437,"name":"On or near Dahlia Gardens"},"longitude":"-0.135626"},"context":"","outcome_status":{"category":"Investigation complete; no suspect identified","date":"2017-06"},"persistent_id":"40970e0239117c4f7443da3cf3f15cb91f0f823225f05dee9c86d068fff83e78","id":58029182,"location_subtype":"","month":"2017-06"},{"category":"other-theft","location_type":"Force","location":{"latitude":"51.394778","street":{"id":930419,"name":"On or near Southampton Gardens"},"longitude":"-0.131291"},"context":"","outcome_status":{"category":"Status update unavailable","date":"2017-10"},"persistent_id":"7a5cd334508aaf26d872c3777ed1bf25beb6bb0658fe4ffa459c0300d342e5c6","id":58036046,"location_subtype":"","month":"2017-06"},{"category":"other-theft","location_type":"Force","location":{"latitude":"51.394034","street":{"id":930428,"name":"On or near Sports\/recreation Area"},"longitude":"-0.142203"},"context":"","outcome_status":{"category":"Investigation complete; no suspect identified","date":"2017-06"},"persistent_id":"53fa05b1c7dc465324b17daa0a4427e21697d0d11e4aa19a7dccb41d8e7c7941","id":58031590,"location_subtype":"","month":"2017-06"},{"category":"possession-of-weapons","location_type":"Force","location":{"latitude":"51.401425","street":{"id":932913,"name":"On or near Ivy Gardens"},"longitude":"-0.135923"},"context":"","outcome_status":{"category":"Court case unable to proceed","date":"2017-07"},"persistent_id":"d017a9ad12088944f977e442dc43b9d8ac919ae1fd903904e933701f984be54b","id":58073229,"location_subtype":"","month":"2017-06"},{"category":"public-order","location_type":"Force","location":{"latitude":"51.399117","street":{"id":930521,"name":"On or near South Lodge Avenue"},"longitude":"-0.128771"},"context":"","outcome_status":{"category":"Status update unavailable","date":"2017-10"},"persistent_id":"541df7bdbb8832a1345f551bd7a3b26301e06ed3c7a8c69407b3d43f7ab51d5d","id":58012341,"location_subtype":"","month":"2017-06"},{"category":"public-order","location_type":"Force","location":{"latitude":"51.400049","street":{"id":932912,"name":"On or near Lexden Road"},"longitude":"-0.139343"},"context":"","outcome_status":{"category":"Investigation complete; no suspect identified","date":"2017-07"},"persistent_id":"9e766c6d79d4a256f43ad07c358316258a802052a44860b5d3c5e75845c18483","id":58079972,"location_subtype":"","month":"2017-06"},{"category":"public-order","location_type":"Force","location":{"latitude":"51.399117","street":{"id":930521,"name":"On or near South Lodge Avenue"},"longitude":"-0.128771"},"context":"","outcome_status":{"category":"Investigation complete; no suspect identified","date":"2017-06"},"persistent_id":"541df7bdbb8832a1345f551bd7a3b26301e06ed3c7a8c69407b3d43f7ab51d5d","id":58012342,"location_subtype":"","month":"2017-06"},{"category":"public-order","location_type":"Force","location":{"latitude":"51.396886","street":{"id":930426,"name":"On or near Beech Grove"},"longitude":"-0.136064"},"context":"","outcome_status":{"category":"Status update unavailable","date":"2017-10"},"persistent_id":"4a77e943803626f60c26494f136748c339701e2080c0b61e8367b2798a5cf7fa","id":58038040,"location_subtype":"","month":"2017-06"},{"category":"public-order","location_type":"Force","location":{"latitude":"51.399253","street":{"id":930526,"name":"On or near Lindsey Close"},"longitude":"-0.126595"},"context":"","outcome_status":{"category":"Investigation complete; no suspect identified","date":"2017-07"},"persistent_id":"ef8a118418e8b9497c263728ca0eedd26ac70be44d199b6c5cc85a6cc031d6d0","id":58015717,"location_subtype":"","month":"2017-06"},{"category":"robbery","location_type":"Force","location":{"latitude":"51.399117","street":{"id":930521,"name":"On or near South Lodge Avenue"},"longitude":"-0.128771"},"context":"","outcome_status":{"category":"Defendant found not guilty","date":"2017-12"},"persistent_id":"1f324662ca8fa20ab5c06a4b5459eeb93b9d705ce407ed6bf0a1c1b9921ad4b0","id":58061305,"location_subtype":"","month":"2017-06"},{"category":"robbery","location_type":"Force","location":{"latitude":"51.398737","street":{"id":930444,"name":"On or near Commonside East"},"longitude":"-0.144485"},"context":"","outcome_status":{"category":"Court result unavailable","date":"2018-05"},"persistent_id":"45c604d9e907f6ad43b58d5a02e9187b113ab5fffb375fc03bc91f1c3c17e9d1","id":58079860,"location_subtype":"","month":"2017-06"},{"category":"vehicle-crime","location_type":"Force","location":{"latitude":"51.398306","street":{"id":930520,"name":"On or near Tavistock Crescent"},"longitude":"-0.129796"},"context":"","outcome_status":{"category":"Status update unavailable","date":"2017-10"},"persistent_id":"32de5f9ab1e62fff6aad09eefd44ec65ea2fc2709b50044d6cf8270bcef85f91","id":58020771,"location_subtype":"","month":"2017-06"},{"category":"vehicle-crime","location_type":"Force","location":{"latitude":"51.401484","street":{"id":932938,"name":"On or near Tamworth Park"},"longitude":"-0.149305"},"context":"","outcome_status":{"category":"Status update unavailable","date":"2017-10"},"persistent_id":"5144ae8947b10794cd57d8e7179be2dbea6cccbcd4fae0df8dcba0e7cba0b0ef","id":58048861,"location_subtype":"","month":"2017-06"},{"category":"vehicle-crime","location_type":"Force","location":{"latitude":"51.398741","street":{"id":930438,"name":"On or near Conway Gardens"},"longitude":"-0.131719"},"context":"","outcome_status":{"category":"Status update unavailable","date":"2017-10"},"persistent_id":"2f1c0c5db41b9389e81a940fff69b0f1e54207ece49fe3a6e8cd5cb950ad2a37","id":58024442,"location_subtype":"","month":"2017-06"},{"category":"violent-crime","location_type":"Force","location":{"latitude":"51.395218","street":{"id":930504,"name":"On or near Middlesex Road"},"longitude":"-0.129577"},"context":"","outcome_status":{"category":"Investigation complete; no suspect identified","date":"2017-06"},"persistent_id":"c673c0a32a1246d5e8f2970a1c1a78ef3f6186754fcf96b376eb2455b5adeecd","id":58049435,"location_subtype":"","month":"2017-06"},{"category":"violent-crime","location_type":"Force","location":{"latitude":"51.401355","street":{"id":932916,"name":"On or near Caernarvon Close"},"longitude":"-0.130937"},"context":"","outcome_status":{"category":"Investigation complete; no suspect identified","date":"2017-06"},"persistent_id":"900be993e0612c7fa4428731a6d29dc95fa0b9b2a5bf9e54df7863fa100c5a05","id":58049930,"location_subtype":"","month":"2017-06"},{"category":"violent-crime","location_type":"Force","location":{"latitude":"51.400127","street":{"id":932932,"name":"On or near Franklin Crescent"},"longitude":"-0.143106"},"context":"","outcome_status":{"category":"Investigation complete; no suspect identified","date":"2017-10"},"persistent_id":"8f313f76cbb17b828695750d7345564cc5ce6e63c308d7e0826034a31e8a3526","id":58013951,"location_subtype":"","month":"2017-06"},{"category":"violent-crime","location_type":"Force","location":{"latitude":"51.398471","street":{"id":930437,"name":"On or near Dahlia Gardens"},"longitude":"-0.135626"},"context":"","outcome_status":{"category":"Investigation complete; no suspect identified","date":"2017-06"},"persistent_id":"3ce0571d82f57349c76e1abd47511cded4352e24e0128720271d3e96473e70c9","id":58012974,"location_subtype":"","month":"2017-06"},{"category":"violent-crime","location_type":"Force","location":{"latitude":"51.398737","street":{"id":930444,"name":"On or near Commonside East"},"longitude":"-0.144485"},"context":"","outcome_status":{"category":"Investigation complete; no suspect identified","date":"2017-06"},"persistent_id":"83d89411c33a78bd7f1b0dcb06552d7670cd4d951852b8fad2d4596cc1e4207a","id":58050984,"location_subtype":"","month":"2017-06"},{"category":"violent-crime","location_type":"Force","location":{"latitude":"51.398741","street":{"id":930438,"name":"On or near Conway Gardens"},"longitude":"-0.131719"},"context":"","outcome_status":{"category":"Investigation complete; no suspect identified","date":"2017-08"},"persistent_id":"53461420459a15c62c8a47b280ff769c65531cb21556eb2edbd399d6b96f5290","id":58066600,"location_subtype":"","month":"2017-06"},{"category":"violent-crime","location_type":"Force","location":{"latitude":"51.398741","street":{"id":930438,"name":"On or near Conway Gardens"},"longitude":"-0.131719"},"context":"","outcome_status":{"category":"Investigation complete; no suspect identified","date":"2017-07"},"persistent_id":"d417568e57af8e4f121680b4d6a1392fe3f5119924c3ee7a34d3b0a8ad19d393","id":58073823,"location_subtype":"","month":"2017-06"},{"category":"violent-crime","location_type":"Force","location":{"latitude":"51.397280","street":{"id":930502,"name":"On or near Shropshire Close"},"longitude":"-0.127509"},"context":"","outcome_status":{"category":"Investigation complete; no suspect identified","date":"2017-07"},"persistent_id":"feb1f646d2c530703f435368d12379dde4251fea101c97b9aa8846bd127cbfa2","id":58074732,"location_subtype":"","month":"2017-06"},{"category":"violent-crime","location_type":"Force","location":{"latitude":"51.401820","street":{"id":932907,"name":"On or near Robinhood Lane"},"longitude":"-0.139817"},"context":"","outcome_status":{"category":"Investigation complete; no suspect identified","date":"2017-07"},"persistent_id":"89cf2f942092a642b3deb6ebaa34dec2f3bb506de920141aad313d830399a704","id":58075637,"location_subtype":"","month":"2017-06"},{"category":"violent-crime","location_type":"Force","location":{"latitude":"51.400127","street":{"id":932932,"name":"On or near Franklin Crescent"},"longitude":"-0.143106"},"context":"","outcome_status":{"category":"Investigation complete; no suspect identified","date":"2017-06"},"persistent_id":"3682d930ef3087980104f991a3684ac68c557c8de2feb89454a9423d31b5d999","id":58053077,"location_subtype":"","month":"2017-06"},{"category":"violent-crime","location_type":"Force","location":{"latitude":"51.401820","street":{"id":932907,"name":"On or near Robinhood Lane"},"longitude":"-0.139817"},"context":"","outcome_status":{"category":"Status update unavailable","date":"2017-10"},"persistent_id":"89cf2f942092a642b3deb6ebaa34dec2f3bb506de920141aad313d830399a704","id":58075636,"location_subtype":"","month":"2017-06"},{"category":"violent-crime","location_type":"Force","location":{"latitude":"51.397280","street":{"id":930502,"name":"On or near Shropshire Close"},"longitude":"-0.127509"},"context":"","outcome_status":{"category":"Investigation complete; no suspect identified","date":"2018-03"},"persistent_id":"bba9f78a0b1066fab16563018003bd31b64a9d88a91ae6f6b99924f53bca762e","id":58036624,"location_subtype":"","month":"2017-06"},{"category":"violent-crime","location_type":"Force","location":{"latitude":"51.398471","street":{"id":930437,"name":"On or near Dahlia Gardens"},"longitude":"-0.135626"},"context":"","outcome_status":{"category":"Investigation complete; no suspect identified","date":"2017-07"},"persistent_id":"f1cbd5800a4e60578d1186d653a3e1371f06fe8fc6ea332b5b0e73b25b372fb3","id":58036591,"location_subtype":"","month":"2017-06"},{"category":"violent-crime","location_type":"Force","location":{"latitude":"51.401355","street":{"id":932916,"name":"On or near Caernarvon Close"},"longitude":"-0.130937"},"context":"","outcome_status":{"category":"Investigation complete; no suspect identified","date":"2017-07"},"persistent_id":"018926623ec114b159966ea7d8b193be9f723001b75549212dce41f69a97b69c","id":58028058,"location_subtype":"","month":"2017-06"},{"category":"violent-crime","location_type":"Force","location":{"latitude":"51.402085","street":{"id":932905,"name":"On or near Wide Way"},"longitude":"-0.135033"},"context":"","outcome_status":{"category":"Investigation complete; no suspect identified","date":"2017-07"},"persistent_id":"02ded66e902f2c998116a6c372b633c3723da1e689fb5781b3ab4bbc93f46a79","id":58027251,"location_subtype":"","month":"2017-06"},{"category":"violent-crime","location_type":"Force","location":{"latitude":"51.399993","street":{"id":932812,"name":"On or near Kent Close"},"longitude":"-0.127355"},"context":"","outcome_status":{"category":"Status update unavailable","date":"2017-10"},"persistent_id":"d31ae820768da9a13fdd7dfe2a41bd3875312763661251acdb329cf48256947f","id":58014666,"location_subtype":"","month":"2017-06"},{"category":"violent-crime","location_type":"Force","location":{"latitude":"51.399993","street":{"id":932812,"name":"On or near Kent Close"},"longitude":"-0.127355"},"context":"","outcome_status":{"category":"Investigation complete; no suspect identified","date":"2017-09"},"persistent_id":"d31ae820768da9a13fdd7dfe2a41bd3875312763661251acdb329cf48256947f","id":58014667,"location_subtype":"","month":"2017-06"},{"category":"violent-crime","location_type":"Force","location":{"latitude":"51.399993","street":{"id":932812,"name":"On or near Kent Close"},"longitude":"-0.127355"},"context":"","outcome_status":{"category":"Investigation complete; no suspect identified","date":"2017-06"},"persistent_id":"dbe0d0bec6ab1a2291fdb139d099bfb3467297b2c35d7b6b48459bdf39b1c64a","id":58016352,"location_subtype":"","month":"2017-06"},{"category":"violent-crime","location_type":"Force","location":{"latitude":"51.399253","street":{"id":930526,"name":"On or near Lindsey Close"},"longitude":"-0.126595"},"context":"","outcome_status":{"category":"Investigation complete; no suspect identified","date":"2017-07"},"persistent_id":"a52988b0b92759c01770dda173c8c5419e37c62a579961b9c4c15098b5ce6544","id":58022398,"location_subtype":"","month":"2017-06"},{"category":"violent-crime","location_type":"Force","location":{"latitude":"51.399993","street":{"id":932812,"name":"On or near Kent Close"},"longitude":"-0.127355"},"context":"","outcome_status":{"category":"Investigation complete; no suspect identified","date":"2017-11"},"persistent_id":"80c432f78e94337f4f942fb7c6d6bb9188217f182ab1e7ce0f41123792f0e22d","id":58017989,"location_subtype":"","month":"2017-06"},{"category":"violent-crime","location_type":"Force","location":{"latitude":"51.400889","street":{"id":932917,"name":"On or near Brecon Close"},"longitude":"-0.132178"},"context":"","outcome_status":{"category":"Defendant found not guilty","date":"2017-09"},"persistent_id":"93b16740725a07321f86643cee7c5cf59a0a61c1267ec1420865160837edf940","id":58020385,"location_subtype":"","month":"2017-06"},{"category":"violent-crime","location_type":"Force","location":{"latitude":"51.401425","street":{"id":932913,"name":"On or near Ivy Gardens"},"longitude":"-0.135923"},"context":"","outcome_status":{"category":"Investigation complete; no suspect identified","date":"2017-06"},"persistent_id":"08572ef123b6d94502ca1d7c9c8f5eb9f22b5368311d1678a45d3bfb8a414fd3","id":58026932,"location_subtype":"","month":"2017-06"},{"category":"violent-crime","location_type":"Force","location":{"latitude":"51.399508","street":{"id":930435,"name":"On or near Fern Avenue"},"longitude":"-0.134160"},"context":"","outcome_status":{"category":"Investigation complete; no suspect identified","date":"2017-07"},"persistent_id":"84c4c6e6401032afbc5b901cad266cd0f595a3c245165c0d86401eb9233e8d9c","id":58031155,"location_subtype":"","month":"2017-06"},{"category":"violent-crime","location_type":"Force","location":{"latitude":"51.398471","street":{"id":930437,"name":"On or near Dahlia Gardens"},"longitude":"-0.135626"},"context":"","outcome_status":{"category":"Status update unavailable","date":"2017-10"},"persistent_id":"f1cbd5800a4e60578d1186d653a3e1371f06fe8fc6ea332b5b0e73b25b372fb3","id":58036590,"location_subtype":"","month":"2017-06"},{"category":"violent-crime","location_type":"Force","location":{"latitude":"51.399508","street":{"id":930435,"name":"On or near Fern Avenue"},"longitude":"-0.134160"},"context":"","outcome_status":{"category":"Investigation complete; no suspect identified","date":"2017-06"},"persistent_id":"57761953584778afc291cc3387c9834f698a3b0ec67bb121967d465190bfffdb","id":58037663,"location_subtype":"","month":"2017-06"},{"category":"violent-crime","location_type":"Force","location":{"latitude":"51.398737","street":{"id":930444,"name":"On or near Commonside East"},"longitude":"-0.144485"},"context":"","outcome_status":{"category":"Investigation complete; no suspect identified","date":"2017-07"},"persistent_id":"fd9d213f946b132e9e8101b3bde03f261a4efe224d024853e0dac9fdbd937165","id":58024175,"location_subtype":"","month":"2017-06"},{"category":"violent-crime","location_type":"Force","location":{"latitude":"51.399508","street":{"id":930435,"name":"On or near Fern Avenue"},"longitude":"-0.134160"},"context":"","outcome_status":{"category":"Investigation complete; no suspect identified","date":"2017-07"},"persistent_id":"5703b5637a7bb346cf27b324c4c91a31ab26aba751c89b98c446a065250ee683","id":58043161,"location_subtype":"","month":"2017-06"}]