[{"category":"anti-social-behaviour","location_type":"Force","location":{"latitude":"51.358663","street":{"id":926207,"name":"On or near Bransby Road"},"longitude":"-0.303282"},"context":"","outcome_status":null,"persistent_id":"","id":57996573,"location_subtype":"","month":"2017-06"},{"category":"anti-social-behaviour","location_type":"Force","location":{"latitude":"51.357361","street":{"id":926168,"name":"On or near Orchid Close"},"longitude":"-0.314620"},"context":"","outcome_status":null,"persistent_id":"","id":57996655,"location_subtype":"","month":"2017-06"},{"category":"anti-social-behaviour","location_type":"Force","location":{"latitude":"51.358663","street":{"id":926207,"name":"On or near Bransby Road"},"longitude":"-0.303282"},"context":"","outcome_status":null,"persistent_id":"","id":57996572,"location_subtype":"","month":"2017-06"},{"category":"anti-social-behaviour","location_type":"Force","location":{"latitude":"51.358663","street":{"id":926207,"name":"On or near Bransby Road"},"longitude":"-0.303282"},"context":"","outcome_status":null,"persistent_id":"","id":57996558,"location_subtype":"","month":"2017-06"},{"category":"anti-social-behaviour","location_type":"Force","location":{"latitude":"51.357361","street":{"id":926168,"name":"On or near Orchid Close"},"longitude":"-0.314620"},"context":"","outcome_status":null,"persistent_id":"","id":57996654,"location_subtype":"","month":"2017-06"},{"category":"anti-social-behaviour","location_type":"Force","location":{"latitude":"51.357093","street":{"id":926151,"name":"On or near Leas Close"},"longitude":"-0.298572"},"context":"","outcome_status":null,"persistent_id":"","id":57996533,"location_subtype":"","month":"2017-06"},{"category":"anti-social-behaviour","location_type":"Force","location":{"latitude":"51.355108","street":{"id":926180,"name":"On or near Sports\/recreation Area"},"longitude":"-0.313022"},"context":"","outcome_status":null,"persistent_id":"","id":57996648,"location_subtype":"","month":"2017-06"},{"category":"anti-social-behaviour","location_type":"Force","location":{"latitude":"51.360046","street":{"id":926182,"name":"On or near Sienna Close"},"longitude":"-0.310614"},"context":"","outcome_status":null,"persistent_id":"","id":57996639,"location_subtype":"","month":"2017-06"},{"category":"anti-social-behaviour","location_type":"Force","location":{"latitude":"51.356783","street":{"id":926202,"name":"On or near Garrison Lane"},"longitude":"-0.305707"},"context":"","outcome_status":null,"persistent_id":"","id":57996617,"location_subtype":"","month":"2017-06"},{"category":"anti-social-behaviour","location_type":"Force","location":{"latitude":"51.357928","street":{"id":926183,"name":"On or near Harrow Close"},"longitude":"-0.310908"},"context":"","outcome_status":null,"persistent_id":"","id":57996645,"location_subtype":"","month":"2017-06"},{"category":"anti-social-behaviour","location_type":"Force","location":{"latitude":"51.353045","street":{"id":926212,"name":"On or near Almshouse Lane"},"longitude":"-0.314017"},"context":"","outcome_status":null,"persistent_id":"","id":57996650,"location_subtype":"","month":"2017-06"},{"category":"anti-social-behaviour","location_type":"Force","location":{"latitude":"51.353045","street":{"id":926212,"name":"On or near Almshouse Lane"},"longitude":"-0.314017"},"context":"","outcome_status":null,"persistent_id":"","id":57996649,"location_subtype":"","month":"2017-06"},{"category":"anti-social-behaviour","location_type":"Force","location":{"latitude":"51.360253","street":{"id":926152,"name":"On or near Hemsby Road"},"longitude":"-0.295683"},"context":"","outcome_status":null,"persistent_id":"","id":57996522,"location_subtype":"","month":"2017-06"},{"category":"anti-social-behaviour","location_type":"Force","location":{"latitude":"51.357580","street":{"id":926190,"name":"On or near York Way"},"longitude":"-0.306109"},"context":"","outcome_status":null,"persistent_id":"","id":57996611,"location_subtype":"","month":"2017-06"},{"category":"anti-social-behaviour","location_type":"Force","location":{"latitude":"51.357928","street":{"id":926183,"name":"On or near Harrow Close"},"longitude":"-0.310908"},"context":"","outcome_status":null,"persistent_id":"","id":57996644,"location_subtype":"","month":"2017-06"},{"category":"anti-social-behaviour","location_type":"Force","location":{"latitude":"51.357580","street":{"id":926190,"name":"On or near York Way"},"longitude":"-0.306109"},"context":"","outcome_status":null,"persistent_id":"","id":57996612,"location_subtype":"","month":"2017-06"},{"category":"anti-social-behaviour","location_type":"Force","location":{"latitude":"51.357580","street":{"id":926190,"name":"On or near York Way"},"longitude":"-0.306109"},"context":"","outcome_status":null,"persistent_id":"","id":57996613,"location_subtype":"","month":"2017-06"},{"category":"anti-social-behaviour","location_type":"Force","location":{"latitude":"51.357361","street":{"id":926168,"name":"On or near Orchid Close"},"longitude":"-0.314620"},"context":"","outcome_status":null,"persistent_id":"","id":57996656,"location_subtype":"","month":"2017-06"},{"category":"bicycle-theft","location_type":"Force","location":{"latitude":"51.361996","street":{"id":926185,"name":"On or near Cheshire Gardens"},"longitude":"-0.311763"},"context":"","outcome_status":{"category":"Investigation complete; no suspect identified","date":"2017-09"},"persistent_id":"8da3efe6b6ac6c93504d8d5145acd21d5a84244826337c5890195587b3576633","id":58041389,"location_subtype":"","month":"2017-06"},{"category":"burglary","location_type":"Force","location":{"latitude":"51.357947","street":{"id":926204,"name":"On or near Crayke Hill"},"longitude":"-0.304759"},"context":"","outcome_status":{"category":"Status update unavailable","date":"2017-10"},"persistent_id":"7a185492ccda51d93c7963a3c3fce15ab375eb2b5a1435490a64ae56da1cb503","id":58021551,"location_subtype":"","month":"2017-06"},{"category":"criminal-damage-arson","location_type":"Force","location":{"latitude":"51.359273","street":{"id":926187,"name":"On or near Ashlyns Way"},"longitude":"-0.311892"},"context":"","outcome_status":{"category":"Status update unavailable","date":"2017-10"},"persistent_id":"c3bbfb891beb194ae2a6fa918fa137ea5cb676ca967e6605ee462fe9f4fdea55","id":58051023,"location_subtype":"","month":"2017-06"},{"category":"criminal-damage-arson","location_type":"Force","location":{"latitude":"51.357361","street":{"id":926168,"name":"On or near Orchid Close"},"longitude":"-0.314620"},"context":"","outcome_status":{"category":"Investigation complete; no suspect identified","date":"2017-07"},"persistent_id":"73520341e17fd0833e106b28c7a94689fa9b4f353761c368f9ce4e12ce2d0dc6","id":58043412,"location_subtype":"","month":"2017-06"},{"category":"criminal-damage-arson","location_type":"Force","location":{"latitude":"51.356404","street":{"id":926198,"name":"On or near Lindsay Close"},"longitude":"-0.301901"},"context":"","outcome_status":{"category":"Status update unavailable","date":"2017-10"},"persistent_id":"01a98bcf2870e66987497148ba784080cddbcc308ed3e74090a8738b0b3c470c","id":58017037,"location_subtype":"","month":"2017-06"},{"category":"criminal-damage-arson","location_type":"Force","location":{"latitude":"51.362196","street":{"id":926157,"name":"On or near Church Rise"},"longitude":"-0.296990"},"context":"","outcome_status":{"category":"Investigation complete; no suspect identified","date":"2017-07"},"persistent_id":"695c60e87f7bf22f9a84bde3d4917f2e3c462ae3ecb6e223add2cb322a24e98b","id":58038762,"location_subtype":"","month":"2017-06"},{"category":"criminal-damage-arson","location_type":"Force","location":{"latitude":"51.357505","street":{"id":926146,"name":"On or near St Mary's Close"},"longitude":"-0.297853"},"context":"","outcome_status":{"category":"Status update unavailable","date":"2017-10"},"persistent_id":"5959e4cae891ab8e555d242605862b3024ce05152475f185d0af30b4d72e3fb8","id":58059224,"location_subtype":"","month":"2017-06"},{"category":"criminal-damage-arson","location_type":"Force","location":{"latitude":"51.349185","street":{"id":924749,"name":"On or near Chalky Lane"},"longitude":"-0.310769"},"context":"","outcome_status":{"category":"Local resolution","date":"2017-10"},"persistent_id":"d928dc2b643810eb5eaa153653f7a99143f4d38a59f8d970546f8cc64ebbb5d7","id":58053304,"location_subtype":"","month":"2017-06"},{"category":"criminal-damage-arson","location_type":"Force","location":{"latitude":"51.362196","street":{"id":926157,"name":"On or near Church Rise"},"longitude":"-0.296990"},"context":"","outcome_status":{"category":"Status update unavailable","date":"2017-10"},"persistent_id":"99b441b6522e7d45652238a921e469c563964806272dcc8e2e59ba4c714bb837","id":58049180,"location_subtype":"","month":"2017-06"},{"category":"criminal-damage-arson","location_type":"Force","location":{"latitude":"51.355108","street":{"id":926180,"name":"On or near Sports\/recreation Area"},"longitude":"-0.313022"},"context":"","outcome_status":{"category":"Status update unavailable","date":"2017-10"},"persistent_id":"51bdac2415c28207babf9c7b79f5b922b5924ca787e92a0545936a64ed11012b","id":58024368,"location_subtype":"","month":"2017-06"},{"category":"criminal-damage-arson","location_type":"Force","location":{"latitude":"51.360046","street":{"id":926182,"name":"On or near Sienna Close"},"longitude":"-0.310614"},"context":"","outcome_status":{"category":"Status update unavailable","date":"2017-10"},"persistent_id":"edaf983488fc7568dd05ae7a1e40476fe5af603cc94dea4e11cd4929773a2247","id":58023307,"location_subtype":"","month":"2017-06"},{"category":"criminal-damage-arson","location_type":"Force","location":{"latitude":"51.357157","street":{"id":926196,"name":"On or near Reynolds Avenue"},"longitude":"-0.302965"},"context":"","outcome_status":{"category":"Investigation complete; no suspect identified","date":"2017-06"},"persistent_id":"79c166907bb169f570e9c0186e525a494868776aa2e42fae96cc38390a5d27ef","id":58016902,"location_subtype":"","month":"2017-06"},{"category":"drugs","location_type":"Force","location":{"latitude":"51.354839","street":{"id":926201,"name":"On or near Green Lane"},"longitude":"-0.303108"},"context":"","outcome_status":{"category":"Offender given a drugs possession warning","date":"2017-06"},"persistent_id":"41006ebb237d0f7be2f7cddccc06cb26bc13f142c4513875ad2819e48fff9dd4","id":58019565,"location_subtype":"","month":"2017-06"},{"category":"drugs","location_type":"Force","location":{"latitude":"51.362124","street":{"id":926209,"name":"On or near Bolton Close"},"longitude":"-0.306300"},"context":"","outcome_status":{"category":"Offender given a drugs possession warning","date":"2017-07"},"persistent_id":"2de2f1fee142bf712962ae02e36efbc28456947ac5de418c089ca9e7a203825d","id":58059615,"location_subtype":"","month":"2017-06"},{"category":"drugs","location_type":"Force","location":{"latitude":"51.362379","street":{"id":926150,"name":"On or near Marston Avenue"},"longitude":"-0.299683"},"context":"","outcome_status":{"category":"Offender given a drugs possession warning","date":"2017-06"},"persistent_id":"18bfd8f3eb8ee6ec48336a8dea7ca9bb535d747b52b536116a71666770a216ec","id":58071892,"location_subtype":"","month":"2017-06"},{"category":"drugs","location_type":"Force","location":{"latitude":"51.363245","street":{"id":926284,"name":"On or near Hook Road"},"longitude":"-0.308572"},"context":"","outcome_status":{"category":"Offender given a drugs possession warning","date":"2017-07"},"persistent_id":"fb5dc264629b3181af4d2c98a9b40d1ca84cfeed0a653295fda00a2a4626c1d4","id":58078525,"location_subtype":"","month":"2017-06"},{"category":"drugs","location_type":"Force","location":{"latitude":"51.361949","street":{"id":926143,"name":"On or near Wilson Road"},"longitude":"-0.298536"},"context":"","outcome_status":{"category":"Offender given a drugs possession warning","date":"2017-06"},"persistent_id":"74209aa2134bf13d0d131b2c150eed8f2b5a15ebff889326a07874f7392de8de","id":58031190,"location_subtype":"","month":"2017-06"},{"category":"other-theft","location_type":"Force","location":{"latitude":"51.360468","street":{"id":926160,"name":"On or near Ashby Avenue"},"longitude":"-0.289513"},"context":"","outcome_status":{"category":"Investigation complete; no suspect identified","date":"2017-09"},"persistent_id":"f68c0126e2dde7959e4a09c249f01e3891b89bcaa7575705a99bd21d4f4a3e37","id":58058768,"location_subtype":"","month":"2017-06"},{"category":"other-theft","location_type":"Force","location":{"latitude":"51.361216","street":{"id":926216,"name":"On or near Benham Close"},"longitude":"-0.315053"},"context":"","outcome_status":{"category":"Status update unavailable","date":"2017-10"},"persistent_id":"4fdb48e663a851084b4fcc13245ca0c1dca1d378555c460c036a7dc66d20dc5b","id":58066917,"location_subtype":"","month":"2017-06"},{"category":"other-theft","location_type":"Force","location":{"latitude":"51.337200","street":{"id":924753,"name":"On or near Airport\/airfield"},"longitude":"-0.313995"},"context":"","outcome_status":{"category":"Investigation complete; no suspect identified","date":"2017-09"},"persistent_id":"f67799321f0c3dd58c4fecc08611a79a03bd9cf88ccc4429aa8e5cc4a9539b6b","id":58017615,"location_subtype":"","month":"2017-06"},{"category":"other-theft","location_type":"Force","location":{"latitude":"51.349185","street":{"id":924749,"name":"On or near Chalky Lane"},"longitude":"-0.310769"},"context":"","outcome_status":{"category":"Status update unavailable","date":"2017-10"},"persistent_id":"3314020e1b157c6959a23a981c9bf6eff62328361f98d18617e5782d48b40d03","id":58053837,"location_subtype":"","month":"2017-06"},{"category":"possession-of-weapons","location_type":"Force","location":{"latitude":"51.349185","street":{"id":924749,"name":"On or near Chalky Lane"},"longitude":"-0.310769"},"context":"","outcome_status":{"category":"Court case unable to proceed","date":"2017-06"},"persistent_id":"5c8fda7d28346c2343139e5097fb8a971a46d1f82e43ab07146979a8cce96f1a","id":58021012,"location_subtype":"","month":"2017-06"},{"category":"public-order","location_type":"Force","location":{"latitude":"51.357361","street":{"id":926168,"name":"On or near Orchid Close"},"longitude":"-0.314620"},"context":"","outcome_status":{"category":"Investigation complete; no suspect identified","date":"2017-06"},"persistent_id":"66a8e1d89b445f08facce5ed28523fa5e554e35c771922f71ec7650cadccfcab","id":58024034,"location_subtype":"","month":"2017-06"},{"category":"public-order","location_type":"Force","location":{"latitude":"51.356393","street":{"id":926188,"name":"On or near Parking Area"},"longitude":"-0.307977"},"context":"","outcome_status":{"category":"Investigation complete; no suspect identified","date":"2017-09"},"persistent_id":"bcba28eaf540daf93d9e1e53ea9bac5612fd9185d7b0ee341b5a6bbab8ad1d6a","id":58075666,"location_subtype":"","month":"2017-06"},{"category":"public-order","location_type":"Force","location":{"latitude":"51.349185","street":{"id":924749,"name":"On or near Chalky Lane"},"longitude":"-0.310769"},"context":"","outcome_status":{"category":"Offender given a caution","date":"2017-06"},"persistent_id":"58a470cd0ce46922cfb653372ddfdf190ee3289cc8b6954224306e4821191b84","id":58013448,"location_subtype":"","month":"2017-06"},{"category":"shoplifting","location_type":"Force","location":{"latitude":"51.340737","street":{"id":924751,"name":"On or near West Road"},"longitude":"-0.319235"},"context":"","outcome_status":{"category":"Investigation complete; no suspect identified","date":"2017-07"},"persistent_id":"69e6e10818b507567491fa2e59a945c098fe9d2f1bcac7ac3a7a8d4512c15a59","id":58023390,"location_subtype":"","month":"2017-06"},{"category":"theft-from-the-person","location_type":"Force","location":{"latitude":"51.349185","street":{"id":924749,"name":"On or near Chalky Lane"},"longitude":"-0.310769"},"context":"","outcome_status":{"category":"Status update unavailable","date":"2017-10"},"persistent_id":"608a2ed3a1636be27b9a243a079c2885d904d5f70eee91a839df6450647e97f5","id":58018236,"location_subtype":"","month":"2017-06"},{"category":"vehicle-crime","location_type":"Force","location":{"latitude":"51.363397","street":{"id":926265,"name":"On or near Mansfield Road"},"longitude":"-0.312272"},"context":"","outcome_status":{"category":"Investigation complete; no suspect identified","date":"2017-07"},"persistent_id":"65f3306f773712889f6cf9255835f3df3b426eb65e62f2284e6b3a9c27c9bc4a","id":58017592,"location_subtype":"","month":"2017-06"},{"category":"vehicle-crime","location_type":"Force","location":{"latitude":"51.363397","street":{"id":926265,"name":"On or near Mansfield Road"},"longitude":"-0.312272"},"context":"","outcome_status":{"category":"Status update unavailable","date":"2017-10"},"persistent_id":"84cb583916ffb7730bf05257435ec96a55aad0090565d08de3d6c755012a1f56","id":58022440,"location_subtype":"","month":"2017-06"},{"category":"vehicle-crime","location_type":"Force","location":{"latitude":"51.357947","street":{"id":926204,"name":"On or near Crayke Hill"},"longitude":"-0.304759"},"context":"","outcome_status":{"category":"Status update unavailable","date":"2017-10"},"persistent_id":"5a77c47c012706730dec27f26ba3a8e97c35cb7c57a98be1e81d8d0377f71081","id":58067256,"location_subtype":"","month":"2017-06"},{"category":"vehicle-crime","location_type":"Force","location":{"latitude":"51.349185","street":{"id":924749,"name":"On or near Chalky Lane"},"longitude":"-0.310769"},"context":"","outcome_status":{"category":"Investigation complete; no suspect identified","date":"2017-09"},"persistent_id":"4dde983982d9c53bcba48fca74bdf84d28480ed283cd343c2df545068d072d73","id":58060224,"location_subtype":"","month":"2017-06"},{"category":"vehicle-crime","location_type":"Force","location":{"latitude":"51.358452","street":{"id":926165,"name":"On or near Woodall Close"},"longitude":"-0.313560"},"context":"","outcome_status":{"category":"Investigation complete; no suspect identified","date":"2017-06"},"persistent_id":"7edc4ad47b216c74274f081d446b9455123a41e8f55673b810de0bbdde483396","id":58052375,"location_subtype":"","month":"2017-06"},{"category":"vehicle-crime","location_type":"Force","location":{"latitude":"51.338231","street":{"id":924754,"name":"On or near Petrol Station"},"longitude":"-0.319427"},"context":"","outcome_status":{"category":"Status update unavailable","date":"2017-10"},"persistent_id":"5948f10667840c92408a4857e994e103e69bab639428c84eec2699c539d5f1bf","id":58028790,"location_subtype":"","month":"2017-06"},{"category":"violent-crime","location_type":"Force","location":{"latitude":"51.360844","street":{"id":926181,"name":"On or near Sussex Gardens"},"longitude":"-0.311676"},"context":"","outcome_status":{"category":"Investigation complete; no suspect identified","date":"2017-06"},"persistent_id":"b15b413740a5a329f0905eac95d3b0e69c1001f4898b6f4183be043a562ee899","id":58015952,"location_subtype":"","month":"2017-06"},{"category":"violent-crime","location_type":"Force","location":{"latitude":"51.359746","street":{"id":926203,"name":"On or near Ellingham Road"},"longitude":"-0.307910"},"context":"","outcome_status":{"category":"Offender given suspended prison sentence","date":"2017-06"},"persistent_id":"5f9efa02924efb24c1794ee02f979fd11556bfc95b0657bd3b6fdc4107ff535b","id":58069757,"location_subtype":"","month":"2017-06"},{"category":"violent-crime","location_type":"Force","location":{"latitude":"51.357580","street":{"id":926190,"name":"On or near York Way"},"longitude":"-0.306109"},"context":"","outcome_status":{"category":"Investigation complete; no suspect identified","date":"2017-08"},"persistent_id":"b0ef6be0c80fb90d135a89ec331269c92e0f510a03be6e5c749c27ff2434f808","id":58020951,"location_subtype":"","month":"2017-06"},{"category":"violent-crime","location_type":"Force","location":{"latitude":"51.363302","street":{"id":926261,"name":"On or near Tedder Close"},"longitude":"-0.314373"},"context":"","outcome_status":{"category":"Investigation complete; no suspect identified","date":"2017-08"},"persistent_id":"cca33600082845c7dd03c9b1b64dff141d486636f22e836368d955e83b5a61c8","id":58034769,"location_subtype":"","month":"2017-06"},{"category":"violent-crime","location_type":"Force","location":{"latitude":"51.363302","street":{"id":926261,"name":"On or near Tedder Close"},"longitude":"-0.314373"},"context":"","outcome_status":{"category":"Status update unavailable","date":"2017-10"},"persistent_id":"cca33600082845c7dd03c9b1b64dff141d486636f22e836368d955e83b5a61c8","id":58034767,"location_subtype":"","month":"2017-06"},{"category":"violent-crime","location_type":"Force","location":{"latitude":"51.363302","street":{"id":926261,"name":"On or near Tedder Close"},"longitude":"-0.314373"},"context":"","outcome_status":{"category":"Status update unavailable","date":"2017-10"},"persistent_id":"cca33600082845c7dd03c9b1b64dff141d486636f22e836368d955e83b5a61c8","id":58034768,"location_subtype":"","month":"2017-06"},{"category":"violent-crime","location_type":"Force","location":{"latitude":"51.357361","street":{"id":926168,"name":"On or near Orchid Close"},"longitude":"-0.314620"},"context":"","outcome_status":{"category":"Investigation complete; no suspect identified","date":"2017-06"},"persistent_id":"e5e6257b214cb1fd2ab5b7ff8d20812239b62c5b5b3572ec91093b3aa01085e7","id":58035782,"location_subtype":"","month":"2017-06"},{"category":"violent-crime","location_type":"Force","location":{"latitude":"51.349185","street":{"id":924749,"name":"On or near Chalky Lane"},"longitude":"-0.310769"},"context":"","outcome_status":{"category":"Investigation complete; no suspect identified","date":"2017-08"},"persistent_id":"4d24ca4b7965127ff2a868b80e676e2a867fa87d8ae863e27d8e6036a38ada05","id":58043297,"location_subtype":"","month":"2017-06"},{"category":"violent-crime","location_type":"Force","location":{"latitude":"51.349185","street":{"id":924749,"name":"On or near Chalky Lane"},"longitude":"-0.310769"},"context":"","outcome_status":{"category":"Status update unavailable","date":"2017-10"},"persistent_id":"4d24ca4b7965127ff2a868b80e676e2a867fa87d8ae863e27d8e6036a38ada05","id":58043296,"location_subtype":"","month":"2017-06"},{"category":"violent-crime","location_type":"Force","location":{"latitude":"51.357494","street":{"id":926191,"name":"On or near Wetherby Way"},"longitude":"-0.303254"},"context":"","outcome_status":{"category":"Investigation complete; no suspect identified","date":"2017-08"},"persistent_id":"72feb92675fb44e82ea5989d665b786dfce369f299a8cfa590f2a77ca3a64f27","id":58046521,"location_subtype":"","month":"2017-06"},{"category":"violent-crime","location_type":"Force","location":{"latitude":"51.363302","street":{"id":926261,"name":"On or near Tedder Close"},"longitude":"-0.314373"},"context":"","outcome_status":{"category":"Court result unavailable","date":"2017-12"},"persistent_id":"c5bf2abb79867b9ce8e7d3e44966fc4db52ca0024cf95f5948743585ad7dc748","id":58065812,"location_subtype":"","month":"2017-06"},{"category":"violent-crime","location_type":"Force","location":{"latitude":"51.361047","street":{"id":926193,"name":"On or near St Catherines Close"},"longitude":"-0.308911"},"context":"","outcome_status":{"category":"Investigation complete; no suspect identified","date":"2017-07"},"persistent_id":"15ea0c0bdc69cd4fa54562b06244014be3e5e0987becc4ca366acde820cf3dae","id":58072376,"location_subtype":"","month":"2017-06"},{"category":"violent-crime","location_type":"Force","location":{"latitude":"51.361047","street":{"id":926193,"name":"On or near St Catherines Close"},"longitude":"-0.308911"},"context":"","outcome_status":{"category":"Status update unavailable","date":"2017-10"},"persistent_id":"15ea0c0bdc69cd4fa54562b06244014be3e5e0987becc4ca366acde820cf3dae","id":58072375,"location_subtype":"","month":"2017-06"},{"category":"violent-crime","location_type":"Force","location":{"latitude":"51.361724","street":{"id":926149,"name":"On or near May Close"},"longitude":"-0.293574"},"context":"","outcome_status":{"category":"Investigation complete; no suspect identified","date":"2017-07"},"persistent_id":"46541b28138541f6dd06a34131892ebb772beb3aa825f133578d3fea667ac5d5","id":58079722,"location_subtype":"","month":"2017-06"},{"category":"violent-crime","location_type":"Force","location":{"latitude":"51.358663","street":{"id":926207,"name":"On or near Bransby Road"},"longitude":"-0.303282"},"context":"","outcome_status":{"category":"Status update unavailable","date":"2017-10"},"persistent_id":"1d4d71af4058f247616acb8a4d1d6f68d15edff674db99f159573034674227ab","id":58051933,"location_subtype":"","month":"2017-06"},{"category":"violent-crime","location_type":"Force","location":{"latitude":"51.362196","street":{"id":926157,"name":"On or near Church Rise"},"longitude":"-0.296990"},"context":"","outcome_status":{"category":"Status update unavailable","date":"2017-10"},"persistent_id":"32fffb2908d37b28dcdf0330e6c9816f7d1e823e59e997525b1477c68fed0743","id":58016977,"location_subtype":"","month":"2017-06"},{"category":"violent-crime","location_type":"Force","location":{"latitude":"51.355108","street":{"id":926180,"name":"On or near Sports\/recreation Area"},"longitude":"-0.313022"},"context":"","outcome_status":{"category":"Investigation complete; no suspect identified","date":"2017-09"},"persistent_id":"2d8b11bcec112e11d49a8f035200cfaa98c68624ab3fcd151d7fb7da9d2d6e1c","id":58033976,"location_subtype":"","month":"2017-06"},{"category":"violent-crime","location_type":"Force","location":{"latitude":"51.357093","street":{"id":926151,"name":"On or near Leas Close"},"longitude":"-0.298572"},"context":"","outcome_status":{"category":"Investigation complete; no suspect identified","date":"2017-12"},"persistent_id":"d6d94764ab2240a54aed23c2b37a86b70f6ebef21aeeb2716f5b6e9ccef26bb3","id":58013849,"location_subtype":"","month":"2017-06"},{"category":"violent-crime","location_type":"Force","location":{"latitude":"51.357361","street":{"id":926168,"name":"On or near Orchid Close"},"longitude":"-0.314620"},"context":"","outcome_status":{"category":"Defendant found not guilty","date":"2017-10"},"persistent_id":"e19c9ea36acc2ddd41797ed7a68dbfbe8c83c9c5db4754651aace56a19bd3162","id":58023481,"location_subtype":"","month":"2017-06"}]