[{"category":"anti-social-behaviour","location_type":"Force","location":{"latitude":"51.577754","street":{"id":973660,"name":"On or near Eastern Avenue"},"longitude":"-0.385510"},"context":"","outcome_status":null,"persistent_id":"","id":57998585,"location_subtype":"","month":"2017-06"},{"category":"anti-social-behaviour","location_type":"Force","location":{"latitude":"51.586729","street":{"id":973652,"name":"On or near Hereford Gardens"},"longitude":"-0.381034"},"context":"","outcome_status":null,"persistent_id":"","id":57998581,"location_subtype":"","month":"2017-06"},{"category":"anti-social-behaviour","location_type":"Force","location":{"latitude":"51.593821","street":{"id":979674,"name":"On or near Chapel Lane"},"longitude":"-0.385402"},"context":"","outcome_status":null,"persistent_id":"","id":57998586,"location_subtype":"","month":"2017-06"},{"category":"anti-social-behaviour","location_type":"Force","location":{"latitude":"51.582902","street":{"id":973644,"name":"On or near St Michael's Crescent"},"longitude":"-0.378702"},"context":"","outcome_status":null,"persistent_id":"","id":57998578,"location_subtype":"","month":"2017-06"},{"category":"anti-social-behaviour","location_type":"Force","location":{"latitude":"51.589597","street":{"id":979724,"name":"On or near Eastcote View"},"longitude":"-0.392106"},"context":"","outcome_status":null,"persistent_id":"","id":57998589,"location_subtype":"","month":"2017-06"},{"category":"anti-social-behaviour","location_type":"Force","location":{"latitude":"51.586021","street":{"id":973654,"name":"On or near Ellement Close"},"longitude":"-0.385101"},"context":"","outcome_status":null,"persistent_id":"","id":57998584,"location_subtype":"","month":"2017-06"},{"category":"bicycle-theft","location_type":"Force","location":{"latitude":"51.589929","street":{"id":979725,"name":"On or near Cuckoo Hill Road"},"longitude":"-0.390044"},"context":"","outcome_status":{"category":"Investigation complete; no suspect identified","date":"2017-06"},"persistent_id":"e6488fae0f2d230ae39b33a99edbe9187d15327b72bb0f180fab436c8a0e58b3","id":58025017,"location_subtype":"","month":"2017-06"},{"category":"burglary","location_type":"Force","location":{"latitude":"51.583245","street":{"id":973666,"name":"On or near West Towers"},"longitude":"-0.390497"},"context":"","outcome_status":{"category":"Status update unavailable","date":"2017-10"},"persistent_id":"6d557e52485a8fdcf41c6763cf58f667a2fc43ce2aff825b5b7060034e54b3ac","id":58072541,"location_subtype":"","month":"2017-06"},{"category":"burglary","location_type":"Force","location":{"latitude":"51.590954","street":{"id":979716,"name":"On or near Ashridge Gardens"},"longitude":"-0.382227"},"context":"","outcome_status":{"category":"Investigation complete; no suspect identified","date":"2017-06"},"persistent_id":"ab6d5e8121634bcbacdc6ae7e220131d850cafceab5e4ae32943c73a5f09cd11","id":58034435,"location_subtype":"","month":"2017-06"},{"category":"burglary","location_type":"Force","location":{"latitude":"51.584186","street":{"id":973642,"name":"On or near Tewkesbury Avenue"},"longitude":"-0.379162"},"context":"","outcome_status":{"category":"Investigation complete; no suspect identified","date":"2017-10"},"persistent_id":"07cf305797a86e90622fea2509da014e6e85282dc8e67a6734d5e4a799a05a54","id":58050091,"location_subtype":"","month":"2017-06"},{"category":"burglary","location_type":"Force","location":{"latitude":"51.586312","street":{"id":973693,"name":"On or near Colchester Drive"},"longitude":"-0.389277"},"context":"","outcome_status":{"category":"Investigation complete; no suspect identified","date":"2017-06"},"persistent_id":"5c8420c6fc9e6f613e37748970c5adbd06d9ff99d96814e5668752b4143485c3","id":58031337,"location_subtype":"","month":"2017-06"},{"category":"burglary","location_type":"Force","location":{"latitude":"51.580495","street":{"id":973658,"name":"On or near Chestnut Drive"},"longitude":"-0.384763"},"context":"","outcome_status":{"category":"Status update unavailable","date":"2017-10"},"persistent_id":"dd2c1127f2a2df90ce90334262eada803cf5c73f213458de59e4fe5ec67b2ff0","id":58074895,"location_subtype":"","month":"2017-06"},{"category":"criminal-damage-arson","location_type":"Force","location":{"latitude":"51.588484","street":{"id":979720,"name":"On or near Pinner Grove"},"longitude":"-0.379846"},"context":"","outcome_status":{"category":"Status update unavailable","date":"2017-10"},"persistent_id":"84d391188bed348d6d0b1c6360d8a035283f5615eb8d5d6a4f5793cb6d4e162b","id":58038777,"location_subtype":"","month":"2017-06"},{"category":"criminal-damage-arson","location_type":"Force","location":{"latitude":"51.588441","street":{"id":973661,"name":"On or near Birches Close"},"longitude":"-0.384496"},"context":"","outcome_status":{"category":"Status update unavailable","date":"2017-10"},"persistent_id":"2bf371661ee3f9c31643d51259a9d24a46d80890902408c3b7bf7acec80ea518","id":58067076,"location_subtype":"","month":"2017-06"},{"category":"criminal-damage-arson","location_type":"Force","location":{"latitude":"51.583717","street":{"id":973684,"name":"On or near Glover Road"},"longitude":"-0.385630"},"context":"","outcome_status":{"category":"Status update unavailable","date":"2017-10"},"persistent_id":"7c79ad3d596823f93885d88bb77edc3e4a710d471906c0fe249b12558981bb63","id":58049625,"location_subtype":"","month":"2017-06"},{"category":"drugs","location_type":"Force","location":{"latitude":"51.593765","street":{"id":979654,"name":"On or near Mansard Close"},"longitude":"-0.387873"},"context":"","outcome_status":{"category":"Offender given a caution","date":"2017-07"},"persistent_id":"3e965209da064baa69c57655636fec4531067ceb61f8af1df10b15161d6913cd","id":58023271,"location_subtype":"","month":"2017-06"},{"category":"other-theft","location_type":"Force","location":{"latitude":"51.586729","street":{"id":973652,"name":"On or near Hereford Gardens"},"longitude":"-0.381034"},"context":"","outcome_status":{"category":"Status update unavailable","date":"2017-10"},"persistent_id":"d7b4726a9cb41a73f195f4ba3686fec63c31cf047d26c3183f05b7c08a8ebcd7","id":58057247,"location_subtype":"","month":"2017-06"},{"category":"other-theft","location_type":"Force","location":{"latitude":"51.581294","street":{"id":973659,"name":"On or near Cannon Lane"},"longitude":"-0.381401"},"context":"","outcome_status":{"category":"Investigation complete; no suspect identified","date":"2017-06"},"persistent_id":"2d2002e13f5d829317779e73672b6f22e3a2ee5bf15ddb4d1481701df44cd0f8","id":58035915,"location_subtype":"","month":"2017-06"},{"category":"theft-from-the-person","location_type":"BTP","location":{"latitude":"51.592800","street":{"id":1488633,"name":"Pinner (lu Station)"},"longitude":"-0.381032"},"context":"","outcome_status":{"category":"Status update unavailable","date":"2017-10"},"persistent_id":"","id":66277228,"location_subtype":"LU STATION","month":"2017-06"},{"category":"vehicle-crime","location_type":"Force","location":{"latitude":"51.586729","street":{"id":973652,"name":"On or near Hereford Gardens"},"longitude":"-0.381034"},"context":"","outcome_status":{"category":"Investigation complete; no suspect identified","date":"2017-07"},"persistent_id":"96fe3e056e736617c91c70392cf289d867fc0146611d49e4506ce4763f0de259","id":58049150,"location_subtype":"","month":"2017-06"},{"category":"vehicle-crime","location_type":"Force","location":{"latitude":"51.585103","street":{"id":973769,"name":"On or near Lincoln Road"},"longitude":"-0.373976"},"context":"","outcome_status":{"category":"Investigation complete; no suspect identified","date":"2017-06"},"persistent_id":"df9e32e37a1b5de5d99fa151d0fc8d80f1549afb3112625e3ac7957384d372f4","id":58024742,"location_subtype":"","month":"2017-06"},{"category":"vehicle-crime","location_type":"Force","location":{"latitude":"51.586312","street":{"id":973693,"name":"On or near Colchester Drive"},"longitude":"-0.389277"},"context":"","outcome_status":{"category":"Status update unavailable","date":"2017-10"},"persistent_id":"4a870c2b12f60f7aa2979e54e75901baf22940a3906bd3ff5b3d777f457b5d39","id":58071989,"location_subtype":"","month":"2017-06"},{"category":"vehicle-crime","location_type":"Force","location":{"latitude":"51.588788","street":{"id":979722,"name":"On or near Grove Avenue"},"longitude":"-0.379070"},"context":"","outcome_status":{"category":"Investigation complete; no suspect identified","date":"2017-07"},"persistent_id":"0a6e00d1a96873e90b3112db5d324d498efd160edaeb03082b9a9f181d66fcd8","id":58063045,"location_subtype":"","month":"2017-06"},{"category":"vehicle-crime","location_type":"Force","location":{"latitude":"51.584826","street":{"id":973637,"name":"On or near Whittington Way"},"longitude":"-0.378013"},"context":"","outcome_status":{"category":"Status update unavailable","date":"2017-10"},"persistent_id":"60657720017121eb35049892dde05b0969cb83e6024caa7973b4d2d9e25dc38c","id":58073686,"location_subtype":"","month":"2017-06"},{"category":"vehicle-crime","location_type":"Force","location":{"latitude":"51.583245","street":{"id":973666,"name":"On or near West Towers"},"longitude":"-0.390497"},"context":"","outcome_status":{"category":"Status update unavailable","date":"2017-10"},"persistent_id":"57fd984ce6aaf7d9dea96fe29a5cd18c38065a193e5910ff6c43696b3d867155","id":58015014,"location_subtype":"","month":"2017-06"},{"category":"violent-crime","location_type":"BTP","location":{"latitude":"51.592800","street":{"id":1488633,"name":"Pinner (lu Station)"},"longitude":"-0.381032"},"context":"","outcome_status":{"category":"Status update unavailable","date":"2017-10"},"persistent_id":"","id":66277227,"location_subtype":"LU STATION","month":"2017-06"},{"category":"violent-crime","location_type":"Force","location":{"latitude":"51.580381","street":{"id":973655,"name":"On or near Durley Avenue"},"longitude":"-0.380408"},"context":"","outcome_status":{"category":"Status update unavailable","date":"2017-10"},"persistent_id":"a227f3d3b14a27804ac69c83343ccf06d6814e4fee9357d081c5a53f675305de","id":58049651,"location_subtype":"","month":"2017-06"},{"category":"violent-crime","location_type":"Force","location":{"latitude":"51.594585","street":{"id":923725,"name":"On or near Sweetmans Avenue"},"longitude":"-0.387959"},"context":"","outcome_status":{"category":"Investigation complete; no suspect identified","date":"2017-07"},"persistent_id":"e5401e441329ac2f346a1311e5597c3c4e4aa383d26c6409284da756f0fcbe71","id":58051352,"location_subtype":"","month":"2017-06"},{"category":"violent-crime","location_type":"Force","location":{"latitude":"51.591409","street":{"id":979667,"name":"On or near Dickson Fold"},"longitude":"-0.386541"},"context":"","outcome_status":{"category":"Investigation complete; no suspect identified","date":"2017-06"},"persistent_id":"fb6252f786eb266cc287f8499da596d1e4b4689473f2e2c50f71c57c032d2daf","id":58076320,"location_subtype":"","month":"2017-06"},{"category":"violent-crime","location_type":"Force","location":{"latitude":"51.581490","street":{"id":973697,"name":"On or near Cannonbury Avenue"},"longitude":"-0.386489"},"context":"","outcome_status":{"category":"Investigation complete; no suspect identified","date":"2017-06"},"persistent_id":"dda125442bbb00dd636f63678916bfdd973bd66680b7cf63b5e7b083d29ccb42","id":58057773,"location_subtype":"","month":"2017-06"},{"category":"violent-crime","location_type":"Force","location":{"latitude":"51.589530","street":{"id":979624,"name":"On or near Chessington Court"},"longitude":"-0.374164"},"context":"","outcome_status":{"category":"Investigation complete; no suspect identified","date":"2017-11"},"persistent_id":"37d2990e9a3ff78fd4f9c2c72a0eebbb01f8f7f89676c0984b62f2f33ceb32cd","id":58050129,"location_subtype":"","month":"2017-06"},{"category":"violent-crime","location_type":"Force","location":{"latitude":"51.580381","street":{"id":973655,"name":"On or near Durley Avenue"},"longitude":"-0.380408"},"context":"","outcome_status":{"category":"Status update unavailable","date":"2017-10"},"persistent_id":"a227f3d3b14a27804ac69c83343ccf06d6814e4fee9357d081c5a53f675305de","id":58049652,"location_subtype":"","month":"2017-06"},{"category":"violent-crime","location_type":"Force","location":{"latitude":"51.580381","street":{"id":973655,"name":"On or near Durley Avenue"},"longitude":"-0.380408"},"context":"","outcome_status":{"category":"Investigation complete; no suspect identified","date":"2017-07"},"persistent_id":"a227f3d3b14a27804ac69c83343ccf06d6814e4fee9357d081c5a53f675305de","id":58049653,"location_subtype":"","month":"2017-06"},{"category":"violent-crime","location_type":"Force","location":{"latitude":"51.586729","street":{"id":973652,"name":"On or near Hereford Gardens"},"longitude":"-0.381034"},"context":"","outcome_status":{"category":"Status update unavailable","date":"2017-10"},"persistent_id":"0073ae283efcf48c29934d1da5b32a2adfd59cbba25e9943e2e8ad801957b940","id":58028366,"location_subtype":"","month":"2017-06"},{"category":"violent-crime","location_type":"Force","location":{"latitude":"51.577073","street":{"id":973715,"name":"On or near Exchange Walk"},"longitude":"-0.381118"},"context":"","outcome_status":{"category":"Court result unavailable","date":"2018-03"},"persistent_id":"6bf8e1b482ac14a7a04aac728cbed58f195e811c71f05bfe7fe157762948a456","id":58019508,"location_subtype":"","month":"2017-06"},{"category":"violent-crime","location_type":"Force","location":{"latitude":"51.588788","street":{"id":979722,"name":"On or near Grove Avenue"},"longitude":"-0.379070"},"context":"","outcome_status":{"category":"Offender sent to prison","date":"2017-06"},"persistent_id":"a0e09ebd1159f8c8c0caada1c75481f915b060f826915d763008d0ca7dcbf104","id":58025115,"location_subtype":"","month":"2017-06"},{"category":"other-crime","location_type":"Force","location":{"latitude":"51.581294","street":{"id":973659,"name":"On or near Cannon Lane"},"longitude":"-0.381401"},"context":"","outcome_status":{"category":"Investigation complete; no suspect identified","date":"2017-07"},"persistent_id":"0f6ebbe63c49dc30898cd7c1b0d89bd6d40058a3b3a4887c8e3b09b2e68c4470","id":58072922,"location_subtype":"","month":"2017-06"}]