[{"category":"anti-social-behaviour","location_type":"Force","location":{"latitude":"51.588377","street":{"id":978948,"name":"On or near Alexandra Road"},"longitude":"-0.215602"},"context":"","outcome_status":null,"persistent_id":"","id":57997718,"location_subtype":"","month":"2017-06"},{"category":"anti-social-behaviour","location_type":"Force","location":{"latitude":"51.588377","street":{"id":978948,"name":"On or near Alexandra Road"},"longitude":"-0.215602"},"context":"","outcome_status":null,"persistent_id":"","id":57997733,"location_subtype":"","month":"2017-06"},{"category":"anti-social-behaviour","location_type":"Force","location":{"latitude":"51.587135","street":{"id":978952,"name":"On or near Carol Close"},"longitude":"-0.217311"},"context":"","outcome_status":null,"persistent_id":"","id":57997734,"location_subtype":"","month":"2017-06"},{"category":"anti-social-behaviour","location_type":"Force","location":{"latitude":"51.585086","street":{"id":974436,"name":"On or near Golders Rise"},"longitude":"-0.217954"},"context":"","outcome_status":null,"persistent_id":"","id":57997735,"location_subtype":"","month":"2017-06"},{"category":"anti-social-behaviour","location_type":"Force","location":{"latitude":"51.587135","street":{"id":978952,"name":"On or near Carol Close"},"longitude":"-0.217311"},"context":"","outcome_status":null,"persistent_id":"","id":57997738,"location_subtype":"","month":"2017-06"},{"category":"anti-social-behaviour","location_type":"Force","location":{"latitude":"51.587135","street":{"id":978952,"name":"On or near Carol Close"},"longitude":"-0.217311"},"context":"","outcome_status":null,"persistent_id":"","id":57997739,"location_subtype":"","month":"2017-06"},{"category":"anti-social-behaviour","location_type":"Force","location":{"latitude":"51.587135","street":{"id":978952,"name":"On or near Carol Close"},"longitude":"-0.217311"},"context":"","outcome_status":null,"persistent_id":"","id":57997740,"location_subtype":"","month":"2017-06"},{"category":"anti-social-behaviour","location_type":"Force","location":{"latitude":"51.591920","street":{"id":978886,"name":"On or near Westhorpe Gardens"},"longitude":"-0.218524"},"context":"","outcome_status":null,"persistent_id":"","id":57997751,"location_subtype":"","month":"2017-06"},{"category":"anti-social-behaviour","location_type":"Force","location":{"latitude":"51.591920","street":{"id":978886,"name":"On or near Westhorpe Gardens"},"longitude":"-0.218524"},"context":"","outcome_status":null,"persistent_id":"","id":57997752,"location_subtype":"","month":"2017-06"},{"category":"anti-social-behaviour","location_type":"Force","location":{"latitude":"51.590016","street":{"id":978875,"name":"On or near Church Road"},"longitude":"-0.224633"},"context":"","outcome_status":null,"persistent_id":"","id":57997789,"location_subtype":"","month":"2017-06"},{"category":"anti-social-behaviour","location_type":"Force","location":{"latitude":"51.587278","street":{"id":978961,"name":"On or near Parking Area"},"longitude":"-0.219600"},"context":"","outcome_status":null,"persistent_id":"","id":57997755,"location_subtype":"","month":"2017-06"},{"category":"anti-social-behaviour","location_type":"Force","location":{"latitude":"51.590535","street":{"id":978871,"name":"On or near Florence Street"},"longitude":"-0.222649"},"context":"","outcome_status":null,"persistent_id":"","id":57997779,"location_subtype":"","month":"2017-06"},{"category":"anti-social-behaviour","location_type":"Force","location":{"latitude":"51.592176","street":{"id":978947,"name":"On or near Boltmore Close"},"longitude":"-0.212927"},"context":"","outcome_status":null,"persistent_id":"","id":57997704,"location_subtype":"","month":"2017-06"},{"category":"anti-social-behaviour","location_type":"Force","location":{"latitude":"51.588377","street":{"id":978948,"name":"On or near Alexandra Road"},"longitude":"-0.215602"},"context":"","outcome_status":null,"persistent_id":"","id":57997719,"location_subtype":"","month":"2017-06"},{"category":"anti-social-behaviour","location_type":"Force","location":{"latitude":"51.585948","street":{"id":974511,"name":"On or near Supermarket"},"longitude":"-0.219652"},"context":"","outcome_status":null,"persistent_id":"","id":57997759,"location_subtype":"","month":"2017-06"},{"category":"anti-social-behaviour","location_type":"Force","location":{"latitude":"51.587387","street":{"id":978970,"name":"On or near Supermarket"},"longitude":"-0.219683"},"context":"","outcome_status":null,"persistent_id":"","id":57997760,"location_subtype":"","month":"2017-06"},{"category":"anti-social-behaviour","location_type":"Force","location":{"latitude":"51.590016","street":{"id":978875,"name":"On or near Church Road"},"longitude":"-0.224633"},"context":"","outcome_status":null,"persistent_id":"","id":57997788,"location_subtype":"","month":"2017-06"},{"category":"anti-social-behaviour","location_type":"Force","location":{"latitude":"51.587313","street":{"id":978959,"name":"On or near Brampton Grove"},"longitude":"-0.225460"},"context":"","outcome_status":null,"persistent_id":"","id":57997790,"location_subtype":"","month":"2017-06"},{"category":"anti-social-behaviour","location_type":"Force","location":{"latitude":"51.587313","street":{"id":978959,"name":"On or near Brampton Grove"},"longitude":"-0.225460"},"context":"","outcome_status":null,"persistent_id":"","id":57997800,"location_subtype":"","month":"2017-06"},{"category":"anti-social-behaviour","location_type":"Force","location":{"latitude":"51.589118","street":{"id":978879,"name":"On or near Babington Road"},"longitude":"-0.226501"},"context":"","outcome_status":null,"persistent_id":"","id":57997801,"location_subtype":"","month":"2017-06"},{"category":"anti-social-behaviour","location_type":"Force","location":{"latitude":"51.582939","street":{"id":974481,"name":"On or near Pedestrian Subway"},"longitude":"-0.227030"},"context":"","outcome_status":null,"persistent_id":"","id":57997806,"location_subtype":"","month":"2017-06"},{"category":"anti-social-behaviour","location_type":"Force","location":{"latitude":"51.582939","street":{"id":974481,"name":"On or near Pedestrian Subway"},"longitude":"-0.227030"},"context":"","outcome_status":null,"persistent_id":"","id":57997807,"location_subtype":"","month":"2017-06"},{"category":"anti-social-behaviour","location_type":"Force","location":{"latitude":"51.594124","street":{"id":978889,"name":"On or near Sherwood Road"},"longitude":"-0.220979"},"context":"","outcome_status":null,"persistent_id":"","id":57997763,"location_subtype":"","month":"2017-06"},{"category":"anti-social-behaviour","location_type":"Force","location":{"latitude":"51.582939","street":{"id":974481,"name":"On or near Pedestrian Subway"},"longitude":"-0.227030"},"context":"","outcome_status":null,"persistent_id":"","id":57997808,"location_subtype":"","month":"2017-06"},{"category":"anti-social-behaviour","location_type":"Force","location":{"latitude":"51.594386","street":{"id":978857,"name":"On or near Sunny Gardens Road"},"longitude":"-0.225184"},"context":"","outcome_status":null,"persistent_id":"","id":57997809,"location_subtype":"","month":"2017-06"},{"category":"anti-social-behaviour","location_type":"Force","location":{"latitude":"51.589714","street":{"id":978881,"name":"On or near Further\/higher Educational Building"},"longitude":"-0.228441"},"context":"","outcome_status":null,"persistent_id":"","id":57997810,"location_subtype":"","month":"2017-06"},{"category":"anti-social-behaviour","location_type":"Force","location":{"latitude":"51.587387","street":{"id":978970,"name":"On or near Supermarket"},"longitude":"-0.219683"},"context":"","outcome_status":null,"persistent_id":"","id":57997764,"location_subtype":"","month":"2017-06"},{"category":"anti-social-behaviour","location_type":"Force","location":{"latitude":"51.582978","street":{"id":974490,"name":"On or near Vivian Avenue"},"longitude":"-0.227188"},"context":"","outcome_status":null,"persistent_id":"","id":57997811,"location_subtype":"","month":"2017-06"},{"category":"anti-social-behaviour","location_type":"Force","location":{"latitude":"51.588173","street":{"id":979023,"name":"On or near St Josephs Grove"},"longitude":"-0.231201"},"context":"","outcome_status":null,"persistent_id":"","id":57997825,"location_subtype":"","month":"2017-06"},{"category":"anti-social-behaviour","location_type":"Force","location":{"latitude":"51.588173","street":{"id":979023,"name":"On or near St Josephs Grove"},"longitude":"-0.231201"},"context":"","outcome_status":null,"persistent_id":"","id":57997826,"location_subtype":"","month":"2017-06"},{"category":"anti-social-behaviour","location_type":"Force","location":{"latitude":"51.582939","street":{"id":974481,"name":"On or near Pedestrian Subway"},"longitude":"-0.227030"},"context":"","outcome_status":null,"persistent_id":"","id":57997805,"location_subtype":"","month":"2017-06"},{"category":"anti-social-behaviour","location_type":"Force","location":{"latitude":"51.588173","street":{"id":979023,"name":"On or near St Josephs Grove"},"longitude":"-0.231201"},"context":"","outcome_status":null,"persistent_id":"","id":57997827,"location_subtype":"","month":"2017-06"},{"category":"anti-social-behaviour","location_type":"Force","location":{"latitude":"51.587387","street":{"id":978970,"name":"On or near Supermarket"},"longitude":"-0.219683"},"context":"","outcome_status":null,"persistent_id":"","id":57997765,"location_subtype":"","month":"2017-06"},{"category":"anti-social-behaviour","location_type":"Force","location":{"latitude":"51.597466","street":{"id":979016,"name":"On or near Wheatley Close"},"longitude":"-0.235041"},"context":"","outcome_status":null,"persistent_id":"","id":57997832,"location_subtype":"","month":"2017-06"},{"category":"anti-social-behaviour","location_type":"Force","location":{"latitude":"51.587387","street":{"id":978970,"name":"On or near Supermarket"},"longitude":"-0.219683"},"context":"","outcome_status":null,"persistent_id":"","id":57997766,"location_subtype":"","month":"2017-06"},{"category":"anti-social-behaviour","location_type":"Force","location":{"latitude":"51.597466","street":{"id":979016,"name":"On or near Wheatley Close"},"longitude":"-0.235041"},"context":"","outcome_status":null,"persistent_id":"","id":57997833,"location_subtype":"","month":"2017-06"},{"category":"anti-social-behaviour","location_type":"Force","location":{"latitude":"51.587415","street":{"id":978968,"name":"On or near Brampton Lane"},"longitude":"-0.221544"},"context":"","outcome_status":null,"persistent_id":"","id":57997770,"location_subtype":"","month":"2017-06"},{"category":"anti-social-behaviour","location_type":"Force","location":{"latitude":"51.594393","street":{"id":979015,"name":"On or near Wilshaw Close"},"longitude":"-0.234049"},"context":"","outcome_status":null,"persistent_id":"","id":57997834,"location_subtype":"","month":"2017-06"},{"category":"anti-social-behaviour","location_type":"Force","location":{"latitude":"51.594833","street":{"id":979009,"name":"On or near M1"},"longitude":"-0.235750"},"context":"","outcome_status":null,"persistent_id":"","id":57997843,"location_subtype":"","month":"2017-06"},{"category":"anti-social-behaviour","location_type":"Force","location":{"latitude":"51.590288","street":{"id":978888,"name":"On or near Studio Mews"},"longitude":"-0.221230"},"context":"","outcome_status":null,"persistent_id":"","id":57997776,"location_subtype":"","month":"2017-06"},{"category":"anti-social-behaviour","location_type":"Force","location":{"latitude":"51.590288","street":{"id":978888,"name":"On or near Studio Mews"},"longitude":"-0.221230"},"context":"","outcome_status":null,"persistent_id":"","id":57997777,"location_subtype":"","month":"2017-06"},{"category":"bicycle-theft","location_type":"Force","location":{"latitude":"51.582939","street":{"id":974481,"name":"On or near Pedestrian Subway"},"longitude":"-0.227030"},"context":"","outcome_status":{"category":"Investigation complete; no suspect identified","date":"2017-06"},"persistent_id":"f8826e8eb8126f4b794517e72c2af6fe27cadf59ac3ac0b09de462181338f755","id":58039634,"location_subtype":"","month":"2017-06"},{"category":"bicycle-theft","location_type":"Force","location":{"latitude":"51.590815","street":{"id":978870,"name":"On or near Fuller Street"},"longitude":"-0.224573"},"context":"","outcome_status":{"category":"Status update unavailable","date":"2017-10"},"persistent_id":"b810a95e9356a1557fd37bd41c0dd2b1770232a815914cfc0da33c4268cfd875","id":58017270,"location_subtype":"","month":"2017-06"},{"category":"burglary","location_type":"Force","location":{"latitude":"51.586498","street":{"id":978958,"name":"On or near Foster Walk"},"longitude":"-0.222114"},"context":"","outcome_status":{"category":"Offender sent to prison","date":"2017-08"},"persistent_id":"6cc28c6b0b1e0f78904cb7f19964016be494b41f727909e092410ab9c23954e9","id":58071874,"location_subtype":"","month":"2017-06"},{"category":"burglary","location_type":"Force","location":{"latitude":"51.594833","street":{"id":979009,"name":"On or near M1"},"longitude":"-0.235750"},"context":"","outcome_status":{"category":"Status update unavailable","date":"2017-10"},"persistent_id":"591659ae768546b858965064db496d1ce2da8ff55af12682e314f56457035aa7","id":58028418,"location_subtype":"","month":"2017-06"},{"category":"burglary","location_type":"Force","location":{"latitude":"51.594833","street":{"id":979009,"name":"On or near M1"},"longitude":"-0.235750"},"context":"","outcome_status":{"category":"Investigation complete; no suspect identified","date":"2017-07"},"persistent_id":"0015ea75d256e05bdb6e29cb7a259d3e7c9942c0f387e140bc671d46a15e9567","id":58033760,"location_subtype":"","month":"2017-06"},{"category":"burglary","location_type":"Force","location":{"latitude":"51.601192","street":{"id":980773,"name":"On or near Watford Way (barnet By-pass)"},"longitude":"-0.234045"},"context":"","outcome_status":{"category":"Investigation complete; no suspect identified","date":"2018-03"},"persistent_id":"7b3d53a7ebecf55ea7c2a80a6c7d6ce919c2679bb628b28d28c85dab9da44d97","id":58066739,"location_subtype":"","month":"2017-06"},{"category":"burglary","location_type":"Force","location":{"latitude":"51.590815","street":{"id":978870,"name":"On or near Fuller Street"},"longitude":"-0.224573"},"context":"","outcome_status":{"category":"Status update unavailable","date":"2017-10"},"persistent_id":"904caedfbeef63a23b937efbb00bdd3746067e4817778c78c1da1f44f21ee514","id":58037517,"location_subtype":"","month":"2017-06"},{"category":"burglary","location_type":"Force","location":{"latitude":"51.592427","street":{"id":979018,"name":"On or near Watford Way"},"longitude":"-0.234240"},"context":"","outcome_status":{"category":"Status update unavailable","date":"2017-10"},"persistent_id":"d7d45494546e19e6fd1851b80300caa706dd31fdc880ba048a1f5c45f845f880","id":58063646,"location_subtype":"","month":"2017-06"},{"category":"burglary","location_type":"Force","location":{"latitude":"51.598432","street":{"id":979010,"name":"On or near Pedestrian Subway"},"longitude":"-0.233488"},"context":"","outcome_status":{"category":"Defendant found not guilty","date":"2017-09"},"persistent_id":"bbb656aed8ea43820ef877e67fa4a76d42eb0bf5ae1f77224a0bb2aee09b584d","id":58022745,"location_subtype":"","month":"2017-06"},{"category":"burglary","location_type":"Force","location":{"latitude":"51.585131","street":{"id":974489,"name":"On or near Wykeham Road"},"longitude":"-0.225689"},"context":"","outcome_status":{"category":"Status update unavailable","date":"2017-10"},"persistent_id":"aae953e586677f36afb10c1fffc97597650cd399f283b19a21b910958d7b62db","id":58075822,"location_subtype":"","month":"2017-06"},{"category":"burglary","location_type":"Force","location":{"latitude":"51.586921","street":{"id":978954,"name":"On or near Bell Lane"},"longitude":"-0.216251"},"context":"","outcome_status":{"category":"Investigation complete; no suspect identified","date":"2017-07"},"persistent_id":"c08329a5ca7a24cd5649d981de131064274a28c61cb56a91c7a2c8d8d3c8feae","id":58073876,"location_subtype":"","month":"2017-06"},{"category":"burglary","location_type":"Force","location":{"latitude":"51.588945","street":{"id":978946,"name":"On or near Boyne Avenue"},"longitude":"-0.212722"},"context":"","outcome_status":{"category":"Investigation complete; no suspect identified","date":"2017-07"},"persistent_id":"0ca1d92b5a7e846ea04900c8fe2ed88cdd8bec13faaef31aaf6fbc52a601b095","id":58073021,"location_subtype":"","month":"2017-06"},{"category":"burglary","location_type":"Force","location":{"latitude":"51.587965","street":{"id":978900,"name":"On or near Brent Street"},"longitude":"-0.221017"},"context":"","outcome_status":{"category":"Status update unavailable","date":"2017-10"},"persistent_id":"40c13d312ebc112249e21a1098dd6bc5b78e7783d0383e6a752d3170ad96cef1","id":58070850,"location_subtype":"","month":"2017-06"},{"category":"burglary","location_type":"Force","location":{"latitude":"51.586553","street":{"id":979054,"name":"On or near Further\/higher Educational Building"},"longitude":"-0.229935"},"context":"","outcome_status":{"category":"Status update unavailable","date":"2017-10"},"persistent_id":"a90809eafa33a19b0a1fc7d8e4946f6ddb83a5b2997925a9fc1f20c1543b5fd3","id":58018474,"location_subtype":"","month":"2017-06"},{"category":"burglary","location_type":"Force","location":{"latitude":"51.595915","street":{"id":979013,"name":"On or near Pedestrian Subway"},"longitude":"-0.233600"},"context":"","outcome_status":{"category":"Investigation complete; no suspect identified","date":"2017-06"},"persistent_id":"e5785f46f84fbeb2541a3230c9018d9cba17a44383492c264e3d470592b0cf8f","id":58067689,"location_subtype":"","month":"2017-06"},{"category":"burglary","location_type":"Force","location":{"latitude":"51.582939","street":{"id":974481,"name":"On or near Pedestrian Subway"},"longitude":"-0.227030"},"context":"","outcome_status":{"category":"Investigation complete; no suspect identified","date":"2017-08"},"persistent_id":"f07db8da0fedba7a11fc400e80dadff008d4c11405440b6212dd8ec04c08cfb2","id":58065330,"location_subtype":"","month":"2017-06"},{"category":"burglary","location_type":"Force","location":{"latitude":"51.589714","street":{"id":978881,"name":"On or near Further\/higher Educational Building"},"longitude":"-0.228441"},"context":"","outcome_status":{"category":"Investigation complete; no suspect identified","date":"2017-11"},"persistent_id":"3f5714c49923627dad8bddfb21132d03a0d69914f6659a7bcf610203db643c8f","id":58049847,"location_subtype":"","month":"2017-06"},{"category":"burglary","location_type":"Force","location":{"latitude":"51.585656","street":{"id":974492,"name":"On or near Raleigh Close"},"longitude":"-0.224110"},"context":"","outcome_status":{"category":"Investigation complete; no suspect identified","date":"2017-09"},"persistent_id":"8aefcff4d309ffccf35848088a1c8fc0d10b32bc9ce93e5766efd8c159cf9429","id":58041483,"location_subtype":"","month":"2017-06"},{"category":"criminal-damage-arson","location_type":"Force","location":{"latitude":"51.596592","street":{"id":978895,"name":"On or near Great North Way (barnet By-pass)"},"longitude":"-0.219482"},"context":"","outcome_status":{"category":"Investigation complete; no suspect identified","date":"2017-07"},"persistent_id":"d2e14ff6134423bbfc590ecb5380ec0e083cd58fd747a5d7926a40028be3dba5","id":58072004,"location_subtype":"","month":"2017-06"},{"category":"criminal-damage-arson","location_type":"Force","location":{"latitude":"51.593414","street":{"id":979034,"name":"On or near Canberra Close"},"longitude":"-0.234722"},"context":"","outcome_status":{"category":"Status update unavailable","date":"2017-10"},"persistent_id":"a52002205d86760911f3c6252d5490c828228b1f901e2ecce6601845f2e7d76e","id":58078673,"location_subtype":"","month":"2017-06"},{"category":"criminal-damage-arson","location_type":"Force","location":{"latitude":"51.589250","street":{"id":978867,"name":"On or near John's Avenue"},"longitude":"-0.223363"},"context":"","outcome_status":{"category":"Court result unavailable","date":"2017-12"},"persistent_id":"a4c3302ec25a3fc8482dd8c97a7753b0c9e0fcfebd523478830d9895f60dfc68","id":58069016,"location_subtype":"","month":"2017-06"},{"category":"criminal-damage-arson","location_type":"Force","location":{"latitude":"51.600197","street":{"id":980861,"name":"On or near Great North Way (barnet By-pass)"},"longitude":"-0.230098"},"context":"","outcome_status":{"category":"Status update unavailable","date":"2017-10"},"persistent_id":"6113f01171a75c02cb60b933d2200085c021b8145062cd6cdbd32fc4991c94d8","id":58024590,"location_subtype":"","month":"2017-06"},{"category":"drugs","location_type":"Force","location":{"latitude":"51.594833","street":{"id":979009,"name":"On or near M1"},"longitude":"-0.235750"},"context":"","outcome_status":{"category":"Offender fined","date":"2017-06"},"persistent_id":"9be8c3ddc2b690964192365c9912f0b0f78db97552592579de4ffdf69c0e920c","id":58023532,"location_subtype":"","month":"2017-06"},{"category":"drugs","location_type":"Force","location":{"latitude":"51.591000","street":{"id":978876,"name":"On or near Church End"},"longitude":"-0.227294"},"context":"","outcome_status":{"category":"Offender given a caution","date":"2017-06"},"persistent_id":"cf348e9aa9d53133cb25bdbd9cc90c8b90247d5632cca0ba36af2354ed431f8a","id":58078148,"location_subtype":"","month":"2017-06"},{"category":"other-theft","location_type":"Force","location":{"latitude":"51.591591","street":{"id":978874,"name":"On or near Church Terrace"},"longitude":"-0.226520"},"context":"","outcome_status":{"category":"Investigation complete; no suspect identified","date":"2017-06"},"persistent_id":"7948ceef8aa95d97581e796ad98ab80655b382371d8ac11914cf89dd2f2505d1","id":58070779,"location_subtype":"","month":"2017-06"},{"category":"other-theft","location_type":"Force","location":{"latitude":"51.591427","street":{"id":978914,"name":"On or near Tenterden Grove"},"longitude":"-0.217475"},"context":"","outcome_status":{"category":"Investigation complete; no suspect identified","date":"2017-06"},"persistent_id":"cd9111a87f51c462e6aab944721c7f38cddee601503fc00a7a9949a7621c966f","id":58012808,"location_subtype":"","month":"2017-06"},{"category":"other-theft","location_type":"Force","location":{"latitude":"51.590016","street":{"id":978875,"name":"On or near Church Road"},"longitude":"-0.224633"},"context":"","outcome_status":{"category":"Investigation complete; no suspect identified","date":"2017-08"},"persistent_id":"ebf30fdd3d65880b24c21b7279efbd14e40b432593b538585991cb8299738b28","id":58073335,"location_subtype":"","month":"2017-06"},{"category":"other-theft","location_type":"Force","location":{"latitude":"51.587415","street":{"id":978968,"name":"On or near Brampton Lane"},"longitude":"-0.221544"},"context":"","outcome_status":{"category":"Investigation complete; no suspect identified","date":"2017-07"},"persistent_id":"33e8d4ed490a33cb6e1f5a76d0d0c880b1e1d2212e66adfd01242893b1e6eb93","id":58043970,"location_subtype":"","month":"2017-06"},{"category":"other-theft","location_type":"Force","location":{"latitude":"51.589370","street":{"id":978905,"name":"On or near Petrol Station"},"longitude":"-0.220601"},"context":"","outcome_status":{"category":"Investigation complete; no suspect identified","date":"2017-07"},"persistent_id":"ce13e13f516411af2bd374b415eb955e601451d842b782613ca4e3b809edb29f","id":58028384,"location_subtype":"","month":"2017-06"},{"category":"other-theft","location_type":"Force","location":{"latitude":"51.589714","street":{"id":978881,"name":"On or near Further\/higher Educational Building"},"longitude":"-0.228441"},"context":"","outcome_status":{"category":"Status update unavailable","date":"2017-10"},"persistent_id":"de192b21680c30022821049272401cbc78808279301395b16f03e13a7b89085a","id":58017628,"location_subtype":"","month":"2017-06"},{"category":"other-theft","location_type":"Force","location":{"latitude":"51.582107","street":{"id":974412,"name":"On or near Woodburn Close"},"longitude":"-0.213048"},"context":"","outcome_status":{"category":"Status update unavailable","date":"2017-10"},"persistent_id":"f63e8690e973eb6fd57d714964bacf6b3b1dd6f5109911124c2e61a5a8d051de","id":58067948,"location_subtype":"","month":"2017-06"},{"category":"other-theft","location_type":"Force","location":{"latitude":"51.594833","street":{"id":979009,"name":"On or near M1"},"longitude":"-0.235750"},"context":"","outcome_status":{"category":"Status update unavailable","date":"2017-10"},"persistent_id":"3be06f3ef42299c6e7548262435c22d2a54f14c7e7df4e3709d90ca3c06b750b","id":58049255,"location_subtype":"","month":"2017-06"},{"category":"other-theft","location_type":"Force","location":{"latitude":"51.589372","street":{"id":978855,"name":"On or near Wroughton Terrace"},"longitude":"-0.226073"},"context":"","outcome_status":{"category":"Investigation complete; no suspect identified","date":"2017-07"},"persistent_id":"e5471bf46976669403468bca0c192541dc812ecf4125d4100055bafae417fd11","id":58038343,"location_subtype":"","month":"2017-06"},{"category":"other-theft","location_type":"Force","location":{"latitude":"51.590016","street":{"id":978875,"name":"On or near Church Road"},"longitude":"-0.224633"},"context":"","outcome_status":{"category":"Investigation complete; no suspect identified","date":"2017-07"},"persistent_id":"504523bfd613892806959a787b945f8cd27c3b2369952ed2b592e98fc5d0e92e","id":58052790,"location_subtype":"","month":"2017-06"},{"category":"other-theft","location_type":"Force","location":{"latitude":"51.582978","street":{"id":974490,"name":"On or near Vivian Avenue"},"longitude":"-0.227188"},"context":"","outcome_status":{"category":"Investigation complete; no suspect identified","date":"2017-06"},"persistent_id":"22bd069af576192b41d7375922b275254341fc0f254d27d4fe5f7cd037468bf3","id":58013698,"location_subtype":"","month":"2017-06"},{"category":"possession-of-weapons","location_type":"Force","location":{"latitude":"51.589714","street":{"id":978881,"name":"On or near Further\/higher Educational Building"},"longitude":"-0.228441"},"context":"","outcome_status":{"category":"Offender given a caution","date":"2017-06"},"persistent_id":"2d327728c1fdb00831601348f7a9528b5e63c6156452a941d84012d22d112085","id":58064428,"location_subtype":"","month":"2017-06"},{"category":"possession-of-weapons","location_type":"Force","location":{"latitude":"51.582939","street":{"id":974481,"name":"On or near Pedestrian Subway"},"longitude":"-0.227030"},"context":"","outcome_status":{"category":"Investigation complete; no suspect identified","date":"2017-08"},"persistent_id":"16034165e0353ca3e5516c4c407e7512b79999392744abe63fb5328c2dff2071","id":58075174,"location_subtype":"","month":"2017-06"},{"category":"public-order","location_type":"Force","location":{"latitude":"51.587135","street":{"id":978952,"name":"On or near Carol Close"},"longitude":"-0.217311"},"context":"","outcome_status":{"category":"Investigation complete; no suspect identified","date":"2018-01"},"persistent_id":"6c1911d7a9a13becad3b86242e5ed9974796343138e5f213759c5ec9f118521e","id":58030699,"location_subtype":"","month":"2017-06"},{"category":"public-order","location_type":"Force","location":{"latitude":"51.582939","street":{"id":974481,"name":"On or near Pedestrian Subway"},"longitude":"-0.227030"},"context":"","outcome_status":{"category":"Investigation complete; no suspect identified","date":"2017-06"},"persistent_id":"83ba01f70b748642a7005d2f7a0ff34f318d54a076e61369eea5ad5c53fceb12","id":58032457,"location_subtype":"","month":"2017-06"},{"category":"public-order","location_type":"BTP","location":{"latitude":"51.583300","street":{"id":1488696,"name":"Hendon Central (lu Station)"},"longitude":"-0.226465"},"context":"","outcome_status":{"category":"Status update unavailable","date":"2017-10"},"persistent_id":"","id":66276944,"location_subtype":"LU STATION","month":"2017-06"},{"category":"public-order","location_type":"Force","location":{"latitude":"51.588377","street":{"id":978948,"name":"On or near Alexandra Road"},"longitude":"-0.215602"},"context":"","outcome_status":{"category":"Investigation complete; no suspect identified","date":"2018-01"},"persistent_id":"cfea3e15e4db09214219341042bd4e2006c9d86a6b3fbd28b9c630673c73c20d","id":58016315,"location_subtype":"","month":"2017-06"},{"category":"public-order","location_type":"Force","location":{"latitude":"51.587135","street":{"id":978952,"name":"On or near Carol Close"},"longitude":"-0.217311"},"context":"","outcome_status":{"category":"Investigation complete; no suspect identified","date":"2017-07"},"persistent_id":"7b20255160a721ea3e6d71d1b1883ca9e24f9891a78682ba53d79b3fca405ea9","id":58028022,"location_subtype":"","month":"2017-06"},{"category":"public-order","location_type":"Force","location":{"latitude":"51.587313","street":{"id":978959,"name":"On or near Brampton Grove"},"longitude":"-0.225460"},"context":"","outcome_status":{"category":"Investigation complete; no suspect identified","date":"2017-07"},"persistent_id":"40217da95c51621920dd3afc7cd2c63fa438885da2662f00adb5be4d458f51cb","id":58050289,"location_subtype":"","month":"2017-06"},{"category":"public-order","location_type":"Force","location":{"latitude":"51.582978","street":{"id":974490,"name":"On or near Vivian Avenue"},"longitude":"-0.227188"},"context":"","outcome_status":{"category":"Investigation complete; no suspect identified","date":"2017-07"},"persistent_id":"97075f1f3c2d7a41a3cb4af19bbd0f48d07f327c249065cf39ea0cc9631a9be2","id":58044048,"location_subtype":"","month":"2017-06"},{"category":"public-order","location_type":"Force","location":{"latitude":"51.586935","street":{"id":978969,"name":"On or near Belle Vue Road"},"longitude":"-0.219498"},"context":"","outcome_status":{"category":"Status update unavailable","date":"2017-10"},"persistent_id":"65dc9ea146d0b95d59b4c56ca61c4174922c4cba2f15adb90209b36bc2fc31da","id":58034994,"location_subtype":"","month":"2017-06"},{"category":"public-order","location_type":"Force","location":{"latitude":"51.586935","street":{"id":978969,"name":"On or near Belle Vue Road"},"longitude":"-0.219498"},"context":"","outcome_status":{"category":"Status update unavailable","date":"2017-10"},"persistent_id":"65dc9ea146d0b95d59b4c56ca61c4174922c4cba2f15adb90209b36bc2fc31da","id":58034995,"location_subtype":"","month":"2017-06"},{"category":"public-order","location_type":"Force","location":{"latitude":"51.585948","street":{"id":974511,"name":"On or near Supermarket"},"longitude":"-0.219652"},"context":"","outcome_status":{"category":"Investigation complete; no suspect identified","date":"2017-06"},"persistent_id":"06164ac182868eea3f7b4911e2e1a1748f10e3d57c1ca6ca3628a640258b9e7c","id":58019029,"location_subtype":"","month":"2017-06"},{"category":"public-order","location_type":"Force","location":{"latitude":"51.587017","street":{"id":979052,"name":"On or near Burroughs Gardens"},"longitude":"-0.230293"},"context":"","outcome_status":{"category":"Investigation complete; no suspect identified","date":"2017-06"},"persistent_id":"018e6daee4d4f26f187399ef3d8978836408dd56266c23d34c6a313e013993fc","id":58036895,"location_subtype":"","month":"2017-06"},{"category":"public-order","location_type":"Force","location":{"latitude":"51.592829","street":{"id":978890,"name":"On or near Parson Street"},"longitude":"-0.219773"},"context":"","outcome_status":{"category":"Investigation complete; no suspect identified","date":"2017-06"},"persistent_id":"384f7c0e4ac5354ef4b5f0a707a904b2919e6e9becd630086bcad8a084465068","id":58061886,"location_subtype":"","month":"2017-06"},{"category":"public-order","location_type":"Force","location":{"latitude":"51.587278","street":{"id":978961,"name":"On or near Parking Area"},"longitude":"-0.219600"},"context":"","outcome_status":{"category":"Investigation complete; no suspect identified","date":"2017-11"},"persistent_id":"18ea49b4ab8a82cb5c0d4a322c30b688411ac53221fac07b32052d15b4f66155","id":58018800,"location_subtype":"","month":"2017-06"},{"category":"public-order","location_type":"Force","location":{"latitude":"51.587278","street":{"id":978961,"name":"On or near Parking Area"},"longitude":"-0.219600"},"context":"","outcome_status":{"category":"Investigation complete; no suspect identified","date":"2018-02"},"persistent_id":"07af852b48a5675f4726837e7669a02711c0498660ed3e8a24eb67b114042716","id":58028155,"location_subtype":"","month":"2017-06"},{"category":"robbery","location_type":"Force","location":{"latitude":"51.589370","street":{"id":978905,"name":"On or near Petrol Station"},"longitude":"-0.220601"},"context":"","outcome_status":{"category":"Investigation complete; no suspect identified","date":"2017-07"},"persistent_id":"3f12bc7358e8f76bedee3e97f772f14f010ec34df39408e4ee47209aa5c000d7","id":58020222,"location_subtype":"","month":"2017-06"},{"category":"shoplifting","location_type":"Force","location":{"latitude":"51.592427","street":{"id":979018,"name":"On or near Watford Way"},"longitude":"-0.234240"},"context":"","outcome_status":{"category":"Investigation complete; no suspect identified","date":"2017-08"},"persistent_id":"e33580c50dcd067642e57dd6b64a6966797acca302c43403cf0373a318f5d040","id":58058614,"location_subtype":"","month":"2017-06"},{"category":"shoplifting","location_type":"Force","location":{"latitude":"51.587415","street":{"id":978968,"name":"On or near Brampton Lane"},"longitude":"-0.221544"},"context":"","outcome_status":{"category":"Investigation complete; no suspect identified","date":"2017-06"},"persistent_id":"eb847aac3ad5967d5a46484e7cb0dc5b3c53167407a6abe7424aa28fa1f9be6b","id":58023602,"location_subtype":"","month":"2017-06"},{"category":"vehicle-crime","location_type":"Force","location":{"latitude":"51.596555","street":{"id":978858,"name":"On or near Sunningfields Crescent"},"longitude":"-0.226515"},"context":"","outcome_status":{"category":"Status update unavailable","date":"2017-10"},"persistent_id":"44e4ee28bbf4c4e7c8d039934e63883f12b0de020fcd19682f7d14d9a8cf56aa","id":58076399,"location_subtype":"","month":"2017-06"},{"category":"vehicle-crime","location_type":"Force","location":{"latitude":"51.587387","street":{"id":978970,"name":"On or near Supermarket"},"longitude":"-0.219683"},"context":"","outcome_status":{"category":"Investigation complete; no suspect identified","date":"2017-07"},"persistent_id":"34f118f80b8e9bfe9cc3cc693334306cadb9c0762a03a7325810f6b7bbb9a4f9","id":58062448,"location_subtype":"","month":"2017-06"},{"category":"vehicle-crime","location_type":"Force","location":{"latitude":"51.588520","street":{"id":978859,"name":"On or near Somerset Road"},"longitude":"-0.223839"},"context":"","outcome_status":{"category":"Status update unavailable","date":"2017-10"},"persistent_id":"711626212a82aaf663d1d16148727788f166380f08b85e4c842914bb194a35c3","id":58063789,"location_subtype":"","month":"2017-06"},{"category":"vehicle-crime","location_type":"Force","location":{"latitude":"51.587784","street":{"id":978955,"name":"On or near Albert Road"},"longitude":"-0.214427"},"context":"","outcome_status":{"category":"Status update unavailable","date":"2017-10"},"persistent_id":"8b8c228c2da1799598d3658d85c41e9436256d364dd30e6e2498ee176455b019","id":58056459,"location_subtype":"","month":"2017-06"},{"category":"vehicle-crime","location_type":"Force","location":{"latitude":"51.587313","street":{"id":978959,"name":"On or near Brampton Grove"},"longitude":"-0.225460"},"context":"","outcome_status":{"category":"Status update unavailable","date":"2017-10"},"persistent_id":"272f4315d858f8f6ced85355390875f1942de531b6dfa5616b80fc82db3479db","id":58024591,"location_subtype":"","month":"2017-06"},{"category":"vehicle-crime","location_type":"Force","location":{"latitude":"51.596431","street":{"id":978865,"name":"On or near Meadow Drive"},"longitude":"-0.223661"},"context":"","outcome_status":{"category":"Investigation complete; no suspect identified","date":"2017-06"},"persistent_id":"eb3ebcd4acff551e48458fbac4c5eed410a2f6e842fa23e2d87db1e37e034a18","id":58024496,"location_subtype":"","month":"2017-06"},{"category":"vehicle-crime","location_type":"Force","location":{"latitude":"51.586553","street":{"id":979054,"name":"On or near Further\/higher Educational Building"},"longitude":"-0.229935"},"context":"","outcome_status":{"category":"Status update unavailable","date":"2017-10"},"persistent_id":"d4638c3a90299742fc1649208f239865aa32fa3419af2b73ef548eee543e797b","id":58039545,"location_subtype":"","month":"2017-06"},{"category":"vehicle-crime","location_type":"Force","location":{"latitude":"51.599491","street":{"id":980859,"name":"On or near Westside"},"longitude":"-0.232176"},"context":"","outcome_status":{"category":"Investigation complete; no suspect identified","date":"2017-06"},"persistent_id":"73906ec373c8eb64cae18a0ce046499883fcee2fc555adc7c55963dfde41576f","id":58058900,"location_subtype":"","month":"2017-06"},{"category":"vehicle-crime","location_type":"Force","location":{"latitude":"51.584965","street":{"id":974429,"name":"On or near Holmbrook Drive"},"longitude":"-0.212373"},"context":"","outcome_status":{"category":"Investigation complete; no suspect identified","date":"2017-08"},"persistent_id":"8bb2cec8f6c54bd1533ea7daba5ff127d62e73d22c2009b3a9c26655009f5e95","id":58074137,"location_subtype":"","month":"2017-06"},{"category":"vehicle-crime","location_type":"Force","location":{"latitude":"51.586921","street":{"id":978954,"name":"On or near Bell Lane"},"longitude":"-0.216251"},"context":"","outcome_status":{"category":"Status update unavailable","date":"2017-10"},"persistent_id":"4efa17ef0f421be290529988865ea0f044ab60033649ff5fefcb2fd5aa8a61d1","id":58076883,"location_subtype":"","month":"2017-06"},{"category":"vehicle-crime","location_type":"Force","location":{"latitude":"51.590912","street":{"id":978945,"name":"On or near Brinsdale Road"},"longitude":"-0.216095"},"context":"","outcome_status":{"category":"Investigation complete; no suspect identified","date":"2017-06"},"persistent_id":"40e5cbbc0c1f9d60f2f3dee6c5e4acac504cd7635bdb2a27d5bd5eca1e6ecd2b","id":58045430,"location_subtype":"","month":"2017-06"},{"category":"vehicle-crime","location_type":"Force","location":{"latitude":"51.589151","street":{"id":978919,"name":"On or near Second Avenue"},"longitude":"-0.217405"},"context":"","outcome_status":{"category":"Status update unavailable","date":"2017-10"},"persistent_id":"7ce6f5b10823ef5e1013928d9f3a1769923c46ed4fe523f95bbcd7707193005a","id":58060582,"location_subtype":"","month":"2017-06"},{"category":"vehicle-crime","location_type":"Force","location":{"latitude":"51.586481","street":{"id":979043,"name":"On or near Parking Area"},"longitude":"-0.230516"},"context":"","outcome_status":{"category":"Status update unavailable","date":"2017-10"},"persistent_id":"937b6203a9d1b533387c1920b0c680613a3cccbd46d07b0952f6cff3b233561e","id":58079384,"location_subtype":"","month":"2017-06"},{"category":"vehicle-crime","location_type":"Force","location":{"latitude":"51.588956","street":{"id":978866,"name":"On or near Lodge Road"},"longitude":"-0.222335"},"context":"","outcome_status":{"category":"Status update unavailable","date":"2017-10"},"persistent_id":"685e24a875c0db95e2e3ce97616b97d9a9f50707f752e159f1dabf1047a31bf4","id":58019660,"location_subtype":"","month":"2017-06"},{"category":"violent-crime","location_type":"Force","location":{"latitude":"51.587278","street":{"id":978961,"name":"On or near Parking Area"},"longitude":"-0.219600"},"context":"","outcome_status":{"category":"Investigation complete; no suspect identified","date":"2017-08"},"persistent_id":"f8389a4382250c108b1910945ada19f1bcfb355e1e4d3cf834921b15c68d18c1","id":58036578,"location_subtype":"","month":"2017-06"},{"category":"violent-crime","location_type":"Force","location":{"latitude":"51.594833","street":{"id":979009,"name":"On or near M1"},"longitude":"-0.235750"},"context":"","outcome_status":{"category":"Status update unavailable","date":"2017-10"},"persistent_id":"6807e1c7556ac4ba6b1f781127184e9a956a8808051e36a6ff6a11e1412badf1","id":58034448,"location_subtype":"","month":"2017-06"},{"category":"violent-crime","location_type":"Force","location":{"latitude":"51.594833","street":{"id":979009,"name":"On or near M1"},"longitude":"-0.235750"},"context":"","outcome_status":{"category":"Investigation complete; no suspect identified","date":"2017-07"},"persistent_id":"6807e1c7556ac4ba6b1f781127184e9a956a8808051e36a6ff6a11e1412badf1","id":58034449,"location_subtype":"","month":"2017-06"},{"category":"violent-crime","location_type":"Force","location":{"latitude":"51.587387","street":{"id":978970,"name":"On or near Supermarket"},"longitude":"-0.219683"},"context":"","outcome_status":{"category":"Investigation complete; no suspect identified","date":"2017-07"},"persistent_id":"f3c2ca4c5e5e30b74f0ba87d5d909315f3ebd035098771ca4a2e17f8849e5911","id":58036623,"location_subtype":"","month":"2017-06"},{"category":"violent-crime","location_type":"Force","location":{"latitude":"51.598432","street":{"id":979010,"name":"On or near Pedestrian Subway"},"longitude":"-0.233488"},"context":"","outcome_status":{"category":"Investigation complete; no suspect identified","date":"2017-06"},"persistent_id":"ca13c347fe16e5e6adadf9dfad2880c5292360791401ef79909cfb2878971123","id":58032689,"location_subtype":"","month":"2017-06"},{"category":"violent-crime","location_type":"Force","location":{"latitude":"51.590211","street":{"id":978856,"name":"On or near Sunny Place"},"longitude":"-0.223225"},"context":"","outcome_status":{"category":"Investigation complete; no suspect identified","date":"2017-07"},"persistent_id":"ca957cc4bdeae5e47796a1111f403fbc190658d544e0053f0e4b156229b025cd","id":58032148,"location_subtype":"","month":"2017-06"},{"category":"violent-crime","location_type":"Force","location":{"latitude":"51.587784","street":{"id":978955,"name":"On or near Albert Road"},"longitude":"-0.214427"},"context":"","outcome_status":{"category":"Status update unavailable","date":"2017-10"},"persistent_id":"a648e786c18335e04d6ea3aa68b658bf8d752efd1eaecfffd59a9863bd7eba87","id":58030211,"location_subtype":"","month":"2017-06"},{"category":"violent-crime","location_type":"Force","location":{"latitude":"51.587415","street":{"id":978968,"name":"On or near Brampton Lane"},"longitude":"-0.221544"},"context":"","outcome_status":{"category":"Investigation complete; no suspect identified","date":"2017-07"},"persistent_id":"6e89457230955c0d7ce2814d098b2f626f0f257550c4648a68146a6f6659bd3f","id":58029787,"location_subtype":"","month":"2017-06"},{"category":"violent-crime","location_type":"Force","location":{"latitude":"51.587017","street":{"id":979052,"name":"On or near Burroughs Gardens"},"longitude":"-0.230293"},"context":"","outcome_status":{"category":"Investigation complete; no suspect identified","date":"2017-06"},"persistent_id":"11d4f58bc0ed68320336547e7c50c47bf9cc1fe948ecd016e84e82c14f460c43","id":58028996,"location_subtype":"","month":"2017-06"},{"category":"violent-crime","location_type":"Force","location":{"latitude":"51.590659","street":{"id":978862,"name":"On or near Prince Of Wales Close"},"longitude":"-0.226123"},"context":"","outcome_status":{"category":"Investigation complete; no suspect identified","date":"2017-07"},"persistent_id":"72056749829a1802f92428a205800c46d1d0c6ed28149da6c2084933a2df690f","id":58028285,"location_subtype":"","month":"2017-06"},{"category":"violent-crime","location_type":"Force","location":{"latitude":"51.589370","street":{"id":978905,"name":"On or near Petrol Station"},"longitude":"-0.220601"},"context":"","outcome_status":{"category":"Investigation complete; no suspect identified","date":"2017-11"},"persistent_id":"0e4721f1b75d7ba13ea3e2d10ffce5c27c9486c06ebf72e03f697bec866e31fd","id":58027530,"location_subtype":"","month":"2017-06"},{"category":"violent-crime","location_type":"Force","location":{"latitude":"51.585131","street":{"id":974489,"name":"On or near Wykeham Road"},"longitude":"-0.225689"},"context":"","outcome_status":{"category":"Status update unavailable","date":"2017-10"},"persistent_id":"d6f1c701f4738ae547bf702d6da457abf5f7c4b48b3920c428d759059231a4f6","id":58027089,"location_subtype":"","month":"2017-06"},{"category":"violent-crime","location_type":"Force","location":{"latitude":"51.588956","street":{"id":978866,"name":"On or near Lodge Road"},"longitude":"-0.222335"},"context":"","outcome_status":{"category":"Offender given a caution","date":"2017-06"},"persistent_id":"01e30e4b01339553b279f66e00f887139ef0926bdf5f2df80e41dc8f223b84a6","id":58026188,"location_subtype":"","month":"2017-06"},{"category":"violent-crime","location_type":"BTP","location":{"latitude":"51.583300","street":{"id":1488696,"name":"Hendon Central (lu Station)"},"longitude":"-0.226465"},"context":"","outcome_status":{"category":"Status update unavailable","date":"2017-10"},"persistent_id":"","id":66276943,"location_subtype":"LU STATION","month":"2017-06"},{"category":"violent-crime","location_type":"Force","location":{"latitude":"51.594833","street":{"id":979009,"name":"On or near M1"},"longitude":"-0.235750"},"context":"","outcome_status":{"category":"Offender given a caution","date":"2017-08"},"persistent_id":"d96d2579edb0e8e0e568130bcd5c699fad08a65c675a29a09a02a29ccb484a03","id":58023228,"location_subtype":"","month":"2017-06"},{"category":"violent-crime","location_type":"Force","location":{"latitude":"51.587853","street":{"id":978965,"name":"On or near Harmony Way"},"longitude":"-0.219578"},"context":"","outcome_status":{"category":"Offender given a caution","date":"2017-06"},"persistent_id":"24285b1eeecd2008dae4a22ea6454d4d3fa31cf53e6679f8b576f91140045439","id":58037658,"location_subtype":"","month":"2017-06"},{"category":"violent-crime","location_type":"Force","location":{"latitude":"51.586935","street":{"id":978969,"name":"On or near Belle Vue Road"},"longitude":"-0.219498"},"context":"","outcome_status":{"category":"Status update unavailable","date":"2017-10"},"persistent_id":"65dc9ea146d0b95d59b4c56ca61c4174922c4cba2f15adb90209b36bc2fc31da","id":58037971,"location_subtype":"","month":"2017-06"},{"category":"violent-crime","location_type":"Force","location":{"latitude":"51.592590","street":{"id":978916,"name":"On or near Tenterden Drive"},"longitude":"-0.214138"},"context":"","outcome_status":{"category":"Status update unavailable","date":"2017-10"},"persistent_id":"d545ab13284839b111e433249b3bd8b72b889c641c479ae118fe2b088969ee01","id":58015958,"location_subtype":"","month":"2017-06"},{"category":"violent-crime","location_type":"Force","location":{"latitude":"51.592590","street":{"id":978916,"name":"On or near Tenterden Drive"},"longitude":"-0.214138"},"context":"","outcome_status":{"category":"Status update unavailable","date":"2017-10"},"persistent_id":"d545ab13284839b111e433249b3bd8b72b889c641c479ae118fe2b088969ee01","id":58015957,"location_subtype":"","month":"2017-06"},{"category":"violent-crime","location_type":"Force","location":{"latitude":"51.590223","street":{"id":978896,"name":"On or near Glebe Crescent"},"longitude":"-0.220467"},"context":"","outcome_status":{"category":"Status update unavailable","date":"2017-10"},"persistent_id":"deb28e3c6d6d28be919ddf306c0c7d3ae89922c11c33928bd8c10c915198e461","id":58014584,"location_subtype":"","month":"2017-06"},{"category":"violent-crime","location_type":"Force","location":{"latitude":"51.586935","street":{"id":978969,"name":"On or near Belle Vue Road"},"longitude":"-0.219498"},"context":"","outcome_status":{"category":"Status update unavailable","date":"2017-10"},"persistent_id":"65dc9ea146d0b95d59b4c56ca61c4174922c4cba2f15adb90209b36bc2fc31da","id":58037972,"location_subtype":"","month":"2017-06"},{"category":"violent-crime","location_type":"Force","location":{"latitude":"51.585738","street":{"id":974510,"name":"On or near North Street"},"longitude":"-0.221220"},"context":"","outcome_status":{"category":"Investigation complete; no suspect identified","date":"2017-07"},"persistent_id":"d18d68dbc1cb8d87fe66449a3a5bc5e8d47a5fe11026f10ec8d2b0fba480ee9e","id":58052848,"location_subtype":"","month":"2017-06"},{"category":"violent-crime","location_type":"Force","location":{"latitude":"51.594892","street":{"id":978928,"name":"On or near Holders Hill Road"},"longitude":"-0.216473"},"context":"","outcome_status":{"category":"Status update unavailable","date":"2017-10"},"persistent_id":"9d58b454583ee5f6110edffd7d0fbbf8934318d4755d9cc4b35a05397b9ae777","id":58060952,"location_subtype":"","month":"2017-06"},{"category":"violent-crime","location_type":"Force","location":{"latitude":"51.599725","street":{"id":980860,"name":"On or near Hall Lane"},"longitude":"-0.235156"},"context":"","outcome_status":{"category":"Investigation complete; no suspect identified","date":"2017-07"},"persistent_id":"df2bf45286614a733af14755ac3e3295fcf48ece5213d5e2a09598ecd1b410a8","id":58061833,"location_subtype":"","month":"2017-06"},{"category":"violent-crime","location_type":"Force","location":{"latitude":"51.589370","street":{"id":978905,"name":"On or near Petrol Station"},"longitude":"-0.220601"},"context":"","outcome_status":{"category":"Court result unavailable","date":"2018-02"},"persistent_id":"e29b3b8fc3e9757c20edbbf2684a017ce780cfd99036528449bae07307055e6c","id":58062952,"location_subtype":"","month":"2017-06"},{"category":"violent-crime","location_type":"Force","location":{"latitude":"51.587278","street":{"id":978961,"name":"On or near Parking Area"},"longitude":"-0.219600"},"context":"","outcome_status":{"category":"Status update unavailable","date":"2017-10"},"persistent_id":"c0ea793d015133fe39706580b7eb8b5a0517396b50ee99a3da018d20d8c37c08","id":58068130,"location_subtype":"","month":"2017-06"},{"category":"violent-crime","location_type":"Force","location":{"latitude":"51.587415","street":{"id":978968,"name":"On or near Brampton Lane"},"longitude":"-0.221544"},"context":"","outcome_status":{"category":"Investigation complete; no suspect identified","date":"2017-08"},"persistent_id":"54a78980df0a39292c1abec11a500405a400a569261b3ef2873d1d70f1691279","id":58071523,"location_subtype":"","month":"2017-06"},{"category":"violent-crime","location_type":"Force","location":{"latitude":"51.587278","street":{"id":978961,"name":"On or near Parking Area"},"longitude":"-0.219600"},"context":"","outcome_status":{"category":"Investigation complete; no suspect identified","date":"2017-10"},"persistent_id":"b91b85f91ad134774b71685957971e99fce62aece355e6df6c1b14a068e8a0d5","id":58074950,"location_subtype":"","month":"2017-06"},{"category":"violent-crime","location_type":"Force","location":{"latitude":"51.587017","street":{"id":979052,"name":"On or near Burroughs Gardens"},"longitude":"-0.230293"},"context":"","outcome_status":{"category":"Offender given a caution","date":"2017-07"},"persistent_id":"3a4d4a5d329e6efa3c90fd567bb264c156bf8b2ed0d0434b89760b67e403aeba","id":58075270,"location_subtype":"","month":"2017-06"},{"category":"violent-crime","location_type":"Force","location":{"latitude":"51.582939","street":{"id":974481,"name":"On or near Pedestrian Subway"},"longitude":"-0.227030"},"context":"","outcome_status":{"category":"Status update unavailable","date":"2017-10"},"persistent_id":"f91196f3e6caa457e30960fe65e927ae9056f26125a42745232e09c7162cdef5","id":58076265,"location_subtype":"","month":"2017-06"},{"category":"violent-crime","location_type":"Force","location":{"latitude":"51.587278","street":{"id":978961,"name":"On or near Parking Area"},"longitude":"-0.219600"},"context":"","outcome_status":{"category":"Investigation complete; no suspect identified","date":"2017-07"},"persistent_id":"f85432194cc06a42ceb4a7537ee9438f15626dd53d9fab03137cc24d932dced7","id":58076637,"location_subtype":"","month":"2017-06"},{"category":"violent-crime","location_type":"Force","location":{"latitude":"51.587135","street":{"id":978952,"name":"On or near Carol Close"},"longitude":"-0.217311"},"context":"","outcome_status":{"category":"Investigation complete; no suspect identified","date":"2017-06"},"persistent_id":"420ce93f35846540ecfa3df7ba9cf615f6a3ffbc94babaa48c2416b06c0125dc","id":58056780,"location_subtype":"","month":"2017-06"},{"category":"violent-crime","location_type":"Force","location":{"latitude":"51.593771","street":{"id":978971,"name":"On or near Sunningfields Road"},"longitude":"-0.226147"},"context":"","outcome_status":{"category":"Investigation complete; no suspect identified","date":"2017-07"},"persistent_id":"b11b093bbdbaef89648a0b61453327ca54b8848a697f5a9d21570f596ca8170a","id":58071458,"location_subtype":"","month":"2017-06"},{"category":"violent-crime","location_type":"Force","location":{"latitude":"51.596592","street":{"id":978895,"name":"On or near Great North Way (barnet By-pass)"},"longitude":"-0.219482"},"context":"","outcome_status":{"category":"Investigation complete; no suspect identified","date":"2017-07"},"persistent_id":"7e89e4b9c3fd4bc53baa78a98751ca33ede51f273ac9747f6ba09c76d72529d4","id":58046062,"location_subtype":"","month":"2017-06"},{"category":"violent-crime","location_type":"Force","location":{"latitude":"51.586935","street":{"id":978969,"name":"On or near Belle Vue Road"},"longitude":"-0.219498"},"context":"","outcome_status":{"category":"Investigation complete; no suspect identified","date":"2017-11"},"persistent_id":"65dc9ea146d0b95d59b4c56ca61c4174922c4cba2f15adb90209b36bc2fc31da","id":58037973,"location_subtype":"","month":"2017-06"},{"category":"violent-crime","location_type":"Force","location":{"latitude":"51.588806","street":{"id":978936,"name":"On or near Greenbank Crescent"},"longitude":"-0.208353"},"context":"","outcome_status":{"category":"Investigation complete; no suspect identified","date":"2017-06"},"persistent_id":"f96ba337a675d4682e9881932c46b49bf98369e0f05ffbca5923aa091ff43a1f","id":58077627,"location_subtype":"","month":"2017-06"},{"category":"violent-crime","location_type":"Force","location":{"latitude":"51.590223","street":{"id":978896,"name":"On or near Glebe Crescent"},"longitude":"-0.220467"},"context":"","outcome_status":{"category":"Investigation complete; no suspect identified","date":"2017-06"},"persistent_id":"deb28e3c6d6d28be919ddf306c0c7d3ae89922c11c33928bd8c10c915198e461","id":58014585,"location_subtype":"","month":"2017-06"},{"category":"violent-crime","location_type":"Force","location":{"latitude":"51.587784","street":{"id":978955,"name":"On or near Albert Road"},"longitude":"-0.214427"},"context":"","outcome_status":{"category":"Investigation complete; no suspect identified","date":"2017-09"},"persistent_id":"c721e0c5f324e448fa76129220403d90311be583ebf1ce09e5e960a6c603db2f","id":58025182,"location_subtype":"","month":"2017-06"},{"category":"violent-crime","location_type":"Force","location":{"latitude":"51.587135","street":{"id":978952,"name":"On or near Carol Close"},"longitude":"-0.217311"},"context":"","outcome_status":{"category":"Offender fined","date":"2017-11"},"persistent_id":"ac46d144feac9a829d02ebd6fd1cce1efa3b45cc78996a8ed32e43012a8640c3","id":58048878,"location_subtype":"","month":"2017-06"},{"category":"violent-crime","location_type":"Force","location":{"latitude":"51.589118","street":{"id":978879,"name":"On or near Babington Road"},"longitude":"-0.226501"},"context":"","outcome_status":{"category":"Offender sent to prison","date":"2018-02"},"persistent_id":"c852f9cadd63ec52af7b510f950594bbd26b9ef17248f6f57779854958e3bfa4","id":58032088,"location_subtype":"","month":"2017-06"},{"category":"violent-crime","location_type":"Force","location":{"latitude":"51.589274","street":{"id":978861,"name":"On or near Ravenshurst Avenue"},"longitude":"-0.224344"},"context":"","outcome_status":{"category":"Investigation complete; no suspect identified","date":"2017-07"},"persistent_id":"e1f91144fe819c0f6f5ff3d92fe2dfe95e4494eac4fefd902544cd03b7c5e96b","id":58034996,"location_subtype":"","month":"2017-06"},{"category":"other-crime","location_type":"Force","location":{"latitude":"51.589516","street":{"id":979036,"name":"On or near Alwyn Gardens"},"longitude":"-0.234411"},"context":"","outcome_status":{"category":"Investigation complete; no suspect identified","date":"2017-08"},"persistent_id":"0c921b26441d507b7a0d3a6e4670ffe3c5ba3bff19a745a968ea9ace8f325b57","id":58071770,"location_subtype":"","month":"2017-06"}]