[{"category":"anti-social-behaviour","location_type":"Force","location":{"latitude":"51.453335","street":{"id":941961,"name":"On or near Ennersdale Road"},"longitude":"-0.005622"},"context":"","outcome_status":null,"persistent_id":"","id":57999736,"location_subtype":"","month":"2017-06"},{"category":"anti-social-behaviour","location_type":"Force","location":{"latitude":"51.453335","street":{"id":941961,"name":"On or near Ennersdale Road"},"longitude":"-0.005622"},"context":"","outcome_status":null,"persistent_id":"","id":57999737,"location_subtype":"","month":"2017-06"},{"category":"anti-social-behaviour","location_type":"Force","location":{"latitude":"51.461285","street":{"id":941918,"name":"On or near Lee High Road"},"longitude":"-0.006140"},"context":"","outcome_status":null,"persistent_id":"","id":57999744,"location_subtype":"","month":"2017-06"},{"category":"anti-social-behaviour","location_type":"Force","location":{"latitude":"51.461285","street":{"id":941918,"name":"On or near Lee High Road"},"longitude":"-0.006140"},"context":"","outcome_status":null,"persistent_id":"","id":57999745,"location_subtype":"","month":"2017-06"},{"category":"anti-social-behaviour","location_type":"Force","location":{"latitude":"51.461285","street":{"id":941918,"name":"On or near Lee High Road"},"longitude":"-0.006140"},"context":"","outcome_status":null,"persistent_id":"","id":57999746,"location_subtype":"","month":"2017-06"},{"category":"anti-social-behaviour","location_type":"Force","location":{"latitude":"51.463466","street":{"id":941879,"name":"On or near Lewisham High Street"},"longitude":"-0.010680"},"context":"","outcome_status":null,"persistent_id":"","id":57999774,"location_subtype":"","month":"2017-06"},{"category":"anti-social-behaviour","location_type":"Force","location":{"latitude":"51.461285","street":{"id":941918,"name":"On or near Lee High Road"},"longitude":"-0.006140"},"context":"","outcome_status":null,"persistent_id":"","id":57999747,"location_subtype":"","month":"2017-06"},{"category":"anti-social-behaviour","location_type":"Force","location":{"latitude":"51.452625","street":{"id":941949,"name":"On or near St Swithun's Road"},"longitude":"-0.006171"},"context":"","outcome_status":null,"persistent_id":"","id":57999750,"location_subtype":"","month":"2017-06"},{"category":"anti-social-behaviour","location_type":"Force","location":{"latitude":"51.463466","street":{"id":941879,"name":"On or near Lewisham High Street"},"longitude":"-0.010680"},"context":"","outcome_status":null,"persistent_id":"","id":57999772,"location_subtype":"","month":"2017-06"},{"category":"anti-social-behaviour","location_type":"Force","location":{"latitude":"51.452270","street":{"id":941960,"name":"On or near Fordyce Road"},"longitude":"-0.010116"},"context":"","outcome_status":null,"persistent_id":"","id":57999767,"location_subtype":"","month":"2017-06"},{"category":"anti-social-behaviour","location_type":"Force","location":{"latitude":"51.463466","street":{"id":941879,"name":"On or near Lewisham High Street"},"longitude":"-0.010680"},"context":"","outcome_status":null,"persistent_id":"","id":57999771,"location_subtype":"","month":"2017-06"},{"category":"anti-social-behaviour","location_type":"Force","location":{"latitude":"51.451865","street":{"id":941951,"name":"On or near Radford Road"},"longitude":"-0.008522"},"context":"","outcome_status":null,"persistent_id":"","id":57999755,"location_subtype":"","month":"2017-06"},{"category":"anti-social-behaviour","location_type":"Force","location":{"latitude":"51.452270","street":{"id":941960,"name":"On or near Fordyce Road"},"longitude":"-0.010116"},"context":"","outcome_status":null,"persistent_id":"","id":57999761,"location_subtype":"","month":"2017-06"},{"category":"anti-social-behaviour","location_type":"Force","location":{"latitude":"51.457082","street":{"id":941863,"name":"On or near Church Grove"},"longitude":"-0.017075"},"context":"","outcome_status":null,"persistent_id":"","id":57999829,"location_subtype":"","month":"2017-06"},{"category":"anti-social-behaviour","location_type":"Force","location":{"latitude":"51.465444","street":{"id":946814,"name":"On or near Horton Street"},"longitude":"-0.016468"},"context":"","outcome_status":null,"persistent_id":"","id":57999827,"location_subtype":"","month":"2017-06"},{"category":"anti-social-behaviour","location_type":"Force","location":{"latitude":"51.459111","street":{"id":941916,"name":"On or near Limes Grove"},"longitude":"-0.009459"},"context":"","outcome_status":null,"persistent_id":"","id":57999759,"location_subtype":"","month":"2017-06"},{"category":"anti-social-behaviour","location_type":"Force","location":{"latitude":"51.452270","street":{"id":941960,"name":"On or near Fordyce Road"},"longitude":"-0.010116"},"context":"","outcome_status":null,"persistent_id":"","id":57999766,"location_subtype":"","month":"2017-06"},{"category":"anti-social-behaviour","location_type":"Force","location":{"latitude":"51.452625","street":{"id":941949,"name":"On or near St Swithun's Road"},"longitude":"-0.006171"},"context":"","outcome_status":null,"persistent_id":"","id":57999749,"location_subtype":"","month":"2017-06"},{"category":"anti-social-behaviour","location_type":"Force","location":{"latitude":"51.463466","street":{"id":941879,"name":"On or near Lewisham High Street"},"longitude":"-0.010680"},"context":"","outcome_status":null,"persistent_id":"","id":57999781,"location_subtype":"","month":"2017-06"},{"category":"anti-social-behaviour","location_type":"Force","location":{"latitude":"51.465444","street":{"id":946814,"name":"On or near Horton Street"},"longitude":"-0.016468"},"context":"","outcome_status":null,"persistent_id":"","id":57999826,"location_subtype":"","month":"2017-06"},{"category":"anti-social-behaviour","location_type":"Force","location":{"latitude":"51.459111","street":{"id":941916,"name":"On or near Limes Grove"},"longitude":"-0.009459"},"context":"","outcome_status":null,"persistent_id":"","id":57999760,"location_subtype":"","month":"2017-06"},{"category":"anti-social-behaviour","location_type":"Force","location":{"latitude":"51.465444","street":{"id":946814,"name":"On or near Horton Street"},"longitude":"-0.016468"},"context":"","outcome_status":null,"persistent_id":"","id":57999822,"location_subtype":"","month":"2017-06"},{"category":"anti-social-behaviour","location_type":"Force","location":{"latitude":"51.462711","street":{"id":941846,"name":"On or near Pine Tree Way"},"longitude":"-0.015493"},"context":"","outcome_status":null,"persistent_id":"","id":57999817,"location_subtype":"","month":"2017-06"},{"category":"anti-social-behaviour","location_type":"Force","location":{"latitude":"51.462400","street":{"id":941865,"name":"On or near Bankside Avenue"},"longitude":"-0.014614"},"context":"","outcome_status":null,"persistent_id":"","id":57999811,"location_subtype":"","month":"2017-06"},{"category":"anti-social-behaviour","location_type":"Force","location":{"latitude":"51.461437","street":{"id":941912,"name":"On or near Mercia Grove"},"longitude":"-0.009286"},"context":"","outcome_status":null,"persistent_id":"","id":57999757,"location_subtype":"","month":"2017-06"},{"category":"anti-social-behaviour","location_type":"Force","location":{"latitude":"51.453850","street":{"id":941941,"name":"On or near Lewisham Park"},"longitude":"-0.013185"},"context":"","outcome_status":null,"persistent_id":"","id":57999799,"location_subtype":"","month":"2017-06"},{"category":"anti-social-behaviour","location_type":"Force","location":{"latitude":"51.455286","street":{"id":941906,"name":"On or near Ryecroft Road"},"longitude":"-0.008733"},"context":"","outcome_status":null,"persistent_id":"","id":57999754,"location_subtype":"","month":"2017-06"},{"category":"anti-social-behaviour","location_type":"Force","location":{"latitude":"51.465105","street":{"id":946841,"name":"On or near Station Road"},"longitude":"-0.012409"},"context":"","outcome_status":null,"persistent_id":"","id":57999798,"location_subtype":"","month":"2017-06"},{"category":"anti-social-behaviour","location_type":"Force","location":{"latitude":"51.465105","street":{"id":946841,"name":"On or near Station Road"},"longitude":"-0.012409"},"context":"","outcome_status":null,"persistent_id":"","id":57999797,"location_subtype":"","month":"2017-06"},{"category":"anti-social-behaviour","location_type":"Force","location":{"latitude":"51.468015","street":{"id":946761,"name":"On or near Conington Road"},"longitude":"-0.013794"},"context":"","outcome_status":null,"persistent_id":"","id":57999803,"location_subtype":"","month":"2017-06"},{"category":"anti-social-behaviour","location_type":"Force","location":{"latitude":"51.464152","street":{"id":946845,"name":"On or near A20"},"longitude":"-0.011888"},"context":"","outcome_status":null,"persistent_id":"","id":57999785,"location_subtype":"","month":"2017-06"},{"category":"anti-social-behaviour","location_type":"Force","location":{"latitude":"51.468015","street":{"id":946761,"name":"On or near Conington Road"},"longitude":"-0.013794"},"context":"","outcome_status":null,"persistent_id":"","id":57999804,"location_subtype":"","month":"2017-06"},{"category":"anti-social-behaviour","location_type":"Force","location":{"latitude":"51.454800","street":{"id":941882,"name":"On or near Guyscliff Road"},"longitude":"-0.014051"},"context":"","outcome_status":null,"persistent_id":"","id":57999810,"location_subtype":"","month":"2017-06"},{"category":"anti-social-behaviour","location_type":"Force","location":{"latitude":"51.446060","street":{"id":940479,"name":"On or near Ardgowan Road"},"longitude":"-0.000327"},"context":"","outcome_status":null,"persistent_id":"","id":57999710,"location_subtype":"","month":"2017-06"},{"category":"anti-social-behaviour","location_type":"Force","location":{"latitude":"51.459715","street":{"id":941932,"name":"On or near Bonfield Road"},"longitude":"-0.007979"},"context":"","outcome_status":null,"persistent_id":"","id":57999752,"location_subtype":"","month":"2017-06"},{"category":"anti-social-behaviour","location_type":"Force","location":{"latitude":"51.446060","street":{"id":940479,"name":"On or near Ardgowan Road"},"longitude":"-0.000327"},"context":"","outcome_status":null,"persistent_id":"","id":57999714,"location_subtype":"","month":"2017-06"},{"category":"anti-social-behaviour","location_type":"Force","location":{"latitude":"51.463466","street":{"id":941879,"name":"On or near Lewisham High Street"},"longitude":"-0.010680"},"context":"","outcome_status":null,"persistent_id":"","id":57999782,"location_subtype":"","month":"2017-06"},{"category":"anti-social-behaviour","location_type":"Force","location":{"latitude":"51.463466","street":{"id":941879,"name":"On or near Lewisham High Street"},"longitude":"-0.010680"},"context":"","outcome_status":null,"persistent_id":"","id":57999780,"location_subtype":"","month":"2017-06"},{"category":"anti-social-behaviour","location_type":"Force","location":{"latitude":"51.448289","street":{"id":940369,"name":"On or near Greenwich House"},"longitude":"-0.002388"},"context":"","outcome_status":null,"persistent_id":"","id":57999719,"location_subtype":"","month":"2017-06"},{"category":"anti-social-behaviour","location_type":"Force","location":{"latitude":"51.451230","street":{"id":941964,"name":"On or near Ardmere Road"},"longitude":"-0.002922"},"context":"","outcome_status":null,"persistent_id":"","id":57999721,"location_subtype":"","month":"2017-06"},{"category":"anti-social-behaviour","location_type":"Force","location":{"latitude":"51.463466","street":{"id":941879,"name":"On or near Lewisham High Street"},"longitude":"-0.010680"},"context":"","outcome_status":null,"persistent_id":"","id":57999779,"location_subtype":"","month":"2017-06"},{"category":"anti-social-behaviour","location_type":"Force","location":{"latitude":"51.463466","street":{"id":941879,"name":"On or near Lewisham High Street"},"longitude":"-0.010680"},"context":"","outcome_status":null,"persistent_id":"","id":57999778,"location_subtype":"","month":"2017-06"},{"category":"anti-social-behaviour","location_type":"Force","location":{"latitude":"51.451230","street":{"id":941964,"name":"On or near Ardmere Road"},"longitude":"-0.002922"},"context":"","outcome_status":null,"persistent_id":"","id":57999722,"location_subtype":"","month":"2017-06"},{"category":"anti-social-behaviour","location_type":"Force","location":{"latitude":"51.463466","street":{"id":941879,"name":"On or near Lewisham High Street"},"longitude":"-0.010680"},"context":"","outcome_status":null,"persistent_id":"","id":57999777,"location_subtype":"","month":"2017-06"},{"category":"anti-social-behaviour","location_type":"Force","location":{"latitude":"51.448962","street":{"id":940368,"name":"On or near Highfield Close"},"longitude":"-0.004949"},"context":"","outcome_status":null,"persistent_id":"","id":57999729,"location_subtype":"","month":"2017-06"},{"category":"anti-social-behaviour","location_type":"Force","location":{"latitude":"51.463466","street":{"id":941879,"name":"On or near Lewisham High Street"},"longitude":"-0.010680"},"context":"","outcome_status":null,"persistent_id":"","id":57999776,"location_subtype":"","month":"2017-06"},{"category":"anti-social-behaviour","location_type":"Force","location":{"latitude":"51.453335","street":{"id":941961,"name":"On or near Ennersdale Road"},"longitude":"-0.005622"},"context":"","outcome_status":null,"persistent_id":"","id":57999732,"location_subtype":"","month":"2017-06"},{"category":"anti-social-behaviour","location_type":"Force","location":{"latitude":"51.453335","street":{"id":941961,"name":"On or near Ennersdale Road"},"longitude":"-0.005622"},"context":"","outcome_status":null,"persistent_id":"","id":57999733,"location_subtype":"","month":"2017-06"},{"category":"anti-social-behaviour","location_type":"Force","location":{"latitude":"51.463466","street":{"id":941879,"name":"On or near Lewisham High Street"},"longitude":"-0.010680"},"context":"","outcome_status":null,"persistent_id":"","id":57999775,"location_subtype":"","month":"2017-06"},{"category":"anti-social-behaviour","location_type":"Force","location":{"latitude":"51.453335","street":{"id":941961,"name":"On or near Ennersdale Road"},"longitude":"-0.005622"},"context":"","outcome_status":null,"persistent_id":"","id":57999734,"location_subtype":"","month":"2017-06"},{"category":"anti-social-behaviour","location_type":"Force","location":{"latitude":"51.459715","street":{"id":941932,"name":"On or near Bonfield Road"},"longitude":"-0.007979"},"context":"","outcome_status":null,"persistent_id":"","id":57999751,"location_subtype":"","month":"2017-06"},{"category":"anti-social-behaviour","location_type":"Force","location":{"latitude":"51.463466","street":{"id":941879,"name":"On or near Lewisham High Street"},"longitude":"-0.010680"},"context":"","outcome_status":null,"persistent_id":"","id":57999773,"location_subtype":"","month":"2017-06"},{"category":"anti-social-behaviour","location_type":"Force","location":{"latitude":"51.453335","street":{"id":941961,"name":"On or near Ennersdale Road"},"longitude":"-0.005622"},"context":"","outcome_status":null,"persistent_id":"","id":57999735,"location_subtype":"","month":"2017-06"},{"category":"bicycle-theft","location_type":"Force","location":{"latitude":"51.463037","street":{"id":941881,"name":"On or near Lewisham High Street"},"longitude":"-0.010310"},"context":"","outcome_status":{"category":"Investigation complete; no suspect identified","date":"2017-07"},"persistent_id":"df94ac2d7ee01d78917e92569fa67a51d4f4b649f63f31a2bf230890f01514c4","id":58026581,"location_subtype":"","month":"2017-06"},{"category":"bicycle-theft","location_type":"Force","location":{"latitude":"51.460823","street":{"id":941937,"name":"On or near Albion Way"},"longitude":"-0.009111"},"context":"","outcome_status":{"category":"Status update unavailable","date":"2017-10"},"persistent_id":"b74b45bd547c181d5fb5757b48e54b4760d6fefd94293d8e5ddd46671f1b773e","id":58016176,"location_subtype":"","month":"2017-06"},{"category":"bicycle-theft","location_type":"Force","location":{"latitude":"51.453646","street":{"id":941975,"name":"On or near Hospital"},"longitude":"-0.017023"},"context":"","outcome_status":{"category":"Investigation complete; no suspect identified","date":"2017-07"},"persistent_id":"ae803d6fc439c9dba827d918958b8d1a2b0750ff8e297351bcc32fbe6f0f807c","id":58054330,"location_subtype":"","month":"2017-06"},{"category":"bicycle-theft","location_type":"Force","location":{"latitude":"51.461848","street":{"id":941917,"name":"On or near Lewis Grove"},"longitude":"-0.009671"},"context":"","outcome_status":{"category":"Investigation complete; no suspect identified","date":"2017-07"},"persistent_id":"6be67d80d54265c62d7ce353c2fdec2d55269982f286d904325e3d06d63d0e6a","id":58053328,"location_subtype":"","month":"2017-06"},{"category":"bicycle-theft","location_type":"BTP","location":{"latitude":"51.465727","street":{"id":1490157,"name":"Lewisham (station)"},"longitude":"-0.014008"},"context":"","outcome_status":{"category":"Status update unavailable","date":"2017-10"},"persistent_id":"","id":66280219,"location_subtype":"STATION","month":"2017-06"},{"category":"bicycle-theft","location_type":"BTP","location":{"latitude":"51.465727","street":{"id":1490157,"name":"Lewisham (station)"},"longitude":"-0.014008"},"context":"","outcome_status":{"category":"Status update unavailable","date":"2017-10"},"persistent_id":"","id":66280220,"location_subtype":"STATION","month":"2017-06"},{"category":"bicycle-theft","location_type":"Force","location":{"latitude":"51.453646","street":{"id":941975,"name":"On or near Hospital"},"longitude":"-0.017023"},"context":"","outcome_status":{"category":"Investigation complete; no suspect identified","date":"2017-06"},"persistent_id":"16c2a63f981be16cb6902b32057133e59926c66034eb4d62233457056e5092d6","id":58053513,"location_subtype":"","month":"2017-06"},{"category":"bicycle-theft","location_type":"BTP","location":{"latitude":"51.452623","street":{"id":1490143,"name":"Hither Green (station)"},"longitude":"-0.001220"},"context":"","outcome_status":{"category":"Status update unavailable","date":"2017-10"},"persistent_id":"","id":66279416,"location_subtype":"STATION","month":"2017-06"},{"category":"bicycle-theft","location_type":"Force","location":{"latitude":"51.453646","street":{"id":941975,"name":"On or near Hospital"},"longitude":"-0.017023"},"context":"","outcome_status":{"category":"Investigation complete; no suspect identified","date":"2017-06"},"persistent_id":"f73dc4a822816f8ecfd0b46c4901e30427801a1d589a8f2a4617b185a406c8a1","id":58070370,"location_subtype":"","month":"2017-06"},{"category":"burglary","location_type":"Force","location":{"latitude":"51.450476","street":{"id":941950,"name":"On or near Springrice Road"},"longitude":"-0.007244"},"context":"","outcome_status":{"category":"Investigation complete; no suspect identified","date":"2017-06"},"persistent_id":"5b648696e3f141094fa30cd61ef5c78b130d87321452358fcc7d2446cc130c74","id":58025330,"location_subtype":"","month":"2017-06"},{"category":"burglary","location_type":"Force","location":{"latitude":"51.457445","street":{"id":941839,"name":"On or near Wearside Road"},"longitude":"-0.016196"},"context":"","outcome_status":{"category":"Investigation complete; no suspect identified","date":"2017-07"},"persistent_id":"316ffb0fa36a38e9b8e9afda8a52f41ff751d1c6fd3da9dddb50847b97619aac","id":58034250,"location_subtype":"","month":"2017-06"},{"category":"burglary","location_type":"Force","location":{"latitude":"51.468231","street":{"id":946791,"name":"On or near Conington Road"},"longitude":"-0.015411"},"context":"","outcome_status":{"category":"Investigation complete; no suspect identified","date":"2017-07"},"persistent_id":"013aeb18b134f8ce1b1085cd51e81182a1b1b21a7a9b2f2fda85ca2cde2e800e","id":58041886,"location_subtype":"","month":"2017-06"},{"category":"burglary","location_type":"Force","location":{"latitude":"51.463800","street":{"id":941862,"name":"On or near Cornmill Lane"},"longitude":"-0.014452"},"context":"","outcome_status":{"category":"Status update unavailable","date":"2017-10"},"persistent_id":"e03550ee33b0f36ebd75243d3a92370bda7d4fcdbd1f8fc8313cd4f7bf7846af","id":58046930,"location_subtype":"","month":"2017-06"},{"category":"burglary","location_type":"Force","location":{"latitude":"51.461437","street":{"id":941912,"name":"On or near Mercia Grove"},"longitude":"-0.009286"},"context":"","outcome_status":{"category":"Status update unavailable","date":"2017-10"},"persistent_id":"286d438175b2e491d17558605f4c8b894914b2fca8fa7225df95b52ed27714ee","id":58014581,"location_subtype":"","month":"2017-06"},{"category":"burglary","location_type":"Force","location":{"latitude":"51.453228","street":{"id":941959,"name":"On or near Harvard Road"},"longitude":"-0.009369"},"context":"","outcome_status":{"category":"Investigation complete; no suspect identified","date":"2017-08"},"persistent_id":"67ee1bc1301f948c458fbb903603fa3e0b11d51adcc7b0841051024c7f5f50d9","id":58060259,"location_subtype":"","month":"2017-06"},{"category":"burglary","location_type":"Force","location":{"latitude":"51.455497","street":{"id":941851,"name":"On or near Legge Street"},"longitude":"-0.014841"},"context":"","outcome_status":{"category":"Investigation complete; no suspect identified","date":"2017-07"},"persistent_id":"63991a48b1830518bc3bb40f5832ff136dedb17ae53e8214c15c8d5228bb59b2","id":58035620,"location_subtype":"","month":"2017-06"},{"category":"criminal-damage-arson","location_type":"Force","location":{"latitude":"51.460902","street":{"id":941895,"name":"On or near Parking Area"},"longitude":"-0.008503"},"context":"","outcome_status":{"category":"Status update unavailable","date":"2017-10"},"persistent_id":"2b2244f8b92f72d1bfea7be6b26b63a7c745622b1894a4febde43a032fa06c07","id":58035467,"location_subtype":"","month":"2017-06"},{"category":"criminal-damage-arson","location_type":"Force","location":{"latitude":"51.458795","street":{"id":941886,"name":"On or near Clipper Way"},"longitude":"-0.011531"},"context":"","outcome_status":{"category":"Investigation complete; no suspect identified","date":"2017-07"},"persistent_id":"cf82b5c7426abe46258d261911ee49e33d3ec015051903bf00f3ac1728787854","id":58039871,"location_subtype":"","month":"2017-06"},{"category":"criminal-damage-arson","location_type":"Force","location":{"latitude":"51.451206","street":{"id":941940,"name":"On or near Mount Pleasant Road"},"longitude":"-0.012624"},"context":"","outcome_status":{"category":"Status update unavailable","date":"2017-10"},"persistent_id":"4ddddabf78dbbfc40ab62a8431c033902ceff5b68febc49d0ae5fef514be7b59","id":58035085,"location_subtype":"","month":"2017-06"},{"category":"criminal-damage-arson","location_type":"Force","location":{"latitude":"51.463800","street":{"id":941862,"name":"On or near Cornmill Lane"},"longitude":"-0.014452"},"context":"","outcome_status":{"category":"Investigation complete; no suspect identified","date":"2017-07"},"persistent_id":"6d4a5ac18f43b469542d1a132bb6d87b87e02b19147f07eb78b574fb0aaad290","id":58048222,"location_subtype":"","month":"2017-06"},{"category":"criminal-damage-arson","location_type":"Force","location":{"latitude":"51.459928","street":{"id":941921,"name":"On or near Gilmore Road"},"longitude":"-0.006184"},"context":"","outcome_status":{"category":"Investigation complete; no suspect identified","date":"2017-06"},"persistent_id":"228d5de62192b36f41eb9ee1d468e568818e7a103d916fe6b0e62a3e175cf1f9","id":58022446,"location_subtype":"","month":"2017-06"},{"category":"criminal-damage-arson","location_type":"Force","location":{"latitude":"51.460490","street":{"id":941889,"name":"On or near Barnstaple Lane"},"longitude":"-0.010680"},"context":"","outcome_status":{"category":"Investigation complete; no suspect identified","date":"2017-06"},"persistent_id":"fd6da3cae52d67af7710782d3a4406afb1036980570f5a1f1171038fe3bae4ac","id":58057645,"location_subtype":"","month":"2017-06"},{"category":"criminal-damage-arson","location_type":"Force","location":{"latitude":"51.461994","street":{"id":941890,"name":"On or near Shopping Area"},"longitude":"-0.011378"},"context":"","outcome_status":{"category":"Offender given community sentence","date":"2017-07"},"persistent_id":"68f8582ccaf6f5ad2b4bb0865507faa77ef7f29dd8645f107daf187ea7b1a155","id":58034774,"location_subtype":"","month":"2017-06"},{"category":"criminal-damage-arson","location_type":"Force","location":{"latitude":"51.457082","street":{"id":941863,"name":"On or near Church Grove"},"longitude":"-0.017075"},"context":"","outcome_status":{"category":"Status update unavailable","date":"2017-10"},"persistent_id":"b9f218d79c8249c5e66c9b706718698cade57bc79aed04c0e42d002e84f475eb","id":58068219,"location_subtype":"","month":"2017-06"},{"category":"criminal-damage-arson","location_type":"Force","location":{"latitude":"51.453646","street":{"id":941975,"name":"On or near Hospital"},"longitude":"-0.017023"},"context":"","outcome_status":{"category":"Status update unavailable","date":"2017-10"},"persistent_id":"23056bcf95b51b33164ed2ed729dd59d0efddcdc316d3e168f029cce21f0b23c","id":58068299,"location_subtype":"","month":"2017-06"},{"category":"criminal-damage-arson","location_type":"Force","location":{"latitude":"51.463800","street":{"id":941862,"name":"On or near Cornmill Lane"},"longitude":"-0.014452"},"context":"","outcome_status":{"category":"Status update unavailable","date":"2017-10"},"persistent_id":"4b53e9e5e263ae4023f349a546e3c1e8c6e356e6c12457c4ae6b56610e7700c5","id":58067288,"location_subtype":"","month":"2017-06"},{"category":"criminal-damage-arson","location_type":"Force","location":{"latitude":"51.457445","street":{"id":941839,"name":"On or near Wearside Road"},"longitude":"-0.016196"},"context":"","outcome_status":{"category":"Status update unavailable","date":"2017-10"},"persistent_id":"4cbab45e31adf764743759dc4b73c17cbb70a06249deaab95575cf8e4565b301","id":58067225,"location_subtype":"","month":"2017-06"},{"category":"criminal-damage-arson","location_type":"Force","location":{"latitude":"51.453646","street":{"id":941975,"name":"On or near Hospital"},"longitude":"-0.017023"},"context":"","outcome_status":{"category":"Status update unavailable","date":"2017-10"},"persistent_id":"b9f67d779e26f4f32381faa1de051f874b4494f477dbedfdfc7d10d00427792f","id":58061641,"location_subtype":"","month":"2017-06"},{"category":"criminal-damage-arson","location_type":"Force","location":{"latitude":"51.451230","street":{"id":941964,"name":"On or near Ardmere Road"},"longitude":"-0.002922"},"context":"","outcome_status":{"category":"Status update unavailable","date":"2017-10"},"persistent_id":"067759fe2341bec8c718f0bc8332c7bea6fc2360e3e412a60d91fda3bf6cb9ec","id":58057826,"location_subtype":"","month":"2017-06"},{"category":"criminal-damage-arson","location_type":"Force","location":{"latitude":"51.451230","street":{"id":941964,"name":"On or near Ardmere Road"},"longitude":"-0.002922"},"context":"","outcome_status":{"category":"Status update unavailable","date":"2017-10"},"persistent_id":"067759fe2341bec8c718f0bc8332c7bea6fc2360e3e412a60d91fda3bf6cb9ec","id":58057825,"location_subtype":"","month":"2017-06"},{"category":"criminal-damage-arson","location_type":"Force","location":{"latitude":"51.461872","street":{"id":941891,"name":"On or near Shopping Area"},"longitude":"-0.012635"},"context":"","outcome_status":{"category":"Investigation complete; no suspect identified","date":"2017-08"},"persistent_id":"dbe9af73df914b09ed5320c24c86ac90fc0c82364f8f61e849ffb6a48222585c","id":58012385,"location_subtype":"","month":"2017-06"},{"category":"criminal-damage-arson","location_type":"Force","location":{"latitude":"51.453646","street":{"id":941975,"name":"On or near Hospital"},"longitude":"-0.017023"},"context":"","outcome_status":{"category":"Status update unavailable","date":"2017-10"},"persistent_id":"3d12c14ef7546e390d746cdd9d5f066e85a2eead7a41c01e982caf5266c71c1e","id":58054317,"location_subtype":"","month":"2017-06"},{"category":"criminal-damage-arson","location_type":"Force","location":{"latitude":"51.461172","street":{"id":941933,"name":"On or near Blessington Road"},"longitude":"-0.002171"},"context":"","outcome_status":{"category":"Status update unavailable","date":"2017-10"},"persistent_id":"ba723d3c73022ca79efaece72cbd3bd42b9c2dbdeeba693a8a3ce6a3ef9c581b","id":58053149,"location_subtype":"","month":"2017-06"},{"category":"criminal-damage-arson","location_type":"Force","location":{"latitude":"51.447658","street":{"id":940366,"name":"On or near Hospital Way"},"longitude":"-0.005999"},"context":"","outcome_status":{"category":"Status update unavailable","date":"2017-10"},"persistent_id":"011bf297c22045a4fcfb5f8fa7d300f43198e68b32a558417062fa0284f467ed","id":58016429,"location_subtype":"","month":"2017-06"},{"category":"criminal-damage-arson","location_type":"Force","location":{"latitude":"51.460713","street":{"id":941869,"name":"On or near Parking Area"},"longitude":"-0.012743"},"context":"","outcome_status":{"category":"Offender given a caution","date":"2017-08"},"persistent_id":"6db2935f9db8c132c447b65977f43f73e5bf4fd8435e1d3a2e58d5f67d7ebc14","id":58020702,"location_subtype":"","month":"2017-06"},{"category":"criminal-damage-arson","location_type":"Force","location":{"latitude":"51.468015","street":{"id":946761,"name":"On or near Conington Road"},"longitude":"-0.013794"},"context":"","outcome_status":{"category":"Status update unavailable","date":"2017-10"},"persistent_id":"4a92510506ed18cc3df48773b5e6b042ed01b835924c4c244dfc09bc1f9cbd45","id":58043613,"location_subtype":"","month":"2017-06"},{"category":"criminal-damage-arson","location_type":"Force","location":{"latitude":"51.455497","street":{"id":941851,"name":"On or near Legge Street"},"longitude":"-0.014841"},"context":"","outcome_status":{"category":"Offender given penalty notice","date":"2017-07"},"persistent_id":"6e56eef094564a3bf2be9007edcea1f9a6f5495597e2af98fa7e06bf20f23750","id":58023337,"location_subtype":"","month":"2017-06"},{"category":"criminal-damage-arson","location_type":"Force","location":{"latitude":"51.452076","street":{"id":941973,"name":"On or near Petrol Station"},"longitude":"-0.016199"},"context":"","outcome_status":{"category":"Investigation complete; no suspect identified","date":"2017-07"},"persistent_id":"dcded1e203a417406c7ff44b8db5ce3a1865b607d87dd957fc29f647a456d820","id":58043292,"location_subtype":"","month":"2017-06"},{"category":"criminal-damage-arson","location_type":"Force","location":{"latitude":"51.448985","street":{"id":940371,"name":"On or near Desvignes Drive"},"longitude":"-0.003121"},"context":"","outcome_status":{"category":"Status update unavailable","date":"2017-10"},"persistent_id":"7317bb83b692b77523856fed97c4d1b82d4ea2ed35b7606e119fa7aa221df1ea","id":58025264,"location_subtype":"","month":"2017-06"},{"category":"criminal-damage-arson","location_type":"Force","location":{"latitude":"51.456278","street":{"id":941928,"name":"On or near Courthill Road"},"longitude":"-0.009438"},"context":"","outcome_status":{"category":"Status update unavailable","date":"2017-10"},"persistent_id":"e11f857504f6cd31aa50bfa15ec894bc7a7ee4a5a6666c057bcd39000fdc9dab","id":58026278,"location_subtype":"","month":"2017-06"},{"category":"drugs","location_type":"Force","location":{"latitude":"51.458795","street":{"id":941886,"name":"On or near Clipper Way"},"longitude":"-0.011531"},"context":"","outcome_status":{"category":"Offender given a drugs possession warning","date":"2017-06"},"persistent_id":"348f60662712ce156da6e923e53423b8d3bf2c8f83aeca45b94c1390151387f8","id":58050137,"location_subtype":"","month":"2017-06"},{"category":"drugs","location_type":"Force","location":{"latitude":"51.450961","street":{"id":941967,"name":"On or near Roxley Road"},"longitude":"-0.016218"},"context":"","outcome_status":{"category":"Offender given a drugs possession warning","date":"2017-06"},"persistent_id":"0b62cdefbfb69f8c9ffec3abc73652e1fd368244cd35cc701285ab32b6e86cea","id":58049328,"location_subtype":"","month":"2017-06"},{"category":"drugs","location_type":"Force","location":{"latitude":"51.455286","street":{"id":941906,"name":"On or near Ryecroft Road"},"longitude":"-0.008733"},"context":"","outcome_status":{"category":"Offender fined","date":"2017-08"},"persistent_id":"c388655ef92d847a4ae1b7e7d38fba8b205762a7b67b55e720410d68a7886159","id":58021604,"location_subtype":"","month":"2017-06"},{"category":"drugs","location_type":"Force","location":{"latitude":"51.457445","street":{"id":941839,"name":"On or near Wearside Road"},"longitude":"-0.016196"},"context":"","outcome_status":{"category":"Offender given a drugs possession warning","date":"2017-06"},"persistent_id":"0d8f2c52cb94671d1543c411df6e94a927f3a6147b745a287061536ae20d9fbc","id":58014149,"location_subtype":"","month":"2017-06"},{"category":"drugs","location_type":"Force","location":{"latitude":"51.450961","street":{"id":941967,"name":"On or near Roxley Road"},"longitude":"-0.016218"},"context":"","outcome_status":{"category":"Offender given a drugs possession warning","date":"2017-06"},"persistent_id":"ca05ceed40a7b005271481c66e1dddfc3dd46a666139c36fd27609647f14b894","id":58076339,"location_subtype":"","month":"2017-06"},{"category":"drugs","location_type":"BTP","location":{"latitude":"51.452623","street":{"id":1490143,"name":"Hither Green (station)"},"longitude":"-0.001220"},"context":"","outcome_status":{"category":"Status update unavailable","date":"2017-10"},"persistent_id":"","id":66279414,"location_subtype":"STATION","month":"2017-06"},{"category":"other-theft","location_type":"Force","location":{"latitude":"51.462467","street":{"id":941893,"name":"On or near Shopping Area"},"longitude":"-0.012235"},"context":"","outcome_status":{"category":"Investigation complete; no suspect identified","date":"2017-06"},"persistent_id":"49c99df7c505522c0cb78dd03a5cc58698d03ac1befb9d384afaef06bbe4eb79","id":58020896,"location_subtype":"","month":"2017-06"},{"category":"other-theft","location_type":"Force","location":{"latitude":"51.453646","street":{"id":941975,"name":"On or near Hospital"},"longitude":"-0.017023"},"context":"","outcome_status":{"category":"Investigation complete; no suspect identified","date":"2017-07"},"persistent_id":"7ddfb96880a8a87dce691f6800ec093ae975291969f1987b5a38d4f2c9018290","id":58021861,"location_subtype":"","month":"2017-06"},{"category":"other-theft","location_type":"Force","location":{"latitude":"51.453646","street":{"id":941975,"name":"On or near Hospital"},"longitude":"-0.017023"},"context":"","outcome_status":{"category":"Investigation complete; no suspect identified","date":"2017-06"},"persistent_id":"0fc9e1a46e931567e7597a5041f9b2ebebf800df163860f90a48724b09318311","id":58040571,"location_subtype":"","month":"2017-06"},{"category":"other-theft","location_type":"Force","location":{"latitude":"51.452076","street":{"id":941973,"name":"On or near Petrol Station"},"longitude":"-0.016199"},"context":"","outcome_status":{"category":"Investigation complete; no suspect identified","date":"2017-07"},"persistent_id":"b825fadfcc401304a2fcd33d54b64b3c1b2249a4474c198bf62ec802d2075498","id":58055954,"location_subtype":"","month":"2017-06"},{"category":"other-theft","location_type":"Force","location":{"latitude":"51.452625","street":{"id":941949,"name":"On or near St Swithun's Road"},"longitude":"-0.006171"},"context":"","outcome_status":{"category":"Investigation complete; no suspect identified","date":"2017-06"},"persistent_id":"175636c9fc8b27d856ad007f2c90b08d698f5469b933fe46a3b4aef7b910cbae","id":58046105,"location_subtype":"","month":"2017-06"},{"category":"other-theft","location_type":"Force","location":{"latitude":"51.466797","street":{"id":946843,"name":"On or near Lewisham Road"},"longitude":"-0.011414"},"context":"","outcome_status":{"category":"Court case unable to proceed","date":"2017-08"},"persistent_id":"a4a7f18ddd2c36ff369331f2669804ec8e3d1dbb9a7f4d3ea6fb9cd9bf21856b","id":58044123,"location_subtype":"","month":"2017-06"},{"category":"other-theft","location_type":"BTP","location":{"latitude":"51.465727","street":{"id":1490157,"name":"Lewisham (station)"},"longitude":"-0.014008"},"context":"","outcome_status":{"category":"Status update unavailable","date":"2017-10"},"persistent_id":"","id":66280212,"location_subtype":"STATION","month":"2017-06"},{"category":"other-theft","location_type":"BTP","location":{"latitude":"51.465727","street":{"id":1490157,"name":"Lewisham (station)"},"longitude":"-0.014008"},"context":"","outcome_status":{"category":"Status update unavailable","date":"2017-10"},"persistent_id":"","id":66280211,"location_subtype":"STATION","month":"2017-06"},{"category":"other-theft","location_type":"Force","location":{"latitude":"51.458795","street":{"id":941886,"name":"On or near Clipper Way"},"longitude":"-0.011531"},"context":"","outcome_status":{"category":"Investigation complete; no suspect identified","date":"2017-08"},"persistent_id":"9ce7f66c34963d2d34461afdb09a6f847a9cd81943c9fb5e3ba65fee668de2ec","id":58011739,"location_subtype":"","month":"2017-06"},{"category":"other-theft","location_type":"Force","location":{"latitude":"51.452076","street":{"id":941973,"name":"On or near Petrol Station"},"longitude":"-0.016199"},"context":"","outcome_status":{"category":"Investigation complete; no suspect identified","date":"2017-07"},"persistent_id":"d46abc46afea02d3cc5d0a219a9d48206f1b38178c3b8fd193049571dde588dc","id":58040084,"location_subtype":"","month":"2017-06"},{"category":"other-theft","location_type":"Force","location":{"latitude":"51.463253","street":{"id":941859,"name":"On or near Elmira Street"},"longitude":"-0.015613"},"context":"","outcome_status":{"category":"Investigation complete; no suspect identified","date":"2017-07"},"persistent_id":"a6eec267471cf2233d615159551122a344d3e888706b688c970754f8a6949ffa","id":58012665,"location_subtype":"","month":"2017-06"},{"category":"other-theft","location_type":"Force","location":{"latitude":"51.461994","street":{"id":941890,"name":"On or near Shopping Area"},"longitude":"-0.011378"},"context":"","outcome_status":{"category":"Investigation complete; no suspect identified","date":"2017-06"},"persistent_id":"fe65e75b542e93fd95fd736a2e88eed909af621aa305e25a4b32d6410f4427c0","id":58026867,"location_subtype":"","month":"2017-06"},{"category":"other-theft","location_type":"Force","location":{"latitude":"51.461994","street":{"id":941890,"name":"On or near Shopping Area"},"longitude":"-0.011378"},"context":"","outcome_status":{"category":"Investigation complete; no suspect identified","date":"2017-07"},"persistent_id":"3ecf0f8dbd06ab74868ab17db256d3b5200805a05c191347a6c4b7727b9bb6a8","id":58013592,"location_subtype":"","month":"2017-06"},{"category":"other-theft","location_type":"Force","location":{"latitude":"51.451066","street":{"id":941965,"name":"On or near Supermarket"},"longitude":"-0.006513"},"context":"","outcome_status":{"category":"Status update unavailable","date":"2017-10"},"persistent_id":"4d118d183696bd24221ef070c677d163caf3f89d60e56d7d3acf3b1152989f02","id":58053666,"location_subtype":"","month":"2017-06"},{"category":"other-theft","location_type":"Force","location":{"latitude":"51.457692","street":{"id":941838,"name":"On or near Whitburn Road"},"longitude":"-0.014890"},"context":"","outcome_status":{"category":"Investigation complete; no suspect identified","date":"2017-07"},"persistent_id":"03507dd8980f483759ab803e9439d1e3ff5de9dd640a36ebd3fab8a37c3838aa","id":58013719,"location_subtype":"","month":"2017-06"},{"category":"other-theft","location_type":"Force","location":{"latitude":"51.461872","street":{"id":941891,"name":"On or near Shopping Area"},"longitude":"-0.012635"},"context":"","outcome_status":{"category":"Investigation complete; no suspect identified","date":"2017-09"},"persistent_id":"f8cc1662d5521bb5ff125def6f918d9fbcd01875b4b4cd832e7e8249d4138295","id":58053811,"location_subtype":"","month":"2017-06"},{"category":"other-theft","location_type":"BTP","location":{"latitude":"51.465727","street":{"id":1490157,"name":"Lewisham (station)"},"longitude":"-0.014008"},"context":"","outcome_status":{"category":"Status update unavailable","date":"2017-10"},"persistent_id":"","id":66280210,"location_subtype":"STATION","month":"2017-06"},{"category":"other-theft","location_type":"Force","location":{"latitude":"51.463800","street":{"id":941862,"name":"On or near Cornmill Lane"},"longitude":"-0.014452"},"context":"","outcome_status":{"category":"Investigation complete; no suspect identified","date":"2017-06"},"persistent_id":"21bc04c8a10e727ff01b834c206b64fbd8791f3aceb2bffa44eeb2a1dcdbdda2","id":58015474,"location_subtype":"","month":"2017-06"},{"category":"other-theft","location_type":"Force","location":{"latitude":"51.460327","street":{"id":941880,"name":"On or near Lewisham High Street"},"longitude":"-0.011148"},"context":"","outcome_status":{"category":"Investigation complete; no suspect identified","date":"2017-07"},"persistent_id":"d4f460b9b41e1cc295b3a06677e07cf25ebb470e19cb20d35acafd52c68b5a31","id":58052963,"location_subtype":"","month":"2017-06"},{"category":"other-theft","location_type":"Force","location":{"latitude":"51.451066","street":{"id":941965,"name":"On or near Supermarket"},"longitude":"-0.006513"},"context":"","outcome_status":{"category":"Investigation complete; no suspect identified","date":"2017-06"},"persistent_id":"a28b923564871f26a3931b53c44d43b59149bd23c982b301b133b432df2c213b","id":58052337,"location_subtype":"","month":"2017-06"},{"category":"other-theft","location_type":"Force","location":{"latitude":"51.459111","street":{"id":941916,"name":"On or near Limes Grove"},"longitude":"-0.009459"},"context":"","outcome_status":{"category":"Status update unavailable","date":"2017-10"},"persistent_id":"d2953f9d96d93f0792f438add2f78ac405435fc4dd67e496d7f154149990d119","id":58052325,"location_subtype":"","month":"2017-06"},{"category":"other-theft","location_type":"Force","location":{"latitude":"51.455497","street":{"id":941851,"name":"On or near Legge Street"},"longitude":"-0.014841"},"context":"","outcome_status":{"category":"Investigation complete; no suspect identified","date":"2017-06"},"persistent_id":"f8fbe4cda40507228f3f59d3a166a4d1a42fb697dbccc79fe219fe5a482a4ea3","id":58027175,"location_subtype":"","month":"2017-06"},{"category":"other-theft","location_type":"Force","location":{"latitude":"51.450961","street":{"id":941943,"name":"On or near Aldworth Grove"},"longitude":"-0.014592"},"context":"","outcome_status":{"category":"Status update unavailable","date":"2017-10"},"persistent_id":"097e4b97bac8f16c2b7cf90b6e9f7202e7fb92ffdcd5f00e001ec7908ba8a0f7","id":58052202,"location_subtype":"","month":"2017-06"},{"category":"other-theft","location_type":"Force","location":{"latitude":"51.457692","street":{"id":941838,"name":"On or near Whitburn Road"},"longitude":"-0.014890"},"context":"","outcome_status":{"category":"Investigation complete; no suspect identified","date":"2017-07"},"persistent_id":"2f6fc9aea7634303e5372fd7f32b3a93ec6d9a0bd0cdbf4881d027cabe52a468","id":58051996,"location_subtype":"","month":"2017-06"},{"category":"other-theft","location_type":"Force","location":{"latitude":"51.452076","street":{"id":941973,"name":"On or near Petrol Station"},"longitude":"-0.016199"},"context":"","outcome_status":{"category":"Investigation complete; no suspect identified","date":"2017-07"},"persistent_id":"6bc8a5d608348f41be1482680d215202cf7d9943168b197af1a37e5d60c8b42b","id":58051500,"location_subtype":"","month":"2017-06"},{"category":"other-theft","location_type":"BTP","location":{"latitude":"51.465727","street":{"id":1490157,"name":"Lewisham (station)"},"longitude":"-0.014008"},"context":"","outcome_status":{"category":"Status update unavailable","date":"2017-10"},"persistent_id":"","id":66280209,"location_subtype":"STATION","month":"2017-06"},{"category":"other-theft","location_type":"Force","location":{"latitude":"51.463800","street":{"id":941862,"name":"On or near Cornmill Lane"},"longitude":"-0.014452"},"context":"","outcome_status":{"category":"Investigation complete; no suspect identified","date":"2017-06"},"persistent_id":"df54adf526553b3a1c2f1bb4966b66f91e6008986fe5def97b5dd8847a2c0a37","id":58040576,"location_subtype":"","month":"2017-06"},{"category":"other-theft","location_type":"Force","location":{"latitude":"51.461091","street":{"id":941892,"name":"On or near Shopping Area"},"longitude":"-0.011676"},"context":"","outcome_status":{"category":"Investigation complete; no suspect identified","date":"2017-08"},"persistent_id":"c933abddf0e148ecfa42b7e63204acf58251770d806888da8b1666e51c620f61","id":58048679,"location_subtype":"","month":"2017-06"},{"category":"other-theft","location_type":"Force","location":{"latitude":"51.453646","street":{"id":941975,"name":"On or near Hospital"},"longitude":"-0.017023"},"context":"","outcome_status":{"category":"Investigation complete; no suspect identified","date":"2017-07"},"persistent_id":"0058a5c2c56301e09374900fa08deb9bf5e4f9f0805464a1d0793cc916b95c28","id":58048360,"location_subtype":"","month":"2017-06"},{"category":"other-theft","location_type":"Force","location":{"latitude":"51.453646","street":{"id":941975,"name":"On or near Hospital"},"longitude":"-0.017023"},"context":"","outcome_status":{"category":"Status update unavailable","date":"2017-10"},"persistent_id":"0b32f83d7f522589b4469d597cadf8212b61c5b4af134b1e93a75b98997d3335","id":58047500,"location_subtype":"","month":"2017-06"},{"category":"other-theft","location_type":"Force","location":{"latitude":"51.462467","street":{"id":941893,"name":"On or near Shopping Area"},"longitude":"-0.012235"},"context":"","outcome_status":{"category":"Investigation complete; no suspect identified","date":"2017-06"},"persistent_id":"80fc0d3df3cd6e095218768bb40a32892b6af0a24847e579ecdd70d1562c9180","id":58027967,"location_subtype":"","month":"2017-06"},{"category":"other-theft","location_type":"Force","location":{"latitude":"51.463800","street":{"id":941862,"name":"On or near Cornmill Lane"},"longitude":"-0.014452"},"context":"","outcome_status":{"category":"Status update unavailable","date":"2017-10"},"persistent_id":"d3f775fc530f9ff9ba3360d7575f8691177f4f86b3beb0977a85e68deb848580","id":58036188,"location_subtype":"","month":"2017-06"},{"category":"other-theft","location_type":"Force","location":{"latitude":"51.463800","street":{"id":941862,"name":"On or near Cornmill Lane"},"longitude":"-0.014452"},"context":"","outcome_status":{"category":"Investigation complete; no suspect identified","date":"2017-08"},"persistent_id":"fa2b6bdc6483e535c85073747498d30f7f99aeb0b51163c389e5c3024158f61e","id":58020724,"location_subtype":"","month":"2017-06"},{"category":"other-theft","location_type":"Force","location":{"latitude":"51.466797","street":{"id":946843,"name":"On or near Lewisham Road"},"longitude":"-0.011414"},"context":"","outcome_status":{"category":"Status update unavailable","date":"2017-10"},"persistent_id":"36e5bc3c221b5b6e6b5f8eeb88c6046f7af07cbc61daeac1f87302a9ceef1cc6","id":58021280,"location_subtype":"","month":"2017-06"},{"category":"other-theft","location_type":"Force","location":{"latitude":"51.450476","street":{"id":941950,"name":"On or near Springrice Road"},"longitude":"-0.007244"},"context":"","outcome_status":{"category":"Status update unavailable","date":"2017-10"},"persistent_id":"0c293956a07cec5c555c2c7841fcc3f2438289ca6e703c8cf612d461a3e0111d","id":58021310,"location_subtype":"","month":"2017-06"},{"category":"other-theft","location_type":"Force","location":{"latitude":"51.463800","street":{"id":941862,"name":"On or near Cornmill Lane"},"longitude":"-0.014452"},"context":"","outcome_status":{"category":"Investigation complete; no suspect identified","date":"2017-06"},"persistent_id":"43be1d21ce757032870d3b29595d891e0c1052f3463f5be98b7d229a4aaa0e09","id":58021600,"location_subtype":"","month":"2017-06"},{"category":"other-theft","location_type":"Force","location":{"latitude":"51.460327","street":{"id":941880,"name":"On or near Lewisham High Street"},"longitude":"-0.011148"},"context":"","outcome_status":{"category":"Status update unavailable","date":"2017-10"},"persistent_id":"e4aa16ae0894617e746da95353a3813e6cf96b9d96962605b9cd442a5654c772","id":58044987,"location_subtype":"","month":"2017-06"},{"category":"other-theft","location_type":"Force","location":{"latitude":"51.461872","street":{"id":941891,"name":"On or near Shopping Area"},"longitude":"-0.012635"},"context":"","outcome_status":{"category":"Status update unavailable","date":"2017-10"},"persistent_id":"0757801aaf809e8ef8be0995c29398c590576073b2a8d1f2a97cec2213546c37","id":58030090,"location_subtype":"","month":"2017-06"},{"category":"other-theft","location_type":"Force","location":{"latitude":"51.448985","street":{"id":940371,"name":"On or near Desvignes Drive"},"longitude":"-0.003121"},"context":"","outcome_status":{"category":"Status update unavailable","date":"2017-10"},"persistent_id":"f778b34fa4efefce602747bfa07779a6e80078157029337f4c685c44c5dd6a37","id":58031286,"location_subtype":"","month":"2017-06"},{"category":"other-theft","location_type":"Force","location":{"latitude":"51.455196","street":{"id":941887,"name":"On or near Campshill Road"},"longitude":"-0.011414"},"context":"","outcome_status":{"category":"Investigation complete; no suspect identified","date":"2017-07"},"persistent_id":"5808de69a817035e6f67950d28b54d63539bc7bd7495a6e1d5bba893f38363b8","id":58032137,"location_subtype":"","month":"2017-06"},{"category":"other-theft","location_type":"Force","location":{"latitude":"51.459928","street":{"id":941921,"name":"On or near Gilmore Road"},"longitude":"-0.006184"},"context":"","outcome_status":{"category":"Investigation complete; no suspect identified","date":"2017-06"},"persistent_id":"6ce5061d59866ea7af3343edd48887863ed9ce150de0df55925fbf892e29740e","id":58035179,"location_subtype":"","month":"2017-06"},{"category":"other-theft","location_type":"Force","location":{"latitude":"51.468231","street":{"id":946791,"name":"On or near Conington Road"},"longitude":"-0.015411"},"context":"","outcome_status":{"category":"Investigation complete; no suspect identified","date":"2017-06"},"persistent_id":"d0cafa8ab9b8f5b9f8dae7720d2a4060d2631e21fde592f0efe83b0db0c72e85","id":58065642,"location_subtype":"","month":"2017-06"},{"category":"other-theft","location_type":"Force","location":{"latitude":"51.457692","street":{"id":941838,"name":"On or near Whitburn Road"},"longitude":"-0.014890"},"context":"","outcome_status":{"category":"Investigation complete; no suspect identified","date":"2017-06"},"persistent_id":"606056614b606c265dae34680d30045aa161b5e8dee5bb2941ec230afa47d579","id":58042471,"location_subtype":"","month":"2017-06"},{"category":"other-theft","location_type":"Force","location":{"latitude":"51.461091","street":{"id":941892,"name":"On or near Shopping Area"},"longitude":"-0.011676"},"context":"","outcome_status":{"category":"Status update unavailable","date":"2017-10"},"persistent_id":"8e936b79d337f6716f12c68caafb66259e91e7f514f3d4ab4d0dec1a13d0d695","id":58065748,"location_subtype":"","month":"2017-06"},{"category":"other-theft","location_type":"Force","location":{"latitude":"51.463800","street":{"id":941862,"name":"On or near Cornmill Lane"},"longitude":"-0.014452"},"context":"","outcome_status":{"category":"Investigation complete; no suspect identified","date":"2017-06"},"persistent_id":"b09f7746d43d1d590ae7f105e04789b909258228fd12c44fd44d3c693d60f6b2","id":58072099,"location_subtype":"","month":"2017-06"},{"category":"other-theft","location_type":"Force","location":{"latitude":"51.463800","street":{"id":941862,"name":"On or near Cornmill Lane"},"longitude":"-0.014452"},"context":"","outcome_status":{"category":"Investigation complete; no suspect identified","date":"2017-07"},"persistent_id":"73ffd98118ee85aa7bf2cbd61c408955e1935eea84f2814748a6ac04e563540e","id":58068834,"location_subtype":"","month":"2017-06"},{"category":"other-theft","location_type":"Force","location":{"latitude":"51.454800","street":{"id":941882,"name":"On or near Guyscliff Road"},"longitude":"-0.014051"},"context":"","outcome_status":{"category":"Status update unavailable","date":"2017-10"},"persistent_id":"87d910cdafff5cc32aca7e9d89ebed606a9dc6b672a26ce1c6f292d35a69d22d","id":58060327,"location_subtype":"","month":"2017-06"},{"category":"other-theft","location_type":"Force","location":{"latitude":"51.461091","street":{"id":941892,"name":"On or near Shopping Area"},"longitude":"-0.011676"},"context":"","outcome_status":{"category":"Investigation complete; no suspect identified","date":"2017-09"},"persistent_id":"aacb18835f3094947865b578fd38b9d7429ebd459d656ffb87427c29204f4f17","id":58058976,"location_subtype":"","month":"2017-06"},{"category":"other-theft","location_type":"Force","location":{"latitude":"51.452076","street":{"id":941973,"name":"On or near Petrol Station"},"longitude":"-0.016199"},"context":"","outcome_status":{"category":"Investigation complete; no suspect identified","date":"2017-07"},"persistent_id":"ed9809dc9127a4d7d701d2f366403a80e760f18b232ab3a144ba4bdb09b7c30f","id":58012592,"location_subtype":"","month":"2017-06"},{"category":"other-theft","location_type":"Force","location":{"latitude":"51.453646","street":{"id":941975,"name":"On or near Hospital"},"longitude":"-0.017023"},"context":"","outcome_status":{"category":"Status update unavailable","date":"2017-10"},"persistent_id":"1f79e24e0cfb75b2f3f731062d77c625e5d1a96e6cb956de5d9828698653ca5a","id":58054271,"location_subtype":"","month":"2017-06"},{"category":"other-theft","location_type":"Force","location":{"latitude":"51.453230","street":{"id":941953,"name":"On or near Nightingale Grove"},"longitude":"-0.003151"},"context":"","outcome_status":{"category":"Status update unavailable","date":"2017-10"},"persistent_id":"c3349b1295218a7925e78b14452a643a71bda001a0e3cc1d11ff3a9d331519d6","id":58053667,"location_subtype":"","month":"2017-06"},{"category":"other-theft","location_type":"BTP","location":{"latitude":"51.452623","street":{"id":1490143,"name":"Hither Green (station)"},"longitude":"-0.001220"},"context":"","outcome_status":{"category":"Status update unavailable","date":"2017-10"},"persistent_id":"","id":66279413,"location_subtype":"STATION","month":"2017-06"},{"category":"other-theft","location_type":"Force","location":{"latitude":"51.453646","street":{"id":941975,"name":"On or near Hospital"},"longitude":"-0.017023"},"context":"","outcome_status":{"category":"Status update unavailable","date":"2017-10"},"persistent_id":"dd5e63e5da7a6f04181e39ff488b68f6cd18c066bb8e50858ebdf63fa2a76150","id":58052881,"location_subtype":"","month":"2017-06"},{"category":"other-theft","location_type":"Force","location":{"latitude":"51.461848","street":{"id":941917,"name":"On or near Lewis Grove"},"longitude":"-0.009671"},"context":"","outcome_status":{"category":"Status update unavailable","date":"2017-10"},"persistent_id":"da4cf86bfdc3c115a977ab18641dfbbd3348432b968a1df9d89ad683ea05103b","id":58025563,"location_subtype":"","month":"2017-06"},{"category":"other-theft","location_type":"Force","location":{"latitude":"51.453646","street":{"id":941975,"name":"On or near Hospital"},"longitude":"-0.017023"},"context":"","outcome_status":{"category":"Investigation complete; no suspect identified","date":"2017-07"},"persistent_id":"eb364e430dd56b3a96694499a8fc28f14c1ee2304f2ddc5950de9203cb9b01c3","id":58049506,"location_subtype":"","month":"2017-06"},{"category":"other-theft","location_type":"BTP","location":{"latitude":"51.452623","street":{"id":1490143,"name":"Hither Green (station)"},"longitude":"-0.001220"},"context":"","outcome_status":{"category":"Status update unavailable","date":"2017-10"},"persistent_id":"","id":66279412,"location_subtype":"STATION","month":"2017-06"},{"category":"other-theft","location_type":"Force","location":{"latitude":"51.453646","street":{"id":941975,"name":"On or near Hospital"},"longitude":"-0.017023"},"context":"","outcome_status":{"category":"Status update unavailable","date":"2017-10"},"persistent_id":"b97e018324a25ec42c2c40c691cac0dba1d813168dab951e2af236c939d6acea","id":58035180,"location_subtype":"","month":"2017-06"},{"category":"other-theft","location_type":"Force","location":{"latitude":"51.460713","street":{"id":941869,"name":"On or near Parking Area"},"longitude":"-0.012743"},"context":"","outcome_status":{"category":"Investigation complete; no suspect identified","date":"2017-06"},"persistent_id":"a8501135c8bd6755b5a1fd7647e7720ba00c21117a9c73c4d13ea1b556c97cc4","id":58022044,"location_subtype":"","month":"2017-06"},{"category":"possession-of-weapons","location_type":"Force","location":{"latitude":"51.459111","street":{"id":941916,"name":"On or near Limes Grove"},"longitude":"-0.009459"},"context":"","outcome_status":{"category":"Status update unavailable","date":"2017-10"},"persistent_id":"73447538016b277c154729922bd5e863c422fe93d17c78d5581b47db9485fdb2","id":58052464,"location_subtype":"","month":"2017-06"},{"category":"public-order","location_type":"Force","location":{"latitude":"51.458795","street":{"id":941886,"name":"On or near Clipper Way"},"longitude":"-0.011531"},"context":"","outcome_status":{"category":"Investigation complete; no suspect identified","date":"2017-06"},"persistent_id":"d78cde4619f85433fd433a8ae5fe4af10844116bb5dd7a28c205287b351ff9c0","id":58025559,"location_subtype":"","month":"2017-06"},{"category":"public-order","location_type":"Force","location":{"latitude":"51.460490","street":{"id":941889,"name":"On or near Barnstaple Lane"},"longitude":"-0.010680"},"context":"","outcome_status":{"category":"Investigation complete; no suspect identified","date":"2017-07"},"persistent_id":"2d641ab827c37d4778ffd4e29a82ff9dc1322dc1233667ec7de29f9e3dfbadef","id":58017307,"location_subtype":"","month":"2017-06"},{"category":"public-order","location_type":"Force","location":{"latitude":"51.468015","street":{"id":946761,"name":"On or near Conington Road"},"longitude":"-0.013794"},"context":"","outcome_status":{"category":"Investigation complete; no suspect identified","date":"2017-07"},"persistent_id":"5173a02e98d16d9ed34076b61d18f93c962562d292dc6d15035d393b73288e57","id":58046609,"location_subtype":"","month":"2017-06"},{"category":"public-order","location_type":"Force","location":{"latitude":"51.461848","street":{"id":941917,"name":"On or near Lewis Grove"},"longitude":"-0.009671"},"context":"","outcome_status":{"category":"Investigation complete; no suspect identified","date":"2017-07"},"persistent_id":"4391b555fcd02693a202347c52ceb4bc212a6e5c64ab5a9382bd17993b28a766","id":58058581,"location_subtype":"","month":"2017-06"},{"category":"public-order","location_type":"Force","location":{"latitude":"51.465710","street":{"id":946837,"name":"On or near Pedestrian Subway"},"longitude":"-0.014168"},"context":"","outcome_status":{"category":"Status update unavailable","date":"2017-10"},"persistent_id":"33739003b0a0062f656cc546926fdda891adff9de7b9ec865f160b7da6cb1098","id":58058686,"location_subtype":"","month":"2017-06"},{"category":"public-order","location_type":"Force","location":{"latitude":"51.450961","street":{"id":941967,"name":"On or near Roxley Road"},"longitude":"-0.016218"},"context":"","outcome_status":{"category":"Investigation complete; no suspect identified","date":"2017-07"},"persistent_id":"d57a2a38ea18de329a14f29da8ccd1e9e5eb639c00f7ab82c22c2623d6ed4f01","id":58055229,"location_subtype":"","month":"2017-06"},{"category":"public-order","location_type":"Force","location":{"latitude":"51.468015","street":{"id":946761,"name":"On or near Conington Road"},"longitude":"-0.013794"},"context":"","outcome_status":{"category":"Status update unavailable","date":"2017-10"},"persistent_id":"1eca3bfaf1312b361832e11b897811a0b92a0ed8dfbea494bf158782b2b94824","id":58040176,"location_subtype":"","month":"2017-06"},{"category":"public-order","location_type":"Force","location":{"latitude":"51.461285","street":{"id":941918,"name":"On or near Lee High Road"},"longitude":"-0.006140"},"context":"","outcome_status":{"category":"Investigation complete; no suspect identified","date":"2017-07"},"persistent_id":"b4dc6f7eb4aa265634e1ecaa5164229b736a58b7adf9fe58c4830751eac8ac8b","id":58040373,"location_subtype":"","month":"2017-06"},{"category":"public-order","location_type":"Force","location":{"latitude":"51.461994","street":{"id":941890,"name":"On or near Shopping Area"},"longitude":"-0.011378"},"context":"","outcome_status":{"category":"Investigation complete; no suspect identified","date":"2017-11"},"persistent_id":"913d43487692f293d8651ffe3f1c1a85bf0058078350abbec7cef72ced2b5653","id":58033144,"location_subtype":"","month":"2017-06"},{"category":"public-order","location_type":"Force","location":{"latitude":"51.459928","street":{"id":941921,"name":"On or near Gilmore Road"},"longitude":"-0.006184"},"context":"","outcome_status":{"category":"Investigation complete; no suspect identified","date":"2017-07"},"persistent_id":"0a553115bd0e5a26e5efb382a0f62d65d31fd21a94d9159f9246ba6550abe371","id":58032866,"location_subtype":"","month":"2017-06"},{"category":"public-order","location_type":"Force","location":{"latitude":"51.445861","street":{"id":940476,"name":"On or near Minard Road"},"longitude":"0.000758"},"context":"","outcome_status":{"category":"Investigation complete; no suspect identified","date":"2017-06"},"persistent_id":"b94978fbddf56d6e78ba35b7e44ae324a0df363d9b61b993212865e3b4a5ed74","id":58025692,"location_subtype":"","month":"2017-06"},{"category":"public-order","location_type":"Force","location":{"latitude":"51.460490","street":{"id":941889,"name":"On or near Barnstaple Lane"},"longitude":"-0.010680"},"context":"","outcome_status":{"category":"Court case unable to proceed","date":"2017-07"},"persistent_id":"e3067facfd5d0e9b214e3c2758a5d3a0384d5c77d3061d304f0279455f6ceb09","id":58017636,"location_subtype":"","month":"2017-06"},{"category":"public-order","location_type":"BTP","location":{"latitude":"51.465727","street":{"id":1490157,"name":"Lewisham (station)"},"longitude":"-0.014008"},"context":"","outcome_status":{"category":"Status update unavailable","date":"2017-10"},"persistent_id":"","id":66280218,"location_subtype":"STATION","month":"2017-06"},{"category":"public-order","location_type":"BTP","location":{"latitude":"51.465727","street":{"id":1490157,"name":"Lewisham (station)"},"longitude":"-0.014008"},"context":"","outcome_status":{"category":"Status update unavailable","date":"2017-10"},"persistent_id":"","id":66280217,"location_subtype":"STATION","month":"2017-06"},{"category":"public-order","location_type":"BTP","location":{"latitude":"51.465727","street":{"id":1490157,"name":"Lewisham (station)"},"longitude":"-0.014008"},"context":"","outcome_status":{"category":"Status update unavailable","date":"2017-10"},"persistent_id":"","id":66280216,"location_subtype":"STATION","month":"2017-06"},{"category":"public-order","location_type":"BTP","location":{"latitude":"51.465727","street":{"id":1490157,"name":"Lewisham (station)"},"longitude":"-0.014008"},"context":"","outcome_status":{"category":"Status update unavailable","date":"2017-10"},"persistent_id":"","id":66280215,"location_subtype":"STATION","month":"2017-06"},{"category":"public-order","location_type":"BTP","location":{"latitude":"51.465727","street":{"id":1490157,"name":"Lewisham (station)"},"longitude":"-0.014008"},"context":"","outcome_status":{"category":"Status update unavailable","date":"2017-10"},"persistent_id":"","id":66280214,"location_subtype":"STATION","month":"2017-06"},{"category":"public-order","location_type":"BTP","location":{"latitude":"51.465727","street":{"id":1490157,"name":"Lewisham (station)"},"longitude":"-0.014008"},"context":"","outcome_status":{"category":"Status update unavailable","date":"2017-10"},"persistent_id":"","id":66280213,"location_subtype":"STATION","month":"2017-06"},{"category":"public-order","location_type":"BTP","location":{"latitude":"51.452623","street":{"id":1490143,"name":"Hither Green (station)"},"longitude":"-0.001220"},"context":"","outcome_status":{"category":"Status update unavailable","date":"2017-10"},"persistent_id":"","id":66279415,"location_subtype":"STATION","month":"2017-06"},{"category":"robbery","location_type":"Force","location":{"latitude":"51.453646","street":{"id":941975,"name":"On or near Hospital"},"longitude":"-0.017023"},"context":"","outcome_status":{"category":"Status update unavailable","date":"2017-10"},"persistent_id":"c3f5eb3a2eecee9deb38e27d4918debd808ecb0d8540ef7b18755edd2da00379","id":58017814,"location_subtype":"","month":"2017-06"},{"category":"robbery","location_type":"Force","location":{"latitude":"51.461848","street":{"id":941917,"name":"On or near Lewis Grove"},"longitude":"-0.009671"},"context":"","outcome_status":{"category":"Investigation complete; no suspect identified","date":"2017-08"},"persistent_id":"14039e801640381a537f56ebe1f20f6c24b420be88091e1ff117d2173121ffbb","id":58040706,"location_subtype":"","month":"2017-06"},{"category":"robbery","location_type":"Force","location":{"latitude":"51.458795","street":{"id":941886,"name":"On or near Clipper Way"},"longitude":"-0.011531"},"context":"","outcome_status":{"category":"Court case unable to proceed","date":"2017-07"},"persistent_id":"acaf6129edd8980d87d4433b859bd46b00b28960198e022b3f5aae898f54e855","id":58011597,"location_subtype":"","month":"2017-06"},{"category":"robbery","location_type":"Force","location":{"latitude":"51.453335","street":{"id":941961,"name":"On or near Ennersdale Road"},"longitude":"-0.005622"},"context":"","outcome_status":{"category":"Investigation complete; no suspect identified","date":"2017-07"},"persistent_id":"f69e07cc3588ffe8559fd38f4f17d278ea7c67a41c3afb7e94c88f9e02dbb3d6","id":58035299,"location_subtype":"","month":"2017-06"},{"category":"robbery","location_type":"Force","location":{"latitude":"51.465710","street":{"id":946837,"name":"On or near Pedestrian Subway"},"longitude":"-0.014168"},"context":"","outcome_status":{"category":"Investigation complete; no suspect identified","date":"2017-06"},"persistent_id":"3ef23610ff49d3abb23a24d9529f0cfec84ce1d512263bb37cc64dfb08ecb182","id":58040021,"location_subtype":"","month":"2017-06"},{"category":"robbery","location_type":"Force","location":{"latitude":"51.458795","street":{"id":941886,"name":"On or near Clipper Way"},"longitude":"-0.011531"},"context":"","outcome_status":{"category":"Investigation complete; no suspect identified","date":"2017-08"},"persistent_id":"f19be6062d6d57f379c4a9a6c58997c31b3ded98576b0a3417dccf046ef04347","id":58037510,"location_subtype":"","month":"2017-06"},{"category":"robbery","location_type":"Force","location":{"latitude":"51.461437","street":{"id":941912,"name":"On or near Mercia Grove"},"longitude":"-0.009286"},"context":"","outcome_status":{"category":"Investigation complete; no suspect identified","date":"2017-10"},"persistent_id":"d857e4961dd21781c394dad7a0ae2733d7e1c4cd29cea953a84743178c24aaf1","id":58017946,"location_subtype":"","month":"2017-06"},{"category":"robbery","location_type":"Force","location":{"latitude":"51.461437","street":{"id":941912,"name":"On or near Mercia Grove"},"longitude":"-0.009286"},"context":"","outcome_status":{"category":"Investigation complete; no suspect identified","date":"2017-09"},"persistent_id":"2319e6306b2a5a72c678049518fb81a53fdcba6a222d2bb8eeb87c93dd5c1056","id":58030630,"location_subtype":"","month":"2017-06"},{"category":"robbery","location_type":"Force","location":{"latitude":"51.461848","street":{"id":941917,"name":"On or near Lewis Grove"},"longitude":"-0.009671"},"context":"","outcome_status":{"category":"Status update unavailable","date":"2017-10"},"persistent_id":"b93bd402c9efb3a3db5e70102705e8a59fd60e2ac314cbff7ba78254e0e8b821","id":58026014,"location_subtype":"","month":"2017-06"},{"category":"robbery","location_type":"Force","location":{"latitude":"51.460628","street":{"id":941911,"name":"On or near Middleton Way"},"longitude":"-0.001921"},"context":"","outcome_status":{"category":"Investigation complete; no suspect identified","date":"2018-04"},"persistent_id":"4714221b1a7bbb29ac5948b51f7650a5cac04e64f0c9002de01213a63448be0e","id":58035428,"location_subtype":"","month":"2017-06"},{"category":"robbery","location_type":"Force","location":{"latitude":"51.454800","street":{"id":941882,"name":"On or near Guyscliff Road"},"longitude":"-0.014051"},"context":"","outcome_status":{"category":"Status update unavailable","date":"2017-10"},"persistent_id":"7bdc0326a3d3b66f79800413977dbfb481a99d5d2d27c031560e3ebaffd6de70","id":58041486,"location_subtype":"","month":"2017-06"},{"category":"robbery","location_type":"Force","location":{"latitude":"51.460628","street":{"id":941911,"name":"On or near Middleton Way"},"longitude":"-0.001921"},"context":"","outcome_status":{"category":"Status update unavailable","date":"2017-10"},"persistent_id":"4714221b1a7bbb29ac5948b51f7650a5cac04e64f0c9002de01213a63448be0e","id":58035427,"location_subtype":"","month":"2017-06"},{"category":"robbery","location_type":"Force","location":{"latitude":"51.448683","street":{"id":940360,"name":"On or near Park Piazza"},"longitude":"-0.003882"},"context":"","outcome_status":{"category":"Defendant found not guilty","date":"2018-03"},"persistent_id":"dffb15fd61d88e436b85bddb576e4f69f3d2041e53239509fe64534a436c6779","id":58013111,"location_subtype":"","month":"2017-06"},{"category":"robbery","location_type":"Force","location":{"latitude":"51.463466","street":{"id":941879,"name":"On or near Lewisham High Street"},"longitude":"-0.010680"},"context":"","outcome_status":{"category":"Investigation complete; no suspect identified","date":"2017-06"},"persistent_id":"e4f6da516850f49159e53985ba597420f0c622f35c00a9d93387cb8ee5d85351","id":58019171,"location_subtype":"","month":"2017-06"},{"category":"robbery","location_type":"Force","location":{"latitude":"51.461994","street":{"id":941890,"name":"On or near Shopping Area"},"longitude":"-0.011378"},"context":"","outcome_status":{"category":"Investigation complete; no suspect identified","date":"2017-10"},"persistent_id":"8461501639bf245399db049cffc8665c93f7bbfeb75638fd7709ab26e900bf55","id":58025472,"location_subtype":"","month":"2017-06"},{"category":"shoplifting","location_type":"Force","location":{"latitude":"51.461994","street":{"id":941890,"name":"On or near Shopping Area"},"longitude":"-0.011378"},"context":"","outcome_status":{"category":"Offender given penalty notice","date":"2017-06"},"persistent_id":"cc580b408d9752326da4bf105d45ee3fb4f37dfa08c04a008895ea1a625f5c1c","id":58018819,"location_subtype":"","month":"2017-06"},{"category":"shoplifting","location_type":"Force","location":{"latitude":"51.461091","street":{"id":941892,"name":"On or near Shopping Area"},"longitude":"-0.011676"},"context":"","outcome_status":{"category":"Offender given community sentence","date":"2017-06"},"persistent_id":"966b18e7049e85a53644332dcd871b5456d6eae8ee28d2322c57af2bdb22135c","id":58067937,"location_subtype":"","month":"2017-06"},{"category":"shoplifting","location_type":"Force","location":{"latitude":"51.461994","street":{"id":941890,"name":"On or near Shopping Area"},"longitude":"-0.011378"},"context":"","outcome_status":{"category":"Offender given conditional discharge","date":"2017-07"},"persistent_id":"29fe9527f21cd4a382a94bfc28658b56afd95456864d2c1087e7d80b65e6ec34","id":58073143,"location_subtype":"","month":"2017-06"},{"category":"shoplifting","location_type":"Force","location":{"latitude":"51.463037","street":{"id":941881,"name":"On or near Lewisham High Street"},"longitude":"-0.010310"},"context":"","outcome_status":{"category":"Investigation complete; no suspect identified","date":"2017-07"},"persistent_id":"df0fa5027bad49a497827f987f7f85e9c0fd7a629fb43ef2ac041b66f3e8d08a","id":58055564,"location_subtype":"","month":"2017-06"},{"category":"shoplifting","location_type":"Force","location":{"latitude":"51.465990","street":{"id":946840,"name":"On or near Parking Area"},"longitude":"-0.013176"},"context":"","outcome_status":{"category":"Status update unavailable","date":"2017-10"},"persistent_id":"5154700b7ca360498c06b4d39653f7deabddf67da22d945667b3c4cd98d7709b","id":58053863,"location_subtype":"","month":"2017-06"},{"category":"shoplifting","location_type":"Force","location":{"latitude":"51.465444","street":{"id":946814,"name":"On or near Horton Street"},"longitude":"-0.016468"},"context":"","outcome_status":{"category":"Offender given community sentence","date":"2017-06"},"persistent_id":"c1213710c9ca6ccb028f63cd3655eb369a95297f332623ecc02bb5b23c6222ce","id":58071591,"location_subtype":"","month":"2017-06"},{"category":"shoplifting","location_type":"Force","location":{"latitude":"51.461091","street":{"id":941892,"name":"On or near Shopping Area"},"longitude":"-0.011676"},"context":"","outcome_status":{"category":"Status update unavailable","date":"2017-10"},"persistent_id":"c4513a7c3c2de526c77137fe5733986592c28eb54b18c8ce54ee5f3d499e93d6","id":58042477,"location_subtype":"","month":"2017-06"},{"category":"shoplifting","location_type":"Force","location":{"latitude":"51.460327","street":{"id":941880,"name":"On or near Lewisham High Street"},"longitude":"-0.011148"},"context":"","outcome_status":{"category":"Investigation complete; no suspect identified","date":"2017-07"},"persistent_id":"8c1a278b32efddc7ad2aea417f15218ec483ffbe7aa9c791b9dc12bd3ec4764a","id":58040146,"location_subtype":"","month":"2017-06"},{"category":"shoplifting","location_type":"Force","location":{"latitude":"51.461994","street":{"id":941890,"name":"On or near Shopping Area"},"longitude":"-0.011378"},"context":"","outcome_status":{"category":"Investigation complete; no suspect identified","date":"2017-08"},"persistent_id":"6f662f93b0ffcfbb07c660e519a46c220622d03432bf530e20c1e4251e40401d","id":58055763,"location_subtype":"","month":"2017-06"},{"category":"shoplifting","location_type":"Force","location":{"latitude":"51.461994","street":{"id":941890,"name":"On or near Shopping Area"},"longitude":"-0.011378"},"context":"","outcome_status":{"category":"Investigation complete; no suspect identified","date":"2017-06"},"persistent_id":"7f20189d79f9c66c0c67e52934b934a4883869873ad9b248d9498bfc0679922d","id":58065737,"location_subtype":"","month":"2017-06"},{"category":"shoplifting","location_type":"Force","location":{"latitude":"51.448914","street":{"id":940485,"name":"On or near Springbank Road"},"longitude":"0.001050"},"context":"","outcome_status":{"category":"Status update unavailable","date":"2017-10"},"persistent_id":"e1ea0a758835c45ae836abadf2fc12240e0b441ce73b4b10a7557a8f881c5fec","id":58044986,"location_subtype":"","month":"2017-06"},{"category":"shoplifting","location_type":"Force","location":{"latitude":"51.460327","street":{"id":941880,"name":"On or near Lewisham High Street"},"longitude":"-0.011148"},"context":"","outcome_status":{"category":"Investigation complete; no suspect identified","date":"2017-07"},"persistent_id":"1b37b65955e19be5a4d1adf36cd141949794263fff23e98575ed08485d5b7cb3","id":58012212,"location_subtype":"","month":"2017-06"},{"category":"shoplifting","location_type":"Force","location":{"latitude":"51.450961","street":{"id":941967,"name":"On or near Roxley Road"},"longitude":"-0.016218"},"context":"","outcome_status":{"category":"Investigation complete; no suspect identified","date":"2017-06"},"persistent_id":"a1654cee57ce9075d9d99cc5ff47b8ec1a6ff5ae76e0d1ab007eed072f1ce455","id":58076790,"location_subtype":"","month":"2017-06"},{"category":"shoplifting","location_type":"Force","location":{"latitude":"51.461994","street":{"id":941890,"name":"On or near Shopping Area"},"longitude":"-0.011378"},"context":"","outcome_status":{"category":"Investigation complete; no suspect identified","date":"2017-07"},"persistent_id":"e2aa0169668b43881695419de57dd2fb6c6444f69cc078f0a7309f7aa72a0a71","id":58013002,"location_subtype":"","month":"2017-06"},{"category":"shoplifting","location_type":"Force","location":{"latitude":"51.461872","street":{"id":941891,"name":"On or near Shopping Area"},"longitude":"-0.012635"},"context":"","outcome_status":{"category":"Status update unavailable","date":"2017-10"},"persistent_id":"239e5dc091e032defac4f4779143e49c3b08dea886cea271ab5ac591fe4fec84","id":58063878,"location_subtype":"","month":"2017-06"},{"category":"shoplifting","location_type":"Force","location":{"latitude":"51.461091","street":{"id":941892,"name":"On or near Shopping Area"},"longitude":"-0.011676"},"context":"","outcome_status":{"category":"Status update unavailable","date":"2017-10"},"persistent_id":"aba85249b08b71ea4bf10d5683a61e558095c70f1391df404e44a9b23ade972c","id":58040553,"location_subtype":"","month":"2017-06"},{"category":"shoplifting","location_type":"Force","location":{"latitude":"51.448683","street":{"id":940360,"name":"On or near Park Piazza"},"longitude":"-0.003882"},"context":"","outcome_status":{"category":"Offender otherwise dealt with","date":"2017-08"},"persistent_id":"5a898c9abb322647ebbe76979e42af803e25e11401b0e7f70bdfc26685f858ef","id":58017552,"location_subtype":"","month":"2017-06"},{"category":"shoplifting","location_type":"Force","location":{"latitude":"51.461091","street":{"id":941892,"name":"On or near Shopping Area"},"longitude":"-0.011676"},"context":"","outcome_status":{"category":"Status update unavailable","date":"2017-10"},"persistent_id":"210a624d2eb4bc05d8f3309193d57a775edd15731a253e97a2d1efbdf3114f4e","id":58015712,"location_subtype":"","month":"2017-06"},{"category":"shoplifting","location_type":"Force","location":{"latitude":"51.457692","street":{"id":941838,"name":"On or near Whitburn Road"},"longitude":"-0.014890"},"context":"","outcome_status":{"category":"Offender fined","date":"2018-03"},"persistent_id":"223fa25b6f7f7eb5ff11d95cfce3731c538830bf7b54b5c8d98dd49370ddc740","id":58045180,"location_subtype":"","month":"2017-06"},{"category":"shoplifting","location_type":"Force","location":{"latitude":"51.465990","street":{"id":946840,"name":"On or near Parking Area"},"longitude":"-0.013176"},"context":"","outcome_status":{"category":"Investigation complete; no suspect identified","date":"2017-06"},"persistent_id":"1ac31cd626519e2dffef2553c7407138c0ffb208639ee6fbb9627ccad606a31a","id":58068025,"location_subtype":"","month":"2017-06"},{"category":"shoplifting","location_type":"Force","location":{"latitude":"51.461994","street":{"id":941890,"name":"On or near Shopping Area"},"longitude":"-0.011378"},"context":"","outcome_status":{"category":"Investigation complete; no suspect identified","date":"2017-06"},"persistent_id":"65173ec915222a59630b89a5f3c381412b1c1fd073ca1e7c2060d8c327c1e9d5","id":58068065,"location_subtype":"","month":"2017-06"},{"category":"shoplifting","location_type":"Force","location":{"latitude":"51.458795","street":{"id":941886,"name":"On or near Clipper Way"},"longitude":"-0.011531"},"context":"","outcome_status":{"category":"Status update unavailable","date":"2017-10"},"persistent_id":"9fc8e2ad3218d524fb1fcb213cd31f7f2da441578b7d45760ccc7ed4f0a92140","id":58057248,"location_subtype":"","month":"2017-06"},{"category":"shoplifting","location_type":"Force","location":{"latitude":"51.461091","street":{"id":941892,"name":"On or near Shopping Area"},"longitude":"-0.011676"},"context":"","outcome_status":{"category":"Status update unavailable","date":"2017-10"},"persistent_id":"95399fda703d553f21d19e1dfb043a480407d1eb108695adf943f4f4873da31d","id":58059011,"location_subtype":"","month":"2017-06"},{"category":"shoplifting","location_type":"Force","location":{"latitude":"51.461091","street":{"id":941892,"name":"On or near Shopping Area"},"longitude":"-0.011676"},"context":"","outcome_status":{"category":"Investigation complete; no suspect identified","date":"2017-08"},"persistent_id":"07cf72a6050725a07bf15ac466c938e369ebfa7162f06056555d3d9f089e4954","id":58069762,"location_subtype":"","month":"2017-06"},{"category":"shoplifting","location_type":"Force","location":{"latitude":"51.461091","street":{"id":941892,"name":"On or near Shopping Area"},"longitude":"-0.011676"},"context":"","outcome_status":{"category":"Investigation complete; no suspect identified","date":"2017-07"},"persistent_id":"62a8947555d1000e7cc9c9f84dda9c4f202067cabad3215bcb61f0412a1ce06f","id":58070196,"location_subtype":"","month":"2017-06"},{"category":"shoplifting","location_type":"Force","location":{"latitude":"51.461091","street":{"id":941892,"name":"On or near Shopping Area"},"longitude":"-0.011676"},"context":"","outcome_status":{"category":"Investigation complete; no suspect identified","date":"2017-06"},"persistent_id":"3e284186e6809d7832b00a875efeb2562650ccaf08def94995147bb392fb3d54","id":58070816,"location_subtype":"","month":"2017-06"},{"category":"shoplifting","location_type":"Force","location":{"latitude":"51.463037","street":{"id":941881,"name":"On or near Lewisham High Street"},"longitude":"-0.010310"},"context":"","outcome_status":{"category":"Investigation complete; no suspect identified","date":"2017-06"},"persistent_id":"5d69d88b8f6eb5c6967b981a5e1a6bd1dde01231a43654e9ac05d8b1e8645b54","id":58037371,"location_subtype":"","month":"2017-06"},{"category":"shoplifting","location_type":"Force","location":{"latitude":"51.461872","street":{"id":941891,"name":"On or near Shopping Area"},"longitude":"-0.012635"},"context":"","outcome_status":{"category":"Investigation complete; no suspect identified","date":"2017-10"},"persistent_id":"a35203868c9a4221246b31bc5cf457d6e636d180650b82f07863d9507a55c521","id":58059214,"location_subtype":"","month":"2017-06"},{"category":"shoplifting","location_type":"Force","location":{"latitude":"51.461848","street":{"id":941917,"name":"On or near Lewis Grove"},"longitude":"-0.009671"},"context":"","outcome_status":{"category":"Awaiting court outcome","date":"2018-02"},"persistent_id":"636ed83f274f94abeeb38519e5aa5468c241265b90a2474344e5fd5cd3b541ab","id":58077733,"location_subtype":"","month":"2017-06"},{"category":"theft-from-the-person","location_type":"Force","location":{"latitude":"51.448985","street":{"id":940371,"name":"On or near Desvignes Drive"},"longitude":"-0.003121"},"context":"","outcome_status":{"category":"Status update unavailable","date":"2017-10"},"persistent_id":"11bd0e973238b81b74b71d8978b350f4dd124339370d0a46a1a60dc0dab88e77","id":58058151,"location_subtype":"","month":"2017-06"},{"category":"theft-from-the-person","location_type":"Force","location":{"latitude":"51.453646","street":{"id":941975,"name":"On or near Hospital"},"longitude":"-0.017023"},"context":"","outcome_status":{"category":"Investigation complete; no suspect identified","date":"2017-07"},"persistent_id":"8bf9cde786695652a1da5787c7bfaacb552cfa2655ace1ee6c8008169739a154","id":58017430,"location_subtype":"","month":"2017-06"},{"category":"theft-from-the-person","location_type":"Force","location":{"latitude":"51.461872","street":{"id":941891,"name":"On or near Shopping Area"},"longitude":"-0.012635"},"context":"","outcome_status":{"category":"Investigation complete; no suspect identified","date":"2017-09"},"persistent_id":"62c410d63505f99a9ce001d2cd287ab428d694bf3dbe7147bd625e7427b85f2b","id":58076174,"location_subtype":"","month":"2017-06"},{"category":"theft-from-the-person","location_type":"Force","location":{"latitude":"51.454800","street":{"id":941882,"name":"On or near Guyscliff Road"},"longitude":"-0.014051"},"context":"","outcome_status":{"category":"Status update unavailable","date":"2017-10"},"persistent_id":"dbb6fc9d468178cb8c4d8d7fd05d6832e18e232b9dda5000edb59642d956cf15","id":58040504,"location_subtype":"","month":"2017-06"},{"category":"theft-from-the-person","location_type":"Force","location":{"latitude":"51.453646","street":{"id":941975,"name":"On or near Hospital"},"longitude":"-0.017023"},"context":"","outcome_status":{"category":"Status update unavailable","date":"2017-10"},"persistent_id":"15931fcfeeca5dc265595aa6e9d18040d41d5fcc186199a14d4bed925798b443","id":58028474,"location_subtype":"","month":"2017-06"},{"category":"theft-from-the-person","location_type":"Force","location":{"latitude":"51.461872","street":{"id":941891,"name":"On or near Shopping Area"},"longitude":"-0.012635"},"context":"","outcome_status":{"category":"Investigation complete; no suspect identified","date":"2017-07"},"persistent_id":"26ebc902f8c5851337edff4e5c9d0887406ca32436f649a952015e90898f8f04","id":58066381,"location_subtype":"","month":"2017-06"},{"category":"theft-from-the-person","location_type":"Force","location":{"latitude":"51.461091","street":{"id":941892,"name":"On or near Shopping Area"},"longitude":"-0.011676"},"context":"","outcome_status":{"category":"Investigation complete; no suspect identified","date":"2017-07"},"persistent_id":"571a8c842719fc97b20eea957cb45e4eca6f3a9002085bbaece586815327326f","id":58028342,"location_subtype":"","month":"2017-06"},{"category":"theft-from-the-person","location_type":"Force","location":{"latitude":"51.453646","street":{"id":941975,"name":"On or near Hospital"},"longitude":"-0.017023"},"context":"","outcome_status":{"category":"Investigation complete; no suspect identified","date":"2017-06"},"persistent_id":"1eee0a096483da5a3a80b918d3f215d92932fa4c6e47e2897c620664fe78de46","id":58040596,"location_subtype":"","month":"2017-06"},{"category":"theft-from-the-person","location_type":"Force","location":{"latitude":"51.460713","street":{"id":941869,"name":"On or near Parking Area"},"longitude":"-0.012743"},"context":"","outcome_status":{"category":"Status update unavailable","date":"2017-10"},"persistent_id":"6fdea1939533d5a3c718d2be32f5a23a79ae265b30bdeeae52457d5c449201a8","id":58012276,"location_subtype":"","month":"2017-06"},{"category":"theft-from-the-person","location_type":"Force","location":{"latitude":"51.460490","street":{"id":941889,"name":"On or near Barnstaple Lane"},"longitude":"-0.010680"},"context":"","outcome_status":{"category":"Investigation complete; no suspect identified","date":"2017-07"},"persistent_id":"d8734c7c4942b99bed7e18fe9e74fa158343dbcd8ddbc34cebfed216e6c95668","id":58012038,"location_subtype":"","month":"2017-06"},{"category":"theft-from-the-person","location_type":"BTP","location":{"latitude":"51.465727","street":{"id":1490157,"name":"Lewisham (station)"},"longitude":"-0.014008"},"context":"","outcome_status":{"category":"Status update unavailable","date":"2017-10"},"persistent_id":"","id":66280221,"location_subtype":"STATION","month":"2017-06"},{"category":"theft-from-the-person","location_type":"Force","location":{"latitude":"51.461994","street":{"id":941890,"name":"On or near Shopping Area"},"longitude":"-0.011378"},"context":"","outcome_status":{"category":"Status update unavailable","date":"2017-10"},"persistent_id":"7851a515f7ff6c2717f5a384c9abc401ada4295e67df190e21750e9dcd7e3e77","id":58056321,"location_subtype":"","month":"2017-06"},{"category":"theft-from-the-person","location_type":"Force","location":{"latitude":"51.458250","street":{"id":941885,"name":"On or near Curness Street"},"longitude":"-0.013297"},"context":"","outcome_status":{"category":"Investigation complete; no suspect identified","date":"2017-07"},"persistent_id":"f77fa9e9dc94b8b9fbd738f8bdbff3e49e6c606ca879bdd26007ed01efd07222","id":58034232,"location_subtype":"","month":"2017-06"},{"category":"theft-from-the-person","location_type":"Force","location":{"latitude":"51.461994","street":{"id":941890,"name":"On or near Shopping Area"},"longitude":"-0.011378"},"context":"","outcome_status":{"category":"Status update unavailable","date":"2017-10"},"persistent_id":"ec2ec49dc1da57090b6757730bbdb24a77adbdd4e91a72fa66d3ae60fbb790d9","id":58035972,"location_subtype":"","month":"2017-06"},{"category":"vehicle-crime","location_type":"Force","location":{"latitude":"51.468116","street":{"id":946778,"name":"On or near Leathwell Road"},"longitude":"-0.017648"},"context":"","outcome_status":{"category":"Status update unavailable","date":"2017-10"},"persistent_id":"a6877853c05018aad3f05ca3fbf656502844806d58f971171396946ea6c9933c","id":58054318,"location_subtype":"","month":"2017-06"},{"category":"vehicle-crime","location_type":"Force","location":{"latitude":"51.456013","street":{"id":941919,"name":"On or near Holly Hedge Terrace"},"longitude":"-0.007060"},"context":"","outcome_status":{"category":"Investigation complete; no suspect identified","date":"2017-06"},"persistent_id":"ddc897f9d80950f9e807b6020d5207a7824f51d2d427e5919fddd321528ad628","id":58024683,"location_subtype":"","month":"2017-06"},{"category":"vehicle-crime","location_type":"Force","location":{"latitude":"51.453646","street":{"id":941975,"name":"On or near Hospital"},"longitude":"-0.017023"},"context":"","outcome_status":{"category":"Status update unavailable","date":"2017-10"},"persistent_id":"47264c7baddac8c60e9edaa69553a9a84e78e20e16e935e004d86ed9a8e8dfe9","id":58050738,"location_subtype":"","month":"2017-06"},{"category":"vehicle-crime","location_type":"Force","location":{"latitude":"51.468231","street":{"id":946791,"name":"On or near Conington Road"},"longitude":"-0.015411"},"context":"","outcome_status":{"category":"Investigation complete; no suspect identified","date":"2017-08"},"persistent_id":"4c8089a2543eae82653ec38b804499af4d2d42e11c65334dc3a2a2b5eb4a8bd8","id":58052188,"location_subtype":"","month":"2017-06"},{"category":"vehicle-crime","location_type":"Force","location":{"latitude":"51.453637","street":{"id":941947,"name":"On or near Thornford Road"},"longitude":"-0.010143"},"context":"","outcome_status":{"category":"Status update unavailable","date":"2017-10"},"persistent_id":"054a904d01d1419b56822f1ae72402c4f0ce870ad199615f5b6696ab3b7ecaae","id":58055984,"location_subtype":"","month":"2017-06"},{"category":"vehicle-crime","location_type":"Force","location":{"latitude":"51.453615","street":{"id":941958,"name":"On or near Knowles Hill Crescent"},"longitude":"-0.006215"},"context":"","outcome_status":{"category":"Status update unavailable","date":"2017-10"},"persistent_id":"3460a4c69baccc14c5800f82b5a7d64bc21e411a2475c6bab4845d537db54e6a","id":58053406,"location_subtype":"","month":"2017-06"},{"category":"vehicle-crime","location_type":"Force","location":{"latitude":"51.455196","street":{"id":941887,"name":"On or near Campshill Road"},"longitude":"-0.011414"},"context":"","outcome_status":{"category":"Status update unavailable","date":"2017-10"},"persistent_id":"e7476c98379774c885a6d2b96ca62e01ade7a5d6e605e1059cecc162b37e8ae7","id":58022138,"location_subtype":"","month":"2017-06"},{"category":"vehicle-crime","location_type":"Force","location":{"latitude":"51.451206","street":{"id":941940,"name":"On or near Mount Pleasant Road"},"longitude":"-0.012624"},"context":"","outcome_status":{"category":"Investigation complete; no suspect identified","date":"2017-07"},"persistent_id":"dfb0d03d3be1a0ebd375fbc3f3a548d2afa106b29f60b7ef93b0a47a19638d10","id":58013746,"location_subtype":"","month":"2017-06"},{"category":"vehicle-crime","location_type":"Force","location":{"latitude":"51.467319","street":{"id":946820,"name":"On or near Armoury Road"},"longitude":"-0.016229"},"context":"","outcome_status":{"category":"Status update unavailable","date":"2017-10"},"persistent_id":"db37ef839a942cd4cae74ccf7687fcc4af64f16893d79968906c10b63c3af7d5","id":58022154,"location_subtype":"","month":"2017-06"},{"category":"vehicle-crime","location_type":"Force","location":{"latitude":"51.451206","street":{"id":941940,"name":"On or near Mount Pleasant Road"},"longitude":"-0.012624"},"context":"","outcome_status":{"category":"Investigation complete; no suspect identified","date":"2017-07"},"persistent_id":"c6bd1134504b5af7e76cdfe54fbd621d39ecd531e78e3dfd41a44f247d3be473","id":58031448,"location_subtype":"","month":"2017-06"},{"category":"vehicle-crime","location_type":"Force","location":{"latitude":"51.452187","street":{"id":941955,"name":"On or near Maythorne Cottages"},"longitude":"-0.002117"},"context":"","outcome_status":{"category":"Status update unavailable","date":"2017-10"},"persistent_id":"8031c656c91f15ec885f0fa475bbbaa7bebb6e8630a59676b4d5783182829b39","id":58041209,"location_subtype":"","month":"2017-06"},{"category":"vehicle-crime","location_type":"Force","location":{"latitude":"51.452270","street":{"id":941960,"name":"On or near Fordyce Road"},"longitude":"-0.010116"},"context":"","outcome_status":{"category":"Investigation complete; no suspect identified","date":"2017-06"},"persistent_id":"9a40f02af148897bbdaa837803449d3b330b676cb58a43f33542505d126b6127","id":58031447,"location_subtype":"","month":"2017-06"},{"category":"vehicle-crime","location_type":"Force","location":{"latitude":"51.463800","street":{"id":941862,"name":"On or near Cornmill Lane"},"longitude":"-0.014452"},"context":"","outcome_status":{"category":"Investigation complete; no suspect identified","date":"2017-07"},"persistent_id":"347686600d11d2a2fae6992aec305101a8eb74b73b0ab129132cc3c63a2d75e8","id":58063767,"location_subtype":"","month":"2017-06"},{"category":"vehicle-crime","location_type":"Force","location":{"latitude":"51.461309","street":{"id":941738,"name":"On or near John Wooley Close"},"longitude":"-0.000164"},"context":"","outcome_status":{"category":"Status update unavailable","date":"2017-10"},"persistent_id":"099a094c698911d126ab6c2725b6dec9609665daacb92fdef386df4f6c6916f4","id":58026737,"location_subtype":"","month":"2017-06"},{"category":"vehicle-crime","location_type":"Force","location":{"latitude":"51.446866","street":{"id":940372,"name":"On or near Blashford Street"},"longitude":"-0.002263"},"context":"","outcome_status":{"category":"Status update unavailable","date":"2017-10"},"persistent_id":"d08e56622b0e850fcf6c700e681b6f49811ee833a5c90520595ece45d2a2a007","id":58026550,"location_subtype":"","month":"2017-06"},{"category":"vehicle-crime","location_type":"Force","location":{"latitude":"51.460327","street":{"id":941880,"name":"On or near Lewisham High Street"},"longitude":"-0.011148"},"context":"","outcome_status":{"category":"Investigation complete; no suspect identified","date":"2017-07"},"persistent_id":"0e1a964b0153edd5f020bdb68fe4093adabdf7f0d059211a5bfe931a2c82ec26","id":58020189,"location_subtype":"","month":"2017-06"},{"category":"vehicle-crime","location_type":"Force","location":{"latitude":"51.446866","street":{"id":940372,"name":"On or near Blashford Street"},"longitude":"-0.002263"},"context":"","outcome_status":{"category":"Status update unavailable","date":"2017-10"},"persistent_id":"5dd1ac7dccb1e36e93e7bfe2bc30eb8149f1a23b9780ba80aadd75f353dd8b38","id":58029886,"location_subtype":"","month":"2017-06"},{"category":"vehicle-crime","location_type":"Force","location":{"latitude":"51.456015","street":{"id":941888,"name":"On or near Campshill Place"},"longitude":"-0.010400"},"context":"","outcome_status":{"category":"Status update unavailable","date":"2017-10"},"persistent_id":"8d47a307d0b499adf699b5b876d8d29b1333eae071c92852d44a6a78ef85ce69","id":58039941,"location_subtype":"","month":"2017-06"},{"category":"vehicle-crime","location_type":"Force","location":{"latitude":"51.447658","street":{"id":940366,"name":"On or near Hospital Way"},"longitude":"-0.005999"},"context":"","outcome_status":{"category":"Status update unavailable","date":"2017-10"},"persistent_id":"9db02a0516d49c3ffd8ec109b6744330be4bf8fa30cc67c8155021932735d4e4","id":58019478,"location_subtype":"","month":"2017-06"},{"category":"vehicle-crime","location_type":"Force","location":{"latitude":"51.449610","street":{"id":940487,"name":"On or near Duncrievie Road"},"longitude":"-0.001294"},"context":"","outcome_status":{"category":"Status update unavailable","date":"2017-10"},"persistent_id":"66fc388b743888efa9d3480f0b6a566f787928e8e70b621c7f8e39ca0448d4a1","id":58015935,"location_subtype":"","month":"2017-06"},{"category":"vehicle-crime","location_type":"Force","location":{"latitude":"51.461309","street":{"id":941738,"name":"On or near John Wooley Close"},"longitude":"-0.000164"},"context":"","outcome_status":{"category":"Status update unavailable","date":"2017-10"},"persistent_id":"52c8415e89d4cff0542e201461dc863dd8d4538496614d6e4028204ae8e4a41d","id":58057222,"location_subtype":"","month":"2017-06"},{"category":"vehicle-crime","location_type":"Force","location":{"latitude":"51.451206","street":{"id":941940,"name":"On or near Mount Pleasant Road"},"longitude":"-0.012624"},"context":"","outcome_status":{"category":"Status update unavailable","date":"2017-10"},"persistent_id":"fc9e1c87eeb2f3b9bde2f5ae2cbf15910b05d45262aad6874720799ead4093a9","id":58030468,"location_subtype":"","month":"2017-06"},{"category":"vehicle-crime","location_type":"Force","location":{"latitude":"51.451153","street":{"id":941948,"name":"On or near Theodore Road"},"longitude":"-0.007358"},"context":"","outcome_status":{"category":"Status update unavailable","date":"2017-10"},"persistent_id":"025d3b58808a547680d04cea67c021dd6cdc70d84af8ffd547ea9f3feab1a575","id":58059455,"location_subtype":"","month":"2017-06"},{"category":"vehicle-crime","location_type":"Force","location":{"latitude":"51.466942","street":{"id":946838,"name":"On or near Parking Area"},"longitude":"-0.014143"},"context":"","outcome_status":{"category":"Status update unavailable","date":"2017-10"},"persistent_id":"4cd7557c6f0017a6fe414c01853593fdb41be48db9ecb42940a07c8bddb6afdf","id":58068656,"location_subtype":"","month":"2017-06"},{"category":"vehicle-crime","location_type":"Force","location":{"latitude":"51.451865","street":{"id":941951,"name":"On or near Radford Road"},"longitude":"-0.008522"},"context":"","outcome_status":{"category":"Status update unavailable","date":"2017-10"},"persistent_id":"876dc57fc8d3f803dff6e56fbcd43dc16a453d9efd5c69c1085f64be039cad8b","id":58068480,"location_subtype":"","month":"2017-06"},{"category":"vehicle-crime","location_type":"Force","location":{"latitude":"51.453230","street":{"id":941953,"name":"On or near Nightingale Grove"},"longitude":"-0.003151"},"context":"","outcome_status":{"category":"Investigation complete; no suspect identified","date":"2018-03"},"persistent_id":"0565537b4b636d70ba769f17a654a3a8120aeb553415155ea968b9cd6e871088","id":58030301,"location_subtype":"","month":"2017-06"},{"category":"vehicle-crime","location_type":"Force","location":{"latitude":"51.465710","street":{"id":946837,"name":"On or near Pedestrian Subway"},"longitude":"-0.014168"},"context":"","outcome_status":{"category":"Investigation complete; no suspect identified","date":"2017-06"},"persistent_id":"cd3ca15ffd80f34bd489cbb51e2382e88655d6ec3983ed85d422aa3cbff97208","id":58040943,"location_subtype":"","month":"2017-06"},{"category":"vehicle-crime","location_type":"Force","location":{"latitude":"51.451230","street":{"id":941964,"name":"On or near Ardmere Road"},"longitude":"-0.002922"},"context":"","outcome_status":{"category":"Investigation complete; no suspect identified","date":"2017-07"},"persistent_id":"c4fdfe210cb138a1c123324b60ac3e6beb9c8cf2e1972f848bbaa4275752ee26","id":58018322,"location_subtype":"","month":"2017-06"},{"category":"vehicle-crime","location_type":"Force","location":{"latitude":"51.452076","street":{"id":941973,"name":"On or near Petrol Station"},"longitude":"-0.016199"},"context":"","outcome_status":{"category":"Investigation complete; no suspect identified","date":"2017-06"},"persistent_id":"2e0a1914b36151030d069dff79a191434956b933b56aa3f5427a3d5fb976a360","id":58041383,"location_subtype":"","month":"2017-06"},{"category":"vehicle-crime","location_type":"Force","location":{"latitude":"51.457692","street":{"id":941838,"name":"On or near Whitburn Road"},"longitude":"-0.014890"},"context":"","outcome_status":{"category":"Investigation complete; no suspect identified","date":"2017-06"},"persistent_id":"21005cef3f882c5ade2be70fc6843faad79cf15d57ab8cc48f3c9db05c6c10ac","id":58045424,"location_subtype":"","month":"2017-06"},