[{"category":"anti-social-behaviour","location_type":"Force","location":{"latitude":"51.462397","street":{"id":943297,"name":"On or near Chelverton Road"},"longitude":"-0.217022"},"context":"","outcome_status":null,"persistent_id":"","id":60979713,"location_subtype":"","month":"2017-11"},{"category":"anti-social-behaviour","location_type":"Force","location":{"latitude":"51.465563","street":{"id":943285,"name":"On or near Kingsmere Close"},"longitude":"-0.216452"},"context":"","outcome_status":null,"persistent_id":"","id":60979715,"location_subtype":"","month":"2017-11"},{"category":"anti-social-behaviour","location_type":"Force","location":{"latitude":"51.467756","street":{"id":945142,"name":"On or near Putney Common"},"longitude":"-0.228259"},"context":"","outcome_status":null,"persistent_id":"","id":60979743,"location_subtype":"","month":"2017-11"},{"category":"anti-social-behaviour","location_type":"Force","location":{"latitude":"51.466725","street":{"id":943310,"name":"On or near Ardshiel Close"},"longitude":"-0.218955"},"context":"","outcome_status":null,"persistent_id":"","id":60979726,"location_subtype":"","month":"2017-11"},{"category":"anti-social-behaviour","location_type":"Force","location":{"latitude":"51.462397","street":{"id":943297,"name":"On or near Chelverton Road"},"longitude":"-0.217022"},"context":"","outcome_status":null,"persistent_id":"","id":60979718,"location_subtype":"","month":"2017-11"},{"category":"anti-social-behaviour","location_type":"Force","location":{"latitude":"51.464770","street":{"id":943307,"name":"On or near Brewhouse Street"},"longitude":"-0.213402"},"context":"","outcome_status":null,"persistent_id":"","id":60979671,"location_subtype":"","month":"2017-11"},{"category":"anti-social-behaviour","location_type":"Force","location":{"latitude":"51.464770","street":{"id":943307,"name":"On or near Brewhouse Street"},"longitude":"-0.213402"},"context":"","outcome_status":null,"persistent_id":"","id":60979669,"location_subtype":"","month":"2017-11"},{"category":"anti-social-behaviour","location_type":"Force","location":{"latitude":"51.464770","street":{"id":943307,"name":"On or near Brewhouse Street"},"longitude":"-0.213402"},"context":"","outcome_status":null,"persistent_id":"","id":60979668,"location_subtype":"","month":"2017-11"},{"category":"anti-social-behaviour","location_type":"Force","location":{"latitude":"51.461042","street":{"id":943295,"name":"On or near Disraeli Road"},"longitude":"-0.213073"},"context":"","outcome_status":null,"persistent_id":"","id":60979678,"location_subtype":"","month":"2017-11"},{"category":"anti-social-behaviour","location_type":"Force","location":{"latitude":"51.463853","street":{"id":943101,"name":"On or near Merivale Road"},"longitude":"-0.211020"},"context":"","outcome_status":null,"persistent_id":"","id":60979660,"location_subtype":"","month":"2017-11"},{"category":"anti-social-behaviour","location_type":"Force","location":{"latitude":"51.461355","street":{"id":943093,"name":"On or near Skelgill Road"},"longitude":"-0.205892"},"context":"","outcome_status":null,"persistent_id":"","id":60979645,"location_subtype":"","month":"2017-11"},{"category":"anti-social-behaviour","location_type":"Force","location":{"latitude":"51.464074","street":{"id":943313,"name":"On or near Shopping Area"},"longitude":"-0.214941"},"context":"","outcome_status":null,"persistent_id":"","id":60979689,"location_subtype":"","month":"2017-11"},{"category":"anti-social-behaviour","location_type":"Force","location":{"latitude":"51.461365","street":{"id":943123,"name":"On or near Northfields"},"longitude":"-0.200666"},"context":"","outcome_status":null,"persistent_id":"","id":60979635,"location_subtype":"","month":"2017-11"},{"category":"anti-social-behaviour","location_type":"Force","location":{"latitude":"51.463622","street":{"id":943267,"name":"On or near Token Yard"},"longitude":"-0.215348"},"context":"","outcome_status":null,"persistent_id":"","id":60979697,"location_subtype":"","month":"2017-11"},{"category":"anti-social-behaviour","location_type":"Force","location":{"latitude":"51.463622","street":{"id":943267,"name":"On or near Token Yard"},"longitude":"-0.215348"},"context":"","outcome_status":null,"persistent_id":"","id":60979699,"location_subtype":"","month":"2017-11"},{"category":"anti-social-behaviour","location_type":"Force","location":{"latitude":"51.463622","street":{"id":943267,"name":"On or near Token Yard"},"longitude":"-0.215348"},"context":"","outcome_status":null,"persistent_id":"","id":60979701,"location_subtype":"","month":"2017-11"},{"category":"anti-social-behaviour","location_type":"Force","location":{"latitude":"51.463622","street":{"id":943267,"name":"On or near Token Yard"},"longitude":"-0.215348"},"context":"","outcome_status":null,"persistent_id":"","id":60979703,"location_subtype":"","month":"2017-11"},{"category":"anti-social-behaviour","location_type":"Force","location":{"latitude":"51.463622","street":{"id":943267,"name":"On or near Token Yard"},"longitude":"-0.215348"},"context":"","outcome_status":null,"persistent_id":"","id":60979705,"location_subtype":"","month":"2017-11"},{"category":"anti-social-behaviour","location_type":"Force","location":{"latitude":"51.463622","street":{"id":943267,"name":"On or near Token Yard"},"longitude":"-0.215348"},"context":"","outcome_status":null,"persistent_id":"","id":60979707,"location_subtype":"","month":"2017-11"},{"category":"anti-social-behaviour","location_type":"Force","location":{"latitude":"51.466312","street":{"id":943277,"name":"On or near Putney Bridge Approach"},"longitude":"-0.213645"},"context":"","outcome_status":null,"persistent_id":"","id":60979673,"location_subtype":"","month":"2017-11"},{"category":"anti-social-behaviour","location_type":"Force","location":{"latitude":"51.462011","street":{"id":943312,"name":"On or near Supermarket"},"longitude":"-0.216461"},"context":"","outcome_status":null,"persistent_id":"","id":60979709,"location_subtype":"","month":"2017-11"},{"category":"anti-social-behaviour","location_type":"Force","location":{"latitude":"51.461365","street":{"id":943123,"name":"On or near Northfields"},"longitude":"-0.200666"},"context":"","outcome_status":null,"persistent_id":"","id":60979639,"location_subtype":"","month":"2017-11"},{"category":"anti-social-behaviour","location_type":"Force","location":{"latitude":"51.461042","street":{"id":943295,"name":"On or near Disraeli Road"},"longitude":"-0.213073"},"context":"","outcome_status":null,"persistent_id":"","id":60979676,"location_subtype":"","month":"2017-11"},{"category":"anti-social-behaviour","location_type":"Force","location":{"latitude":"51.462011","street":{"id":943312,"name":"On or near Supermarket"},"longitude":"-0.216461"},"context":"","outcome_status":null,"persistent_id":"","id":60979711,"location_subtype":"","month":"2017-11"},{"category":"bicycle-theft","location_type":"Force","location":{"latitude":"51.470092","street":{"id":945134,"name":"On or near Floss Street"},"longitude":"-0.226311"},"context":"","outcome_status":{"category":"Status update unavailable","date":"2018-03"},"persistent_id":"86a52f7adf06287f81ea662213f736cc7159ed3ecb29f442cfdda34605b33f30","id":61110667,"location_subtype":"","month":"2017-11"},{"category":"bicycle-theft","location_type":"BTP","location":{"latitude":"51.461300","street":{"id":1488015,"name":"Putney (station)"},"longitude":"-0.215911"},"context":"","outcome_status":{"category":"Status update unavailable","date":"2018-03"},"persistent_id":"","id":66340107,"location_subtype":"STATION","month":"2017-11"},{"category":"bicycle-theft","location_type":"Force","location":{"latitude":"51.468832","street":{"id":945151,"name":"On or near Rotherwood Road"},"longitude":"-0.221465"},"context":"","outcome_status":{"category":"Status update unavailable","date":"2018-03"},"persistent_id":"64dc7abf94722c0682e8aad758dd34c2f3eb72779ab2d6c09e81306d070b43a9","id":61055968,"location_subtype":"","month":"2017-11"},{"category":"bicycle-theft","location_type":"Force","location":{"latitude":"51.469800","street":{"id":945138,"name":"On or near Ashlone Road"},"longitude":"-0.223054"},"context":"","outcome_status":{"category":"Status update unavailable","date":"2018-03"},"persistent_id":"9a3cf565444e526927cc9c7af4f919d293fc61e9468972573786fec2eabc1848","id":61067801,"location_subtype":"","month":"2017-11"},{"category":"bicycle-theft","location_type":"Force","location":{"latitude":"51.469257","street":{"id":945156,"name":"On or near Festing Road"},"longitude":"-0.222269"},"context":"","outcome_status":{"category":"Status update unavailable","date":"2018-03"},"persistent_id":"8ec5521976425a7c2badd051c0497597f82b1702c7c291ce2f468ef1f39129cf","id":61038443,"location_subtype":"","month":"2017-11"},{"category":"burglary","location_type":"Force","location":{"latitude":"51.468832","street":{"id":945151,"name":"On or near Rotherwood Road"},"longitude":"-0.221465"},"context":"","outcome_status":{"category":"Status update unavailable","date":"2018-03"},"persistent_id":"8bb142641d8ab307ee93c2bc80bd7f09ca9931639022c760c8c36b3db0e152fb","id":61106130,"location_subtype":"","month":"2017-11"},{"category":"burglary","location_type":"Force","location":{"latitude":"51.462148","street":{"id":943141,"name":"On or near Eastfield Avenue"},"longitude":"-0.198375"},"context":"","outcome_status":{"category":"Investigation complete; no suspect identified","date":"2017-12"},"persistent_id":"61af1042ee5b51308ba728ff75a7f0af1e2e229de763633f9b6e0a29a11b8d27","id":61077868,"location_subtype":"","month":"2017-11"},{"category":"burglary","location_type":"Force","location":{"latitude":"51.461420","street":{"id":943112,"name":"On or near Brandlehow Road"},"longitude":"-0.207156"},"context":"","outcome_status":{"category":"Status update unavailable","date":"2018-03"},"persistent_id":"dc435132fdad95b833eb869b881d151eb0878a617d8a907bf7227d0b14429241","id":61051998,"location_subtype":"","month":"2017-11"},{"category":"burglary","location_type":"Force","location":{"latitude":"51.463622","street":{"id":943267,"name":"On or near Token Yard"},"longitude":"-0.215348"},"context":"","outcome_status":{"category":"Investigation complete; no suspect identified","date":"2018-01"},"persistent_id":"9b9cffaed4e717ceb101051a3345ceafd8aa4fa09d0448c5d827dc29b57c1083","id":61035969,"location_subtype":"","month":"2017-11"},{"category":"burglary","location_type":"Force","location":{"latitude":"51.464714","street":{"id":943238,"name":"On or near Rossdale Road"},"longitude":"-0.223885"},"context":"","outcome_status":{"category":"Investigation complete; no suspect identified","date":"2017-12"},"persistent_id":"cbc5ff6084912c3da6ff02877ebb6220afe6561beb664126edbafb1a051f5930","id":61117212,"location_subtype":"","month":"2017-11"},{"category":"burglary","location_type":"Force","location":{"latitude":"51.464522","street":{"id":943357,"name":"On or near Shopping Area"},"longitude":"-0.213067"},"context":"","outcome_status":{"category":"Status update unavailable","date":"2018-03"},"persistent_id":"3d35f37266cbc6c6a5d7f9f6b4ec408672d85bbb6c6a33cc0281d3ea7543208b","id":61079974,"location_subtype":"","month":"2017-11"},{"category":"burglary","location_type":"Force","location":{"latitude":"51.461446","street":{"id":943140,"name":"On or near Enterprise Way"},"longitude":"-0.195984"},"context":"","outcome_status":{"category":"Investigation complete; no suspect identified","date":"2017-11"},"persistent_id":"d136f1d0419436eeb99f6c03d2dd23112ce7f60eb682fe1279ebd27e7686cbe7","id":61129592,"location_subtype":"","month":"2017-11"},{"category":"burglary","location_type":"Force","location":{"latitude":"51.461996","street":{"id":943260,"name":"On or near Werter Road"},"longitude":"-0.214259"},"context":"","outcome_status":{"category":"Status update unavailable","date":"2018-03"},"persistent_id":"f597c3cf4dd0bd133bf735d0132027777c64ae21a0e91ed82d592b7ca6195453","id":61017821,"location_subtype":"","month":"2017-11"},{"category":"burglary","location_type":"Force","location":{"latitude":"51.464157","street":{"id":943300,"name":"On or near Charlwood Road"},"longitude":"-0.220956"},"context":"","outcome_status":{"category":"Status update unavailable","date":"2018-03"},"persistent_id":"b78f823132717cb55cff43f8a55676e5a3bd2a27afe2cd3bcaaa203fc83d7da7","id":61122904,"location_subtype":"","month":"2017-11"},{"category":"criminal-damage-arson","location_type":"Force","location":{"latitude":"51.469226","street":{"id":945137,"name":"On or near Danemere Street"},"longitude":"-0.224372"},"context":"","outcome_status":{"category":"Local resolution","date":"2018-01"},"persistent_id":"30a8f117feb037eed51bbfd1cf3857f87a47a07ce8543da2bb090f2ec7e8cf05","id":61007707,"location_subtype":"","month":"2017-11"},{"category":"criminal-damage-arson","location_type":"Force","location":{"latitude":"51.463805","street":{"id":943276,"name":"On or near Putney High Street"},"longitude":"-0.215571"},"context":"","outcome_status":{"category":"Court result unavailable","date":"2018-05"},"persistent_id":"73a3fe05d60a3aa7f1c640762d151b33bbdbc287e5b08c0bbf835f15e4961e21","id":61018509,"location_subtype":"","month":"2017-11"},{"category":"criminal-damage-arson","location_type":"Force","location":{"latitude":"51.464157","street":{"id":943300,"name":"On or near Charlwood Road"},"longitude":"-0.220956"},"context":"","outcome_status":{"category":"Status update unavailable","date":"2018-03"},"persistent_id":"e165a8bb3f18254bb12ccedd425cad2bce4a8f6a3d2b1495d85d025582b6cb26","id":61102124,"location_subtype":"","month":"2017-11"},{"category":"criminal-damage-arson","location_type":"Force","location":{"latitude":"51.465410","street":{"id":943224,"name":"On or near Dryburgh Road"},"longitude":"-0.230654"},"context":"","outcome_status":{"category":"Investigation complete; no suspect identified","date":"2017-12"},"persistent_id":"69270e90f6e0f4c345e3dce981a69ca991e6f84c35faae131b562d708e910f68","id":61103130,"location_subtype":"","month":"2017-11"},{"category":"criminal-damage-arson","location_type":"Force","location":{"latitude":"51.464789","street":{"id":943318,"name":"On or near Police Station"},"longitude":"-0.214021"},"context":"","outcome_status":{"category":"Status update unavailable","date":"2018-03"},"persistent_id":"8d6d141af75f6339417d2aeee1588f007d0cd9ca53f6ce93cabff7c0e9128b84","id":61132454,"location_subtype":"","month":"2017-11"},{"category":"criminal-damage-arson","location_type":"Force","location":{"latitude":"51.461365","street":{"id":943123,"name":"On or near Northfields"},"longitude":"-0.200666"},"context":"","outcome_status":{"category":"Investigation complete; no suspect identified","date":"2017-12"},"persistent_id":"60af4359973d6ed6cd841208777d6e99ca91bd7e89f0371f5c4e47816b074b91","id":61006035,"location_subtype":"","month":"2017-11"},{"category":"drugs","location_type":"Force","location":{"latitude":"51.467118","street":{"id":945148,"name":"On or near Thames Place"},"longitude":"-0.217011"},"context":"","outcome_status":{"category":"Offender given a drugs possession warning","date":"2017-12"},"persistent_id":"e16c052ef867a4c4aa62e8009cb28b64aec50c2be13196a064ce5d8ffc91988c","id":61121430,"location_subtype":"","month":"2017-11"},{"category":"drugs","location_type":"Force","location":{"latitude":"51.466435","street":{"id":943263,"name":"On or near Waterman Street"},"longitude":"-0.216447"},"context":"","outcome_status":{"category":"Offender given community sentence","date":"2017-12"},"persistent_id":"1a1b956e2039391663838ef1511462a80b4c489391c6425fac6c206dad15586e","id":61103784,"location_subtype":"","month":"2017-11"},{"category":"drugs","location_type":"Force","location":{"latitude":"51.466435","street":{"id":943263,"name":"On or near Waterman Street"},"longitude":"-0.216447"},"context":"","outcome_status":{"category":"Offender given a drugs possession warning","date":"2017-11"},"persistent_id":"739ea308e89e090fdb5252b89ffd4ed6ac6734944787d88378478cd26e6cc645","id":61102053,"location_subtype":"","month":"2017-11"},{"category":"drugs","location_type":"Force","location":{"latitude":"51.464184","street":{"id":943302,"name":"On or near Cardinal Place"},"longitude":"-0.218594"},"context":"","outcome_status":{"category":"Offender sent to prison","date":"2018-02"},"persistent_id":"a99660769de9bde32c4342f6011ab17aa66e9c6963383f237dd30061cbb3aec4","id":61074327,"location_subtype":"","month":"2017-11"},{"category":"drugs","location_type":"Force","location":{"latitude":"51.469275","street":{"id":945133,"name":"On or near Pentlow Street"},"longitude":"-0.225839"},"context":"","outcome_status":{"category":"Status update unavailable","date":"2018-03"},"persistent_id":"c4ffa608ef260acbfe0f8cd9ff4936e334d1d28bd2fec4d55fbc2bb3e51af895","id":61025056,"location_subtype":"","month":"2017-11"},{"category":"drugs","location_type":"Force","location":{"latitude":"51.467118","street":{"id":945148,"name":"On or near Thames Place"},"longitude":"-0.217011"},"context":"","outcome_status":{"category":"Offender fined","date":"2017-12"},"persistent_id":"85ca92f4191190a4eea23a58b6a189ea2ae3e453f9c8114e8826e70d5cd81415","id":61103788,"location_subtype":"","month":"2017-11"},{"category":"other-theft","location_type":"Force","location":{"latitude":"51.460952","street":{"id":943311,"name":"On or near Nightclub"},"longitude":"-0.216603"},"context":"","outcome_status":{"category":"Status update unavailable","date":"2018-03"},"persistent_id":"5ea4f07f83b40d49c2b2a9950c5834c634e111b27c5ae8696021b099bff519dc","id":61039102,"location_subtype":"","month":"2017-11"},{"category":"other-theft","location_type":"Force","location":{"latitude":"51.471020","street":{"id":945128,"name":"On or near Horne Way"},"longitude":"-0.225829"},"context":"","outcome_status":{"category":"Status update unavailable","date":"2018-03"},"persistent_id":"6b1226fe2ebfdb07a80a6259ab44b2d3b7d689516cfe94f76b4dabf2a3b9fa64","id":61033579,"location_subtype":"","month":"2017-11"},{"category":"other-theft","location_type":"Force","location":{"latitude":"51.463906","street":{"id":943314,"name":"On or near Shopping Area"},"longitude":"-0.216287"},"context":"","outcome_status":{"category":"Status update unavailable","date":"2018-03"},"persistent_id":"0402f9694e234463a40faddf939007fa42aac3d1a53e930be55d41e7276342b3","id":61045186,"location_subtype":"","month":"2017-11"},{"category":"other-theft","location_type":"Force","location":{"latitude":"51.460952","street":{"id":943311,"name":"On or near Nightclub"},"longitude":"-0.216603"},"context":"","outcome_status":{"category":"Status update unavailable","date":"2018-03"},"persistent_id":"80d7a8043ea4061ee8ca085cd73523e172b4e6f85beb534cdaa5b0bc1c2c1ddc","id":61018934,"location_subtype":"","month":"2017-11"},{"category":"other-theft","location_type":"Force","location":{"latitude":"51.462011","street":{"id":943312,"name":"On or near Supermarket"},"longitude":"-0.216461"},"context":"","outcome_status":{"category":"Status update unavailable","date":"2018-03"},"persistent_id":"886d203377b2078ecb753860b43dc404ea62cf6ef93990bcb4591ea7a93ca5cf","id":61010956,"location_subtype":"","month":"2017-11"},{"category":"other-theft","location_type":"Force","location":{"latitude":"51.462011","street":{"id":943312,"name":"On or near Supermarket"},"longitude":"-0.216461"},"context":"","outcome_status":{"category":"Status update unavailable","date":"2018-03"},"persistent_id":"3976f3a3111347121262bf1773aabba5233412da806ec57161cdd8ae9460c1c0","id":61005555,"location_subtype":"","month":"2017-11"},{"category":"other-theft","location_type":"Force","location":{"latitude":"51.462806","street":{"id":943280,"name":"On or near Montserrat Road"},"longitude":"-0.213724"},"context":"","outcome_status":{"category":"Status update unavailable","date":"2018-03"},"persistent_id":"47d5ebdd072d5bcbcbd12d5a602c8afc21e9c504ad45742f6dcf8deb6b0b4cd8","id":61007525,"location_subtype":"","month":"2017-11"},{"category":"other-theft","location_type":"Force","location":{"latitude":"51.464522","street":{"id":943357,"name":"On or near Shopping Area"},"longitude":"-0.213067"},"context":"","outcome_status":{"category":"Status update unavailable","date":"2018-03"},"persistent_id":"0f1f61419c00ec944d093983e9675ef0659bf9e5a5329149a1f60b80f0452d6f","id":61075740,"location_subtype":"","month":"2017-11"},{"category":"other-theft","location_type":"Force","location":{"latitude":"51.464074","street":{"id":943313,"name":"On or near Shopping Area"},"longitude":"-0.214941"},"context":"","outcome_status":{"category":"Investigation complete; no suspect identified","date":"2017-11"},"persistent_id":"34274626b7afe1c7573e7ecf25d14fcd48d21200719b8dc6bae478caa2d7ae71","id":61042308,"location_subtype":"","month":"2017-11"},{"category":"other-theft","location_type":"Force","location":{"latitude":"51.462011","street":{"id":943312,"name":"On or near Supermarket"},"longitude":"-0.216461"},"context":"","outcome_status":{"category":"Investigation complete; no suspect identified","date":"2018-06"},"persistent_id":"f4ee1a85c9c769ddf53ea90e305a78c84b86ee34517d325269235e27898eca97","id":61077260,"location_subtype":"","month":"2017-11"},{"category":"other-theft","location_type":"Force","location":{"latitude":"51.465193","street":{"id":943262,"name":"On or near Weimar Street"},"longitude":"-0.215200"},"context":"","outcome_status":{"category":"Status update unavailable","date":"2018-03"},"persistent_id":"ccf253767cbdbdad945c0b7a2e10180cd4d0d1c12a09e1e29c3f1be22b44aa4b","id":61093539,"location_subtype":"","month":"2017-11"},{"category":"other-theft","location_type":"Force","location":{"latitude":"51.465193","street":{"id":943262,"name":"On or near Weimar Street"},"longitude":"-0.215200"},"context":"","outcome_status":{"category":"Status update unavailable","date":"2018-03"},"persistent_id":"0b750ebc198a03405919d91145e2b36480474e430d9475fba144ddd56e1f9619","id":61094586,"location_subtype":"","month":"2017-11"},{"category":"other-theft","location_type":"Force","location":{"latitude":"51.465193","street":{"id":943262,"name":"On or near Weimar Street"},"longitude":"-0.215200"},"context":"","outcome_status":{"category":"Status update unavailable","date":"2018-03"},"persistent_id":"0b750ebc198a03405919d91145e2b36480474e430d9475fba144ddd56e1f9619","id":61094588,"location_subtype":"","month":"2017-11"},{"category":"other-theft","location_type":"Force","location":{"latitude":"51.463711","street":{"id":943315,"name":"On or near Supermarket"},"longitude":"-0.217043"},"context":"","outcome_status":{"category":"Status update unavailable","date":"2018-03"},"persistent_id":"b73b96fae2b0168e6650a17e345eca6cf460e6194c30df37b3a26592828c7015","id":61106314,"location_subtype":"","month":"2017-11"},{"category":"other-theft","location_type":"Force","location":{"latitude":"51.463805","street":{"id":943276,"name":"On or near Putney High Street"},"longitude":"-0.215571"},"context":"","outcome_status":{"category":"Status update unavailable","date":"2018-03"},"persistent_id":"cd10b060d56ffdf5bf643a57c1a02e6cf21bf98618192acfc23cf8e5948d85b8","id":61106429,"location_subtype":"","month":"2017-11"},{"category":"other-theft","location_type":"Force","location":{"latitude":"51.463805","street":{"id":943276,"name":"On or near Putney High Street"},"longitude":"-0.215571"},"context":"","outcome_status":{"category":"Status update unavailable","date":"2018-03"},"persistent_id":"4a1d4d8d8fdce9d74f40054c64ee5cbe072ea3586a1d069c8f273bc604cd5fa1","id":61113315,"location_subtype":"","month":"2017-11"},{"category":"other-theft","location_type":"Force","location":{"latitude":"51.459684","street":{"id":943111,"name":"On or near Carlton Drive"},"longitude":"-0.211888"},"context":"","outcome_status":{"category":"Investigation complete; no suspect identified","date":"2017-12"},"persistent_id":"474808f9fdac19dbeca9f720a53226201acd34255266996cdf83461062c98a76","id":61132564,"location_subtype":"","month":"2017-11"},{"category":"other-theft","location_type":"Force","location":{"latitude":"51.471020","street":{"id":945128,"name":"On or near Horne Way"},"longitude":"-0.225829"},"context":"","outcome_status":{"category":"Investigation complete; no suspect identified","date":"2017-12"},"persistent_id":"fca2d7249e19f5186a52bc3916f14b09c9fb65ad96404e9b277e64accde38192","id":61075875,"location_subtype":"","month":"2017-11"},{"category":"other-theft","location_type":"Force","location":{"latitude":"51.466449","street":{"id":943221,"name":"On or near Erpingham Road"},"longitude":"-0.226870"},"context":"","outcome_status":{"category":"Investigation complete; no suspect identified","date":"2018-03"},"persistent_id":"abc267b7f1b0a58a82c9e764a75e94e6917aefd1fd2856602fc798980ba8fe79","id":61056027,"location_subtype":"","month":"2017-11"},{"category":"possession-of-weapons","location_type":"Force","location":{"latitude":"51.468650","street":{"id":945157,"name":"On or near Bendemeer Road"},"longitude":"-0.220162"},"context":"","outcome_status":{"category":"Court result unavailable","date":"2018-05"},"persistent_id":"7b7117d3e3f47bdd47e36ecf1944e3fbe73a4e129ed3432b796a4166c3eb534c","id":61092146,"location_subtype":"","month":"2017-11"},{"category":"public-order","location_type":"Force","location":{"latitude":"51.464789","street":{"id":943318,"name":"On or near Police Station"},"longitude":"-0.214021"},"context":"","outcome_status":{"category":"Investigation complete; no suspect identified","date":"2017-11"},"persistent_id":"14f23b297086006ae631fec760df97691bd7064dad9bdabfa6237e597b5224fa","id":61129264,"location_subtype":"","month":"2017-11"},{"category":"public-order","location_type":"Force","location":{"latitude":"51.461578","street":{"id":943136,"name":"On or near Osiers Road"},"longitude":"-0.198124"},"context":"","outcome_status":{"category":"Status update unavailable","date":"2018-03"},"persistent_id":"1f9e4e3149005a02ea9644c2c37af3784d2789350f0e5ad4848ce6ac4e8a2502","id":61066661,"location_subtype":"","month":"2017-11"},{"category":"public-order","location_type":"Force","location":{"latitude":"51.464770","street":{"id":943307,"name":"On or near Brewhouse Street"},"longitude":"-0.213402"},"context":"","outcome_status":{"category":"Status update unavailable","date":"2018-03"},"persistent_id":"aab6d84ae3a197d48223e654a29f8197e6418a383f0adf70975866c75e31f05b","id":61042440,"location_subtype":"","month":"2017-11"},{"category":"public-order","location_type":"Force","location":{"latitude":"51.462105","street":{"id":943316,"name":"On or near Supermarket"},"longitude":"-0.215522"},"context":"","outcome_status":{"category":"Status update unavailable","date":"2018-03"},"persistent_id":"ea3a3f9d747864dde3bdbfad760326970f52f7200a4b110679bd35eb69ac00c8","id":61016276,"location_subtype":"","month":"2017-11"},{"category":"public-order","location_type":"Force","location":{"latitude":"51.469257","street":{"id":945156,"name":"On or near Festing Road"},"longitude":"-0.222269"},"context":"","outcome_status":{"category":"Investigation complete; no suspect identified","date":"2017-12"},"persistent_id":"cd201dbc7eeebc99719aeeb32b090f441aa86e4682b7ca8d5ad637663e9d674d","id":61006981,"location_subtype":"","month":"2017-11"},{"category":"public-order","location_type":"Force","location":{"latitude":"51.470235","street":{"id":945131,"name":"On or near Stockhurst Close"},"longitude":"-0.223311"},"context":"","outcome_status":{"category":"Investigation complete; no suspect identified","date":"2017-12"},"persistent_id":"76d5938b66d0df647258407b413cbb10e3e02c4512124db6f4727c1efa73f7e9","id":61122576,"location_subtype":"","month":"2017-11"},{"category":"public-order","location_type":"Force","location":{"latitude":"51.462105","street":{"id":943316,"name":"On or near Supermarket"},"longitude":"-0.215522"},"context":"","outcome_status":{"category":"Investigation complete; no suspect identified","date":"2017-12"},"persistent_id":"ea3a3f9d747864dde3bdbfad760326970f52f7200a4b110679bd35eb69ac00c8","id":61017752,"location_subtype":"","month":"2017-11"},{"category":"robbery","location_type":"Force","location":{"latitude":"51.467343","street":{"id":945152,"name":"On or near Roskell Road"},"longitude":"-0.222358"},"context":"","outcome_status":{"category":"Status update unavailable","date":"2018-03"},"persistent_id":"4dd24846e6c241e1c69bfb493704a2a271067111426006aed874e1e6608f1750","id":61018868,"location_subtype":"","month":"2017-11"},{"category":"robbery","location_type":"Force","location":{"latitude":"51.466779","street":{"id":943308,"name":"On or near Bigg's Row"},"longitude":"-0.220119"},"context":"","outcome_status":{"category":"Investigation complete; no suspect identified","date":"2018-04"},"persistent_id":"af3fb874e079b0c4a5162994fa3fc3d9ed7953e9d6efbdb506c041fa8f3a7559","id":61120312,"location_subtype":"","month":"2017-11"},{"category":"robbery","location_type":"Force","location":{"latitude":"51.464609","street":{"id":943289,"name":"On or near Glegg Place"},"longitude":"-0.218779"},"context":"","outcome_status":{"category":"Status update unavailable","date":"2018-03"},"persistent_id":"2840733e3617b228dd897ed48dc541d091b19ae6aa0c0e115872be8cab18676d","id":61100055,"location_subtype":"","month":"2017-11"},{"category":"robbery","location_type":"Force","location":{"latitude":"51.463906","street":{"id":943314,"name":"On or near Shopping Area"},"longitude":"-0.216287"},"context":"","outcome_status":{"category":"Investigation complete; no suspect identified","date":"2018-03"},"persistent_id":"cf4d0db2d59fa8cb1ea58c9158949f1497dee3368fb3b975ff1b97fb637b3e82","id":61005868,"location_subtype":"","month":"2017-11"},{"category":"shoplifting","location_type":"Force","location":{"latitude":"51.463622","street":{"id":943267,"name":"On or near Token Yard"},"longitude":"-0.215348"},"context":"","outcome_status":{"category":"Status update unavailable","date":"2018-03"},"persistent_id":"616ebd6ee7b319e5f951d438e4263f4ef5ee76c1ce1ebc8428f276c8e885bdce","id":61070548,"location_subtype":"","month":"2017-11"},{"category":"shoplifting","location_type":"Force","location":{"latitude":"51.463711","street":{"id":943315,"name":"On or near Supermarket"},"longitude":"-0.217043"},"context":"","outcome_status":{"category":"Status update unavailable","date":"2018-03"},"persistent_id":"f789cfcf5a595dd613ed2948be4a552403e4b70130d6e216ea747a5315754a09","id":61097561,"location_subtype":"","month":"2017-11"},{"category":"shoplifting","location_type":"Force","location":{"latitude":"51.463622","street":{"id":943267,"name":"On or near Token Yard"},"longitude":"-0.215348"},"context":"","outcome_status":{"category":"Status update unavailable","date":"2018-03"},"persistent_id":"b4a1cb1ec6b54c4c6ffaeb51ce15603d0110c37b3782af9e75a0a9429571db02","id":61134323,"location_subtype":"","month":"2017-11"},{"category":"shoplifting","location_type":"Force","location":{"latitude":"51.464578","street":{"id":943317,"name":"On or near Shopping Area"},"longitude":"-0.215512"},"context":"","outcome_status":{"category":"Investigation complete; no suspect identified","date":"2017-11"},"persistent_id":"252f969e60dba5dda74a0cc3ba79c702feea201057de68558f57d44ad2adc180","id":61082333,"location_subtype":"","month":"2017-11"},{"category":"shoplifting","location_type":"Force","location":{"latitude":"51.463805","street":{"id":943276,"name":"On or near Putney High Street"},"longitude":"-0.215571"},"context":"","outcome_status":{"category":"Offender otherwise dealt with","date":"2017-12"},"persistent_id":"5a7e680cd4b100f538245756693a08b2adbe3b17c005f35b9e25b51199fff341","id":61124082,"location_subtype":"","month":"2017-11"},{"category":"shoplifting","location_type":"Force","location":{"latitude":"51.462011","street":{"id":943312,"name":"On or near Supermarket"},"longitude":"-0.216461"},"context":"","outcome_status":{"category":"Status update unavailable","date":"2018-03"},"persistent_id":"4a19d5836bc03d8cf3f5f3dfd8f5de66240685fec351865ab5461c458abc6f7e","id":61124136,"location_subtype":"","month":"2017-11"},{"category":"shoplifting","location_type":"Force","location":{"latitude":"51.462105","street":{"id":943316,"name":"On or near Supermarket"},"longitude":"-0.215522"},"context":"","outcome_status":{"category":"Investigation complete; no suspect identified","date":"2017-12"},"persistent_id":"b778366e0c76ee8fc09c3137b5771835b883591f02a4a674876f637157b58ce9","id":61065872,"location_subtype":"","month":"2017-11"},{"category":"shoplifting","location_type":"Force","location":{"latitude":"51.464578","street":{"id":943317,"name":"On or near Shopping Area"},"longitude":"-0.215512"},"context":"","outcome_status":{"category":"Status update unavailable","date":"2018-03"},"persistent_id":"c77fd9d650c440686bf4c3468a29f0043e647ba1dfa2e1df11834f5e4d4fd854","id":61077275,"location_subtype":"","month":"2017-11"},{"category":"shoplifting","location_type":"Force","location":{"latitude":"51.463805","street":{"id":943276,"name":"On or near Putney High Street"},"longitude":"-0.215571"},"context":"","outcome_status":{"category":"Status update unavailable","date":"2018-03"},"persistent_id":"1bda38905a9ce99363007ec9a72ad5f90d221325b9b85403497413a9f5370e78","id":61065876,"location_subtype":"","month":"2017-11"},{"category":"shoplifting","location_type":"Force","location":{"latitude":"51.462105","street":{"id":943316,"name":"On or near Supermarket"},"longitude":"-0.215522"},"context":"","outcome_status":{"category":"Local resolution","date":"2017-12"},"persistent_id":"98defa5c0b2aab7470122ed5a06c082b2c93b60ba7f5eb48dce55d33e731c671","id":61070544,"location_subtype":"","month":"2017-11"},{"category":"shoplifting","location_type":"Force","location":{"latitude":"51.462105","street":{"id":943316,"name":"On or near Supermarket"},"longitude":"-0.215522"},"context":"","outcome_status":{"category":"Investigation complete; no suspect identified","date":"2017-12"},"persistent_id":"c6d8e24330c3db3636446c77b1dc3ebe29caec6bfd6ea2521d7bf294c0f02610","id":61072244,"location_subtype":"","month":"2017-11"},{"category":"shoplifting","location_type":"Force","location":{"latitude":"51.462105","street":{"id":943316,"name":"On or near Supermarket"},"longitude":"-0.215522"},"context":"","outcome_status":{"category":"Status update unavailable","date":"2018-03"},"persistent_id":"df2381d90ac371460633837b77c195aad97574f78cce4fe639c66dd4235ff1ff","id":61095373,"location_subtype":"","month":"2017-11"},{"category":"theft-from-the-person","location_type":"Force","location":{"latitude":"51.459684","street":{"id":943111,"name":"On or near Carlton Drive"},"longitude":"-0.211888"},"context":"","outcome_status":{"category":"Investigation complete; no suspect identified","date":"2017-11"},"persistent_id":"9158c5a0d60f81f3d89bc9af9d4c2103267e54443ee104bfbb657fad5bf20573","id":61077858,"location_subtype":"","month":"2017-11"},{"category":"theft-from-the-person","location_type":"Force","location":{"latitude":"51.464074","street":{"id":943313,"name":"On or near Shopping Area"},"longitude":"-0.214941"},"context":"","outcome_status":{"category":"Status update unavailable","date":"2018-03"},"persistent_id":"6ec20640210b3eac4a9031b0e4d61421fbbedf225e2603e62055f6e5603b7358","id":61120835,"location_subtype":"","month":"2017-11"},{"category":"theft-from-the-person","location_type":"Force","location":{"latitude":"51.461578","street":{"id":943136,"name":"On or near Osiers Road"},"longitude":"-0.198124"},"context":"","outcome_status":{"category":"Status update unavailable","date":"2018-03"},"persistent_id":"394b88c912b6752cd8c374fe81ab87703bc8c04d9641c87f9f60e5afa3d54ac1","id":61062792,"location_subtype":"","month":"2017-11"},{"category":"theft-from-the-person","location_type":"Force","location":{"latitude":"51.468007","street":{"id":945154,"name":"On or near Glendarvon Street"},"longitude":"-0.219294"},"context":"","outcome_status":{"category":"Status update unavailable","date":"2018-03"},"persistent_id":"4ce0ec8fffdd09dde701604451c80482fae8918692d3da68629af80edf11ee29","id":61012805,"location_subtype":"","month":"2017-11"},{"category":"theft-from-the-person","location_type":"Force","location":{"latitude":"51.460952","street":{"id":943311,"name":"On or near Nightclub"},"longitude":"-0.216603"},"context":"","outcome_status":{"category":"Status update unavailable","date":"2018-03"},"persistent_id":"fcc3e0e57475e7bbbb685398f6c35bcef4be45b49aeb6cb62dd1d078abb30096","id":61078042,"location_subtype":"","month":"2017-11"},{"category":"vehicle-crime","location_type":"Force","location":{"latitude":"51.466435","street":{"id":943263,"name":"On or near Waterman Street"},"longitude":"-0.216447"},"context":"","outcome_status":{"category":"Status update unavailable","date":"2018-03"},"persistent_id":"fa19eb695ffac22dd574248ad419c803ece95fcc4f10f095ad6575f1655ec0a1","id":61126605,"location_subtype":"","month":"2017-11"},{"category":"vehicle-crime","location_type":"Force","location":{"latitude":"51.463293","street":{"id":943270,"name":"On or near Spencer Walk"},"longitude":"-0.222098"},"context":"","outcome_status":{"category":"Status update unavailable","date":"2018-03"},"persistent_id":"478e15b8c9ebfc0e13c4ba70e086ec2540df79e231045768dd1a4f686681ff5a","id":61129052,"location_subtype":"","month":"2017-11"},{"category":"vehicle-crime","location_type":"Force","location":{"latitude":"51.467574","street":{"id":945135,"name":"On or near Farlow Road"},"longitude":"-0.223371"},"context":"","outcome_status":{"category":"Status update unavailable","date":"2018-03"},"persistent_id":"7ba9c85553d7bb90d83c4680dd20e34d8dd1c4fa74332421ea69cb462c5add00","id":61009843,"location_subtype":"","month":"2017-11"},{"category":"vehicle-crime","location_type":"Force","location":{"latitude":"51.466435","street":{"id":943263,"name":"On or near Waterman Street"},"longitude":"-0.216447"},"context":"","outcome_status":{"category":"Investigation complete; no suspect identified","date":"2017-12"},"persistent_id":"45db87a0e3abe0e1d7144cea8e99f49463ee932657d41ee43ee4b995b7537242","id":61130650,"location_subtype":"","month":"2017-11"},{"category":"vehicle-crime","location_type":"Force","location":{"latitude":"51.464609","street":{"id":943289,"name":"On or near Glegg Place"},"longitude":"-0.218779"},"context":"","outcome_status":{"category":"Status update unavailable","date":"2018-03"},"persistent_id":"e156ccee20d3d67d1c49a17a30c64c8d51a73fad642d9e4b17934dd99d5ed4e0","id":61113238,"location_subtype":"","month":"2017-11"},{"category":"vehicle-crime","location_type":"Force","location":{"latitude":"51.465410","street":{"id":943224,"name":"On or near Dryburgh Road"},"longitude":"-0.230654"},"context":"","outcome_status":{"category":"Status update unavailable","date":"2018-03"},"persistent_id":"9028518984d027b3778a935212ced0cb0ce459a8f7bd1b3e05bec4730cd97c96","id":61044746,"location_subtype":"","month":"2017-11"},{"category":"vehicle-crime","location_type":"Force","location":{"latitude":"51.464851","street":{"id":943282,"name":"On or near Mascotte Road"},"longitude":"-0.216955"},"context":"","outcome_status":{"category":"Status update unavailable","date":"2018-03"},"persistent_id":"cd39653a4d505f708d0eb1c68bcabcee3ec17f5928825266b5044edab83bf9bc","id":61045738,"location_subtype":"","month":"2017-11"},{"category":"vehicle-crime","location_type":"Force","location":{"latitude":"51.461578","street":{"id":943136,"name":"On or near Osiers Road"},"longitude":"-0.198124"},"context":"","outcome_status":{"category":"Status update unavailable","date":"2018-03"},"persistent_id":"675a567ed7c10c9bd4dbb96c6564a225f2cc187b8236c9a2843f4aa540ba3e85","id":61068666,"location_subtype":"","month":"2017-11"},{"category":"vehicle-crime","location_type":"Force","location":{"latitude":"51.465193","street":{"id":943262,"name":"On or near Weimar Street"},"longitude":"-0.215200"},"context":"","outcome_status":{"category":"Status update unavailable","date":"2018-03"},"persistent_id":"e16213da9fedb8d13e9282744fcf0e5f08aef849639b6c562a4c3c877de654f3","id":61105035,"location_subtype":"","month":"2017-11"},{"category":"vehicle-crime","location_type":"Force","location":{"latitude":"51.461365","street":{"id":943123,"name":"On or near Northfields"},"longitude":"-0.200666"},"context":"","outcome_status":{"category":"Investigation complete; no suspect identified","date":"2018-01"},"persistent_id":"67ee247dfea86ff8770501896af8b7cf987c49d3a5dfb50b6e77611f58e7116a","id":61048557,"location_subtype":"","month":"2017-11"},{"category":"vehicle-crime","location_type":"Force","location":{"latitude":"51.467118","street":{"id":945148,"name":"On or near Thames Place"},"longitude":"-0.217011"},"context":"","outcome_status":{"category":"Status update unavailable","date":"2018-03"},"persistent_id":"878acd690f636783649ada4272384215b627983764c85d3dd3a7c4e303b027bd","id":61118098,"location_subtype":"","month":"2017-11"},{"category":"vehicle-crime","location_type":"Force","location":{"latitude":"51.466558","street":{"id":943223,"name":"On or near Egliston Mews"},"longitude":"-0.228709"},"context":"","outcome_status":{"category":"Status update unavailable","date":"2018-03"},"persistent_id":"d2d37fc1d30be633b8e5a3a5737cf3e87d8c675b6273b1010821c1cb59910f7a","id":61118360,"location_subtype":"","month":"2017-11"},{"category":"vehicle-crime","location_type":"Force","location":{"latitude":"51.461365","street":{"id":943123,"name":"On or near Northfields"},"longitude":"-0.200666"},"context":"","outcome_status":{"category":"Status update unavailable","date":"2018-03"},"persistent_id":"907517e23206c9d7adc97de15600fdf9a3764268fd7ae07f67913d4c777ca812","id":61076889,"location_subtype":"","month":"2017-11"},{"category":"vehicle-crime","location_type":"Force","location":{"latitude":"51.461446","street":{"id":943140,"name":"On or near Enterprise Way"},"longitude":"-0.195984"},"context":"","outcome_status":{"category":"Status update unavailable","date":"2018-03"},"persistent_id":"614337e0db3559507d3915c6253a2617f94f36d467ff2081b6eb7c766a1b070c","id":61004827,"location_subtype":"","month":"2017-11"},{"category":"vehicle-crime","location_type":"Force","location":{"latitude":"51.467809","street":{"id":945136,"name":"On or near Fanthorpe Street"},"longitude":"-0.225810"},"context":"","outcome_status":{"category":"Status update unavailable","date":"2018-03"},"persistent_id":"93558acbf7556909b76e63dedebef20425d608b39f533a666bc850e6391a5338","id":61132860,"location_subtype":"","month":"2017-11"},{"category":"vehicle-crime","location_type":"Force","location":{"latitude":"51.465193","street":{"id":943262,"name":"On or near Weimar Street"},"longitude":"-0.215200"},"context":"","outcome_status":{"category":"Status update unavailable","date":"2018-03"},"persistent_id":"11696569faa87a3a96bfd9b2863e5ad9f17dabda3d22cb6559a45cc203f67ffd","id":61133957,"location_subtype":"","month":"2017-11"},{"category":"vehicle-crime","location_type":"Force","location":{"latitude":"51.464578","street":{"id":943317,"name":"On or near Shopping Area"},"longitude":"-0.215512"},"context":"","outcome_status":{"category":"Status update unavailable","date":"2018-03"},"persistent_id":"7f571550fd80fae1ee58b3d3da31d93df6e71b203c4550a074811b84242a1ae8","id":61033782,"location_subtype":"","month":"2017-11"},{"category":"vehicle-crime","location_type":"Force","location":{"latitude":"51.460647","street":{"id":943134,"name":"On or near Prospect Cottages"},"longitude":"-0.199600"},"context":"","outcome_status":{"category":"Status update unavailable","date":"2018-03"},"persistent_id":"effce5c07ac8309bc5cfb9de7e6507b0e3d621d4d41a8520b5a6088a79d38185","id":61004087,"location_subtype":"","month":"2017-11"},{"category":"vehicle-crime","location_type":"Force","location":{"latitude":"51.467343","street":{"id":945152,"name":"On or near Roskell Road"},"longitude":"-0.222358"},"context":"","outcome_status":{"category":"Status update unavailable","date":"2018-03"},"persistent_id":"d19600bd0925db0fb5806c35d2a7427a150d7c389430f590293a847bc0527e7c","id":61129186,"location_subtype":"","month":"2017-11"},{"category":"vehicle-crime","location_type":"Force","location":{"latitude":"51.463293","street":{"id":943270,"name":"On or near Spencer Walk"},"longitude":"-0.222098"},"context":"","outcome_status":{"category":"Status update unavailable","date":"2018-03"},"persistent_id":"6287c8606155242061faea360dacc0e4b84f9cbef37c6315549c9a702e2d9fd6","id":61081357,"location_subtype":"","month":"2017-11"},{"category":"vehicle-crime","location_type":"Force","location":{"latitude":"51.463906","street":{"id":943314,"name":"On or near Shopping Area"},"longitude":"-0.216287"},"context":"","outcome_status":{"category":"Status update unavailable","date":"2018-03"},"persistent_id":"a11408603f139e9d8663a9502ab057923eb26c7a699e92470d95afae2c75ebff","id":61019415,"location_subtype":"","month":"2017-11"},{"category":"vehicle-crime","location_type":"Force","location":{"latitude":"51.469257","street":{"id":945156,"name":"On or near Festing Road"},"longitude":"-0.222269"},"context":"","outcome_status":{"category":"Status update unavailable","date":"2018-03"},"persistent_id":"ca5e85705eac08c39f363baabfa947cd0b13ffc9795240ae3ffae8b2ec663a95","id":61019414,"location_subtype":"","month":"2017-11"},{"category":"vehicle-crime","location_type":"Force","location":{"latitude":"51.464965","street":{"id":943247,"name":"On or near Earldom Road"},"longitude":"-0.225071"},"context":"","outcome_status":{"category":"Investigation complete; no suspect identified","date":"2018-02"},"persistent_id":"c819eac6181e6af0089117c38e6275992b66162f2f99e7018a44ed6d5a2519d2","id":61132249,"location_subtype":"","month":"2017-11"},{"category":"vehicle-crime","location_type":"Force","location":{"latitude":"51.465082","street":{"id":943288,"name":"On or near Gwalior Road"},"longitude":"-0.217925"},"context":"","outcome_status":{"category":"Status update unavailable","date":"2018-03"},"persistent_id":"62fb39c12fc7fdf5da269dbf52b04fdbe3dcb0eca504bc92b304e89783006b72","id":61087990,"location_subtype":"","month":"2017-11"},{"category":"vehicle-crime","location_type":"Force","location":{"latitude":"51.468832","street":{"id":945151,"name":"On or near Rotherwood Road"},"longitude":"-0.221465"},"context":"","outcome_status":{"category":"Status update unavailable","date":"2018-03"},"persistent_id":"11a347ece879dc6ae6e907ec9fc3a8932974eedf63b851c813bee0756cab9a06","id":61092596,"location_subtype":"","month":"2017-11"},{"category":"vehicle-crime","location_type":"Force","location":{"latitude":"51.464714","street":{"id":943238,"name":"On or near Rossdale Road"},"longitude":"-0.223885"},"context":"","outcome_status":{"category":"Offender given suspended prison sentence","date":"2018-01"},"persistent_id":"fee49140d6cd93dae482d5b5afbeb1bb18062f7f9f9729b6abfdb26557ad940e","id":61130335,"location_subtype":"","month":"2017-11"},{"category":"vehicle-crime","location_type":"Force","location":{"latitude":"51.467615","street":{"id":945150,"name":"On or near Ruvigny Gardens"},"longitude":"-0.218330"},"context":"","outcome_status":{"category":"Status update unavailable","date":"2018-03"},"persistent_id":"3d5e9d69c1075cf38ac6d5f3409340e4a67d1c0b6e397770d03ca058c554edd9","id":61095022,"location_subtype":"","month":"2017-11"},{"category":"vehicle-crime","location_type":"Force","location":{"latitude":"51.466507","street":{"id":943255,"name":"On or near Abbotstone Road"},"longitude":"-0.225299"},"context":"","outcome_status":{"category":"Investigation complete; no suspect identified","date":"2017-11"},"persistent_id":"71684f47d972f4641c7a544750c38c50191394f575a70f1510d2f0513fe6fce0","id":61095023,"location_subtype":"","month":"2017-11"},{"category":"vehicle-crime","location_type":"Force","location":{"latitude":"51.460647","street":{"id":943134,"name":"On or near Prospect Cottages"},"longitude":"-0.199600"},"context":"","outcome_status":{"category":"Status update unavailable","date":"2018-03"},"persistent_id":"254113bfef9b81ac15f9bdf1bfb5124715379c349520e5105dded9e13f848620","id":61096473,"location_subtype":"","month":"2017-11"},{"category":"vehicle-crime","location_type":"Force","location":{"latitude":"51.465687","street":{"id":943252,"name":"On or near Blackett Street"},"longitude":"-0.222869"},"context":"","outcome_status":{"category":"Status update unavailable","date":"2018-03"},"persistent_id":"dbec928de69f1005197e91e6aa08eef4994307a1b33bb4598f2769baf91e1347","id":61101222,"location_subtype":"","month":"2017-11"},{"category":"vehicle-crime","location_type":"Force","location":{"latitude":"51.461347","street":{"id":943135,"name":"On or near Point Pleasant"},"longitude":"-0.199472"},"context":"","outcome_status":{"category":"Investigation complete; no suspect identified","date":"2017-12"},"persistent_id":"4effb7e8e96a0228dbf9f3ea8a7b9d58232015bc00803f4d99f89bfaa7f8f0e1","id":61033779,"location_subtype":"","month":"2017-11"},{"category":"vehicle-crime","location_type":"Force","location":{"latitude":"51.465193","street":{"id":943262,"name":"On or near Weimar Street"},"longitude":"-0.215200"},"context":"","outcome_status":{"category":"Status update unavailable","date":"2018-03"},"persistent_id":"42a911c0125878610cb1cc870315699a09b0619982330e2511af9e6f432e4dba","id":61102699,"location_subtype":"","month":"2017-11"},{"category":"vehicle-crime","location_type":"Force","location":{"latitude":"51.460647","street":{"id":943134,"name":"On or near Prospect Cottages"},"longitude":"-0.199600"},"context":"","outcome_status":{"category":"Status update unavailable","date":"2018-03"},"persistent_id":"313b136f817c8cce1ac875c9bd0a37bb2c27e80ceede49fd50ac6092086b3daf","id":61056124,"location_subtype":"","month":"2017-11"},{"category":"vehicle-crime","location_type":"Force","location":{"latitude":"51.464851","street":{"id":943282,"name":"On or near Mascotte Road"},"longitude":"-0.216955"},"context":"","outcome_status":{"category":"Status update unavailable","date":"2018-03"},"persistent_id":"9a0a7688badaf617035eead0a556ea44e930fab63853a250791bda33894542e1","id":61068528,"location_subtype":"","month":"2017-11"},{"category":"vehicle-crime","location_type":"Force","location":{"latitude":"51.465193","street":{"id":943262,"name":"On or near Weimar Street"},"longitude":"-0.215200"},"context":"","outcome_status":{"category":"Status update unavailable","date":"2018-03"},"persistent_id":"db0b0e1cd52e933fa5da0613ccee2b4d77e5acf6ef0ed240b2c6ec26ecbf48c1","id":61122639,"location_subtype":"","month":"2017-11"},{"category":"vehicle-crime","location_type":"Force","location":{"latitude":"51.464033","street":{"id":943109,"name":"On or near Deodar Road"},"longitude":"-0.209890"},"context":"","outcome_status":{"category":"Status update unavailable","date":"2018-03"},"persistent_id":"4f7e20f31ebc2c002791b570f0496be4e202f9691075c46ad3ece1f4fe4bae87","id":61122768,"location_subtype":"","month":"2017-11"},{"category":"vehicle-crime","location_type":"Force","location":{"latitude":"51.462120","street":{"id":943107,"name":"On or near Esmond Street"},"longitude":"-0.210627"},"context":"","outcome_status":{"category":"Status update unavailable","date":"2018-03"},"persistent_id":"f0ca271dffb3ed2d82c3d8fa11a1eb37ca8d09c85f05a0fab2bd17890ccd639a","id":61124815,"location_subtype":"","month":"2017-11"},{"category":"violent-crime","location_type":"Force","location":{"latitude":"51.471020","street":{"id":945128,"name":"On or near Horne Way"},"longitude":"-0.225829"},"context":"","outcome_status":{"category":"Investigation complete; no suspect identified","date":"2018-03"},"persistent_id":"dc810e1825319bf84d1a0662078f8d5779b97aeea45fcdc008dc6fdf84d87838","id":61010278,"location_subtype":"","month":"2017-11"},{"category":"violent-crime","location_type":"Force","location":{"latitude":"51.460952","street":{"id":943311,"name":"On or near Nightclub"},"longitude":"-0.216603"},"context":"","outcome_status":{"category":"Status update unavailable","date":"2018-03"},"persistent_id":"65b0a8ddbb88b825aa342f74660da6500e2226c2c35f7e10f99b90043bcb2776","id":61034089,"location_subtype":"","month":"2017-11"},{"category":"violent-crime","location_type":"Force","location":{"latitude":"51.466437","street":{"id":943309,"name":"On or near Bemish Road"},"longitude":"-0.218333"},"context":"","outcome_status":{"category":"Investigation complete; no suspect identified","date":"2018-01"},"persistent_id":"0358d7ce8960bc58738a7b7f31104900be6cbbd5c478cc7d3df13f9b7ec597da","id":61006177,"location_subtype":"","month":"2017-11"},{"category":"violent-crime","location_type":"Force","location":{"latitude":"51.463146","street":{"id":943116,"name":"On or near Atney Road"},"longitude":"-0.212429"},"context":"","outcome_status":{"category":"Investigation complete; no suspect identified","date":"2018-01"},"persistent_id":"cf74c52ed2ea92b70a1d76280469930ef9f86967344dc1db56f630a59eba9780","id":61019053,"location_subtype":"","month":"2017-11"},{"category":"violent-crime","location_type":"Force","location":{"latitude":"51.463906","street":{"id":943314,"name":"On or near Shopping Area"},"longitude":"-0.216287"},"context":"","outcome_status":{"category":"Status update unavailable","date":"2018-03"},"persistent_id":"c852ab34c87423e502e69555b6fe8e5795d38a429b079f4e174d669bad4973e2","id":61031824,"location_subtype":"","month":"2017-11"},{"category":"violent-crime","location_type":"Force","location":{"latitude":"51.463805","street":{"id":943276,"name":"On or near Putney High Street"},"longitude":"-0.215571"},"context":"","outcome_status":{"category":"Status update unavailable","date":"2018-03"},"persistent_id":"73a3fe05d60a3aa7f1c640762d151b33bbdbc287e5b08c0bbf835f15e4961e21","id":61017505,"location_subtype":"","month":"2017-11"},{"category":"violent-crime","location_type":"Force","location":{"latitude":"51.463805","street":{"id":943276,"name":"On or near Putney High Street"},"longitude":"-0.215571"},"context":"","outcome_status":{"category":"Status update unavailable","date":"2018-03"},"persistent_id":"1fafafcad32abaa3ce27a74b901db583b6c42f2cc80b0c231b2fb51b2fa8f947","id":61117431,"location_subtype":"","month":"2017-11"},{"category":"violent-crime","location_type":"BTP","location":{"latitude":"51.461300","street":{"id":1488015,"name":"Putney (station)"},"longitude":"-0.215911"},"context":"","outcome_status":{"category":"Status update unavailable","date":"2018-03"},"persistent_id":"","id":66340105,"location_subtype":"STATION","month":"2017-11"},{"category":"violent-crime","location_type":"Force","location":{"latitude":"51.462462","street":{"id":943258,"name":"On or near Parking Area"},"longitude":"-0.220662"},"context":"","outcome_status":{"category":"Investigation complete; no suspect identified","date":"2017-11"},"persistent_id":"9276cdac80c2ec012a1c26b42634d4a1e76908e7562476b636d4e8706e25a142","id":61108414,"location_subtype":"","month":"2017-11"},{"category":"violent-crime","location_type":"Force","location":{"latitude":"51.463293","street":{"id":943270,"name":"On or near Spencer Walk"},"longitude":"-0.222098"},"context":"","outcome_status":{"category":"Status update unavailable","date":"2018-03"},"persistent_id":"d70df0a54bcd92c9a86f1d1334fa9edee25ce2adb4598b36dc50143f2466096d","id":61084906,"location_subtype":"","month":"2017-11"},{"category":"violent-crime","location_type":"Force","location":{"latitude":"51.463805","street":{"id":943276,"name":"On or near Putney High Street"},"longitude":"-0.215571"},"context":"","outcome_status":{"category":"Status update unavailable","date":"2018-03"},"persistent_id":"73a3fe05d60a3aa7f1c640762d151b33bbdbc287e5b08c0bbf835f15e4961e21","id":61017506,"location_subtype":"","month":"2017-11"},{"category":"violent-crime","location_type":"Force","location":{"latitude":"51.463805","street":{"id":943276,"name":"On or near Putney High Street"},"longitude":"-0.215571"},"context":"","outcome_status":{"category":"Status update unavailable","date":"2018-03"},"persistent_id":"bfbbe68cdd27ec515c84ff4add2cd5d8eca933f4226f7570517e45dfd95dd923","id":61096771,"location_subtype":"","month":"2017-11"},{"category":"violent-crime","location_type":"Force","location":{"latitude":"51.463622","street":{"id":943267,"name":"On or near Token Yard"},"longitude":"-0.215348"},"context":"","outcome_status":{"category":"Status update unavailable","date":"2018-03"},"persistent_id":"ea8a3e7362f9c124c2f1b4ebbbe4c6db8f22f02c8efdcabc4980aa8db83a1340","id":61123412,"location_subtype":"","month":"2017-11"},{"category":"violent-crime","location_type":"Force","location":{"latitude":"51.464789","street":{"id":943318,"name":"On or near Police Station"},"longitude":"-0.214021"},"context":"","outcome_status":{"category":"Investigation complete; no suspect identified","date":"2018-02"},"persistent_id":"cacf6a3359c96008c2ffb462222d270f4655c99d51d0be49409b01898f094383","id":61104351,"location_subtype":"","month":"2017-11"},{"category":"violent-crime","location_type":"Force","location":{"latitude":"51.464789","street":{"id":943318,"name":"On or near Police Station"},"longitude":"-0.214021"},"context":"","outcome_status":{"category":"Status update unavailable","date":"2018-03"},"persistent_id":"8e768a268b5627de253af73a8043f1a691a0e6dbc10958ab04b738cfe8b082e8","id":61105672,"location_subtype":"","month":"2017-11"},{"category":"violent-crime","location_type":"Force","location":{"latitude":"51.464789","street":{"id":943318,"name":"On or near Police Station"},"longitude":"-0.214021"},"context":"","outcome_status":{"category":"Status update unavailable","date":"2018-03"},"persistent_id":"8e768a268b5627de253af73a8043f1a691a0e6dbc10958ab04b738cfe8b082e8","id":61105675,"location_subtype":"","month":"2017-11"},{"category":"violent-crime","location_type":"Force","location":{"latitude":"51.463906","street":{"id":943314,"name":"On or near Shopping Area"},"longitude":"-0.216287"},"context":"","outcome_status":{"category":"Investigation complete; no suspect identified","date":"2018-04"},"persistent_id":"00b89f846816f1fa98a92418022a5d986915b563485ccd0a469d9ee1d46ed784","id":61013406,"location_subtype":"","month":"2017-11"},{"category":"violent-crime","location_type":"Force","location":{"latitude":"51.469257","street":{"id":945156,"name":"On or near Festing Road"},"longitude":"-0.222269"},"context":"","outcome_status":{"category":"Investigation complete; no suspect identified","date":"2018-04"},"persistent_id":"c418f732ee2a688f4926fc536c201ffa82ff5223a2ff5861c38d569377a50a56","id":61085726,"location_subtype":"","month":"2017-11"},{"category":"violent-crime","location_type":"Force","location":{"latitude":"51.460952","street":{"id":943311,"name":"On or near Nightclub"},"longitude":"-0.216603"},"context":"","outcome_status":{"category":"Investigation complete; no suspect identified","date":"2018-06"},"persistent_id":"177fa0388557c821cbf2cbde72314c5b02e91ba12c7e511ce03f89e7a93610ee","id":61017269,"location_subtype":"","month":"2017-11"},{"category":"violent-crime","location_type":"Force","location":{"latitude":"51.462462","street":{"id":943258,"name":"On or near Parking Area"},"longitude":"-0.220662"},"context":"","outcome_status":{"category":"Investigation complete; no suspect identified","date":"2017-11"},"persistent_id":"3faf581cbec761fab5f3c9007ba673370de1d21020e76a6ef823abd12e3710a1","id":61060652,"location_subtype":"","month":"2017-11"},{"category":"violent-crime","location_type":"Force","location":{"latitude":"51.463805","street":{"id":943276,"name":"On or near Putney High Street"},"longitude":"-0.215571"},"context":"","outcome_status":{"category":"Investigation complete; no suspect identified","date":"2017-11"},"persistent_id":"1fafafcad32abaa3ce27a74b901db583b6c42f2cc80b0c231b2fb51b2fa8f947","id":61117948,"location_subtype":"","month":"2017-11"},{"category":"violent-crime","location_type":"Force","location":{"latitude":"51.460973","street":{"id":943265,"name":"On or near Upper Richmond Road"},"longitude":"-0.217380"},"context":"","outcome_status":{"category":"Status update unavailable","date":"2018-03"},"persistent_id":"0993b5b98a2168c68bd12efd73e99ca91917d4ea6e2783f10562ca4c806c3ad3","id":61066606,"location_subtype":"","month":"2017-11"},{"category":"violent-crime","location_type":"Force","location":{"latitude":"51.465193","street":{"id":943262,"name":"On or near Weimar Street"},"longitude":"-0.215200"},"context":"","outcome_status":{"category":"Status update unavailable","date":"2018-03"},"persistent_id":"0390b504b3d2e46abd84f1dbc740d059d82d34a30a984b976da8bade15ed9950","id":61015833,"location_subtype":"","month":"2017-11"},{"category":"violent-crime","location_type":"Force","location":{"latitude":"51.460973","street":{"id":943265,"name":"On or near Upper Richmond Road"},"longitude":"-0.217380"},"context":"","outcome_status":{"category":"Investigation complete; no suspect identified","date":"2017-12"},"persistent_id":"0993b5b98a2168c68bd12efd73e99ca91917d4ea6e2783f10562ca4c806c3ad3","id":61066607,"location_subtype":"","month":"2017-11"},{"category":"violent-crime","location_type":"Force","location":{"latitude":"51.461578","street":{"id":943136,"name":"On or near Osiers Road"},"longitude":"-0.198124"},"context":"","outcome_status":{"category":"Status update unavailable","date":"2018-03"},"persistent_id":"9ffe63e222801088cb0b9bb473684727a1d3c87e964c2445085a446c26774f67","id":61041618,"location_subtype":"","month":"2017-11"},{"category":"violent-crime","location_type":"Force","location":{"latitude":"51.461446","street":{"id":943140,"name":"On or near Enterprise Way"},"longitude":"-0.195984"},"context":"","outcome_status":{"category":"Status update unavailable","date":"2018-03"},"persistent_id":"0980fdbed1e356ed60ee6a5a18453e42159c0c9b092e6b3757321d3157317373","id":61018524,"location_subtype":"","month":"2017-11"},{"category":"violent-crime","location_type":"Force","location":{"latitude":"51.464157","street":{"id":943300,"name":"On or near Charlwood Road"},"longitude":"-0.220956"},"context":"","outcome_status":{"category":"Local resolution","date":"2017-11"},"persistent_id":"278a651768e0096b158145614af76921a87d2450a76d06d7c2d90e45bc9446ba","id":61018130,"location_subtype":"","month":"2017-11"},{"category":"violent-crime","location_type":"Force","location":{"latitude":"51.467809","street":{"id":945136,"name":"On or near Fanthorpe Street"},"longitude":"-0.225810"},"context":"","outcome_status":{"category":"Investigation complete; no suspect identified","date":"2018-03"},"persistent_id":"fa32af17433b17d2a4d973191d600b8e914442507a85a77bbc5c61e0f6cff614","id":61013341,"location_subtype":"","month":"2017-11"},{"category":"violent-crime","location_type":"Force","location":{"latitude":"51.463622","street":{"id":943267,"name":"On or near Token Yard"},"longitude":"-0.215348"},"context":"","outcome_status":{"category":"Local resolution","date":"2017-11"},"persistent_id":"0cda8fb58b3c3431b72b6a59f02340a21cacc7133eacce369fc8c03a0d7d578a","id":61130543,"location_subtype":"","month":"2017-11"},{"category":"violent-crime","location_type":"Force","location":{"latitude":"51.471020","street":{"id":945128,"name":"On or near Horne Way"},"longitude":"-0.225829"},"context":"","outcome_status":{"category":"Investigation complete; no suspect identified","date":"2017-12"},"persistent_id":"2785797ce5db9703e4c8431e34bcfb8066c775ff3ecf90f093768ab1b0856c6e","id":61104323,"location_subtype":"","month":"2017-11"},{"category":"violent-crime","location_type":"BTP","location":{"latitude":"51.461300","street":{"id":1488015,"name":"Putney (station)"},"longitude":"-0.215911"},"context":"","outcome_status":{"category":"Status update unavailable","date":"2018-03"},"persistent_id":"","id":66340106,"location_subtype":"STATION","month":"2017-11"},{"category":"other-crime","location_type":"Force","location":{"latitude":"51.464615","street":{"id":943264,"name":"On or near Walker's Place"},"longitude":"-0.216173"},"context":"","outcome_status":{"category":"Investigation complete; no suspect identified","date":"2017-12"},"persistent_id":"270b72b6e16fd29df373b11f7584f586ac342d1c447db53c84bbcf4c5d7ab21b","id":61067932,"location_subtype":"","month":"2017-11"},{"category":"other-crime","location_type":"Force","location":{"latitude":"51.468007","street":{"id":945154,"name":"On or near Glendarvon Street"},"longitude":"-0.219294"},"context":"","outcome_status":{"category":"Status update unavailable","date":"2018-03"},"persistent_id":"224fb1adf909f45df3b2d2655ee02b9db81ba6bb85d93a373fdbb8808b40f8c6","id":61129587,"location_subtype":"","month":"2017-11"}]