[{"category":"anti-social-behaviour","location_type":"Force","location":{"latitude":"51.638855","street":{"id":986081,"name":"On or near Bagshot Road"},"longitude":"-0.070837"},"context":"","outcome_status":null,"persistent_id":"","id":60978528,"location_subtype":"","month":"2017-11"},{"category":"anti-social-behaviour","location_type":"Force","location":{"latitude":"51.638855","street":{"id":986081,"name":"On or near Bagshot Road"},"longitude":"-0.070837"},"context":"","outcome_status":null,"persistent_id":"","id":60978529,"location_subtype":"","month":"2017-11"},{"category":"anti-social-behaviour","location_type":"Force","location":{"latitude":"51.637272","street":{"id":986153,"name":"On or near Raglan Road"},"longitude":"-0.071945"},"context":"","outcome_status":null,"persistent_id":"","id":60978535,"location_subtype":"","month":"2017-11"},{"category":"anti-social-behaviour","location_type":"Force","location":{"latitude":"51.635050","street":{"id":985299,"name":"On or near Blakesware Gardens"},"longitude":"-0.080132"},"context":"","outcome_status":null,"persistent_id":"","id":60978605,"location_subtype":"","month":"2017-11"},{"category":"anti-social-behaviour","location_type":"Force","location":{"latitude":"51.629586","street":{"id":985277,"name":"On or near Hyde Park Gardens"},"longitude":"-0.088049"},"context":"","outcome_status":null,"persistent_id":"","id":60971361,"location_subtype":"","month":"2017-11"},{"category":"anti-social-behaviour","location_type":"Force","location":{"latitude":"51.630322","street":{"id":985292,"name":"On or near Hydefield Close"},"longitude":"-0.082426"},"context":"","outcome_status":null,"persistent_id":"","id":60978620,"location_subtype":"","month":"2017-11"},{"category":"anti-social-behaviour","location_type":"Force","location":{"latitude":"51.630322","street":{"id":985292,"name":"On or near Hydefield Close"},"longitude":"-0.082426"},"context":"","outcome_status":null,"persistent_id":"","id":60978618,"location_subtype":"","month":"2017-11"},{"category":"anti-social-behaviour","location_type":"Force","location":{"latitude":"51.635050","street":{"id":985299,"name":"On or near Blakesware Gardens"},"longitude":"-0.080132"},"context":"","outcome_status":null,"persistent_id":"","id":60978602,"location_subtype":"","month":"2017-11"},{"category":"anti-social-behaviour","location_type":"Force","location":{"latitude":"51.640881","street":{"id":986042,"name":"On or near Wellington Road"},"longitude":"-0.073208"},"context":"","outcome_status":null,"persistent_id":"","id":60978555,"location_subtype":"","month":"2017-11"},{"category":"anti-social-behaviour","location_type":"Force","location":{"latitude":"51.623634","street":{"id":983827,"name":"On or near Rayleigh Close"},"longitude":"-0.086970"},"context":"","outcome_status":null,"persistent_id":"","id":60971353,"location_subtype":"","month":"2017-11"},{"category":"anti-social-behaviour","location_type":"Force","location":{"latitude":"51.623634","street":{"id":983827,"name":"On or near Rayleigh Close"},"longitude":"-0.086970"},"context":"","outcome_status":null,"persistent_id":"","id":60971357,"location_subtype":"","month":"2017-11"},{"category":"anti-social-behaviour","location_type":"Force","location":{"latitude":"51.623634","street":{"id":983827,"name":"On or near Rayleigh Close"},"longitude":"-0.086970"},"context":"","outcome_status":null,"persistent_id":"","id":60971359,"location_subtype":"","month":"2017-11"},{"category":"anti-social-behaviour","location_type":"Force","location":{"latitude":"51.630766","street":{"id":985281,"name":"On or near Firs Park Gardens"},"longitude":"-0.086468"},"context":"","outcome_status":null,"persistent_id":"","id":60971380,"location_subtype":"","month":"2017-11"},{"category":"anti-social-behaviour","location_type":"Force","location":{"latitude":"51.630766","street":{"id":985281,"name":"On or near Firs Park Gardens"},"longitude":"-0.086468"},"context":"","outcome_status":null,"persistent_id":"","id":60971383,"location_subtype":"","month":"2017-11"},{"category":"anti-social-behaviour","location_type":"Force","location":{"latitude":"51.630766","street":{"id":985281,"name":"On or near Firs Park Gardens"},"longitude":"-0.086468"},"context":"","outcome_status":null,"persistent_id":"","id":60971386,"location_subtype":"","month":"2017-11"},{"category":"anti-social-behaviour","location_type":"Force","location":{"latitude":"51.642701","street":{"id":986092,"name":"On or near Tweedy Close"},"longitude":"-0.068477"},"context":"","outcome_status":null,"persistent_id":"","id":60978503,"location_subtype":"","month":"2017-11"},{"category":"anti-social-behaviour","location_type":"Force","location":{"latitude":"51.641149","street":{"id":986073,"name":"On or near Dryden Road"},"longitude":"-0.071434"},"context":"","outcome_status":null,"persistent_id":"","id":60978517,"location_subtype":"","month":"2017-11"},{"category":"anti-social-behaviour","location_type":"Force","location":{"latitude":"51.638855","street":{"id":986081,"name":"On or near Bagshot Road"},"longitude":"-0.070837"},"context":"","outcome_status":null,"persistent_id":"","id":60978519,"location_subtype":"","month":"2017-11"},{"category":"anti-social-behaviour","location_type":"Force","location":{"latitude":"51.645400","street":{"id":986071,"name":"On or near East Crescent"},"longitude":"-0.071325"},"context":"","outcome_status":null,"persistent_id":"","id":60978523,"location_subtype":"","month":"2017-11"},{"category":"anti-social-behaviour","location_type":"Force","location":{"latitude":"51.642959","street":{"id":986055,"name":"On or near Longleat Road"},"longitude":"-0.072166"},"context":"","outcome_status":null,"persistent_id":"","id":60978526,"location_subtype":"","month":"2017-11"},{"category":"burglary","location_type":"Force","location":{"latitude":"51.639711","street":{"id":986120,"name":"On or near Haileybury Avenue"},"longitude":"-0.065482"},"context":"","outcome_status":{"category":"Status update unavailable","date":"2018-03"},"persistent_id":"3eb523e8364beacfe094fe32c4d0f29354026a2df88a09537c2930d8482325ea","id":61078151,"location_subtype":"","month":"2017-11"},{"category":"burglary","location_type":"Force","location":{"latitude":"51.622760","street":{"id":983825,"name":"On or near The Fairway"},"longitude":"-0.086357"},"context":"","outcome_status":{"category":"Status update unavailable","date":"2018-03"},"persistent_id":"669404bb9b4fbd2992f168314fe06b6916f3f25ece94af88aad67fe90ce8211b","id":61055704,"location_subtype":"","month":"2017-11"},{"category":"burglary","location_type":"Force","location":{"latitude":"51.635239","street":{"id":985489,"name":"On or near Porlock Road"},"longitude":"-0.071337"},"context":"","outcome_status":{"category":"Status update unavailable","date":"2018-03"},"persistent_id":"f6f36302ea23dd9630d02ed2275c79a640d361e9fd959b80c6bc6cc8abdb5fe2","id":61054479,"location_subtype":"","month":"2017-11"},{"category":"burglary","location_type":"Force","location":{"latitude":"51.640984","street":{"id":986091,"name":"On or near Wendy Close"},"longitude":"-0.068001"},"context":"","outcome_status":{"category":"Investigation complete; no suspect identified","date":"2017-12"},"persistent_id":"b785d2159117ae0c3bfc46d5cdacacf9839cd7611a912f54e01172090ba3f886","id":61011269,"location_subtype":"","month":"2017-11"},{"category":"burglary","location_type":"Force","location":{"latitude":"51.631739","street":{"id":985293,"name":"On or near Halstead Gardens"},"longitude":"-0.083277"},"context":"","outcome_status":{"category":"Status update unavailable","date":"2018-03"},"persistent_id":"58f0cff8b6169e3ac7c0dd17bc1f992f9bb5b6328fa90af79d582ec55ffc655d","id":61071865,"location_subtype":"","month":"2017-11"},{"category":"burglary","location_type":"Force","location":{"latitude":"51.638880","street":{"id":986070,"name":"On or near Edenbridge Road"},"longitude":"-0.073452"},"context":"","outcome_status":{"category":"Status update unavailable","date":"2018-03"},"persistent_id":"8baa80087321d39bef99a1c38aa77a913007e2ef6043b911a94ff07985646cab","id":61128076,"location_subtype":"","month":"2017-11"},{"category":"burglary","location_type":"Force","location":{"latitude":"51.634094","street":{"id":985465,"name":"On or near Lynton Gardens"},"longitude":"-0.073366"},"context":"","outcome_status":{"category":"Status update unavailable","date":"2018-03"},"persistent_id":"673407c6a61106227fb755789dd8d7ab0abb52eab203c564850bd9d1cba23608","id":61123965,"location_subtype":"","month":"2017-11"},{"category":"burglary","location_type":"Force","location":{"latitude":"51.631023","street":{"id":985295,"name":"On or near Firs Park Avenue"},"longitude":"-0.083538"},"context":"","outcome_status":{"category":"Status update unavailable","date":"2018-03"},"persistent_id":"693f746c65d89b07b974b3c446c7748e10970a23305108d2cb61838825eca511","id":61123821,"location_subtype":"","month":"2017-11"},{"category":"burglary","location_type":"Force","location":{"latitude":"51.630322","street":{"id":985292,"name":"On or near Hydefield Close"},"longitude":"-0.082426"},"context":"","outcome_status":{"category":"Status update unavailable","date":"2018-03"},"persistent_id":"01b5419e60bd7952c64a553c656c21ab4acae58da2599d61dea55d8d1d027a61","id":61123201,"location_subtype":"","month":"2017-11"},{"category":"burglary","location_type":"Force","location":{"latitude":"51.638769","street":{"id":986108,"name":"On or near Lynmouth Avenue"},"longitude":"-0.067791"},"context":"","outcome_status":{"category":"Status update unavailable","date":"2018-03"},"persistent_id":"29346866ebefd86bcacd5c96380ef4f930fbcc68054d5aa9ce0aaf4e503a1d01","id":61108524,"location_subtype":"","month":"2017-11"},{"category":"burglary","location_type":"Force","location":{"latitude":"51.622760","street":{"id":983825,"name":"On or near The Fairway"},"longitude":"-0.086357"},"context":"","outcome_status":{"category":"Status update unavailable","date":"2018-03"},"persistent_id":"1df0cf45bb4988fd4ebc23ee4d1a7f8e44051f927809361c3cbaf7217e3e766e","id":61077091,"location_subtype":"","month":"2017-11"},{"category":"burglary","location_type":"Force","location":{"latitude":"51.632740","street":{"id":985289,"name":"On or near Ridge Road"},"longitude":"-0.084015"},"context":"","outcome_status":{"category":"Investigation complete; no suspect identified","date":"2017-12"},"persistent_id":"ba7a7701f48b74541e48dc1e9fe43871ddb73c98a48664c5f106f814c76ce0c6","id":61011293,"location_subtype":"","month":"2017-11"},{"category":"burglary","location_type":"Force","location":{"latitude":"51.639817","street":{"id":986104,"name":"On or near Melbourne Way"},"longitude":"-0.067024"},"context":"","outcome_status":{"category":"Investigation complete; no suspect identified","date":"2017-11"},"persistent_id":"1306b0eef4da7adf574233bafdfed0cfbefd208871a202d9f74591f92cb02e09","id":61022680,"location_subtype":"","month":"2017-11"},{"category":"burglary","location_type":"Force","location":{"latitude":"51.635840","street":{"id":985304,"name":"On or near Ridge Avenue"},"longitude":"-0.086081"},"context":"","outcome_status":{"category":"Status update unavailable","date":"2018-03"},"persistent_id":"1d0c34f0ec0052dfde981c65ba4705c1f3931fc991bf0bffcbafb98d9f839cb7","id":61031555,"location_subtype":"","month":"2017-11"},{"category":"burglary","location_type":"Force","location":{"latitude":"51.639078","street":{"id":986206,"name":"On or near Conifer Gardens"},"longitude":"-0.079513"},"context":"","outcome_status":{"category":"Status update unavailable","date":"2018-03"},"persistent_id":"58056fdedbd164bed2f2814058f09192e21b57ffc645bc3305f41fb343120df5","id":61047530,"location_subtype":"","month":"2017-11"},{"category":"burglary","location_type":"Force","location":{"latitude":"51.639170","street":{"id":986076,"name":"On or near Constance Road"},"longitude":"-0.075795"},"context":"","outcome_status":{"category":"Status update unavailable","date":"2018-03"},"persistent_id":"ffbbaeb5554d66b872776f2df077e03a167b0d7a3f3d61069ed85599de556bd7","id":61046571,"location_subtype":"","month":"2017-11"},{"category":"burglary","location_type":"Force","location":{"latitude":"51.629586","street":{"id":985277,"name":"On or near Hyde Park Gardens"},"longitude":"-0.088049"},"context":"","outcome_status":{"category":"Status update unavailable","date":"2018-03"},"persistent_id":"5d68219312bc142bca61d852decba8c61cae7dc1f25e4c1b5c89dafa396fae87","id":61013425,"location_subtype":"","month":"2017-11"},{"category":"burglary","location_type":"Force","location":{"latitude":"51.634378","street":{"id":985302,"name":"On or near Solna Road"},"longitude":"-0.086301"},"context":"","outcome_status":{"category":"Status update unavailable","date":"2018-03"},"persistent_id":"dbc71c96786d1065246a7d6b33ecf2294687bbca1e87216e4d192e2287ffbfe4","id":61036544,"location_subtype":"","month":"2017-11"},{"category":"burglary","location_type":"Force","location":{"latitude":"51.635165","street":{"id":985308,"name":"On or near Elsiedene Road"},"longitude":"-0.088812"},"context":"","outcome_status":{"category":"Status update unavailable","date":"2018-03"},"persistent_id":"df3ad527535432cb238b28c0c6e0bc65ec4eb2a0517e88fbfe7ac717a40eb2d8","id":61051894,"location_subtype":"","month":"2017-11"},{"category":"burglary","location_type":"Force","location":{"latitude":"51.642387","street":{"id":986140,"name":"On or near Petrol Station"},"longitude":"-0.061481"},"context":"","outcome_status":{"category":"Status update unavailable","date":"2018-03"},"persistent_id":"ceca964f5ea950c2af4d33bf581eceaf887eabded42bbd29955204b2c94d6a79","id":61014976,"location_subtype":"","month":"2017-11"},{"category":"criminal-damage-arson","location_type":"Force","location":{"latitude":"51.640984","street":{"id":986091,"name":"On or near Wendy Close"},"longitude":"-0.068001"},"context":"","outcome_status":{"category":"Investigation complete; no suspect identified","date":"2018-01"},"persistent_id":"e6847e490df9689de5b5477e01e7a98d1f61db211ce1cf8889518845745b1c2b","id":61051432,"location_subtype":"","month":"2017-11"},{"category":"criminal-damage-arson","location_type":"Force","location":{"latitude":"51.622760","street":{"id":983825,"name":"On or near The Fairway"},"longitude":"-0.086357"},"context":"","outcome_status":{"category":"Status update unavailable","date":"2018-03"},"persistent_id":"0824825b59f714435a899e70f217b3bf8bf1418ed42c059199312628248a29c0","id":61116444,"location_subtype":"","month":"2017-11"},{"category":"criminal-damage-arson","location_type":"Force","location":{"latitude":"51.640984","street":{"id":986091,"name":"On or near Wendy Close"},"longitude":"-0.068001"},"context":"","outcome_status":{"category":"Status update unavailable","date":"2018-03"},"persistent_id":"f5b02c5d899e96513e08015d645f0c0092e1ccfc6a223abab6738ed0d40e4a7e","id":61021551,"location_subtype":"","month":"2017-11"},{"category":"criminal-damage-arson","location_type":"Force","location":{"latitude":"51.622760","street":{"id":983825,"name":"On or near The Fairway"},"longitude":"-0.086357"},"context":"","outcome_status":{"category":"Investigation complete; no suspect identified","date":"2017-11"},"persistent_id":"0824825b59f714435a899e70f217b3bf8bf1418ed42c059199312628248a29c0","id":61116446,"location_subtype":"","month":"2017-11"},{"category":"criminal-damage-arson","location_type":"Force","location":{"latitude":"51.645493","street":{"id":986072,"name":"On or near East Crescent"},"longitude":"-0.072059"},"context":"","outcome_status":{"category":"Status update unavailable","date":"2018-03"},"persistent_id":"0934d78b9a2582c36902c8fd39b0209cd5e062858c2d2f8f18fd80954ba03ee1","id":61130394,"location_subtype":"","month":"2017-11"},{"category":"criminal-damage-arson","location_type":"Force","location":{"latitude":"51.631648","street":{"id":985377,"name":"On or near Ainsley Close"},"longitude":"-0.079365"},"context":"","outcome_status":{"category":"Investigation complete; no suspect identified","date":"2017-11"},"persistent_id":"36e18bbe747e8d2a71780cbff2c8b1df405d0b65f69d9729714f2d725d4ab04c","id":61060819,"location_subtype":"","month":"2017-11"},{"category":"criminal-damage-arson","location_type":"Force","location":{"latitude":"51.639170","street":{"id":986076,"name":"On or near Constance Road"},"longitude":"-0.075795"},"context":"","outcome_status":{"category":"Status update unavailable","date":"2018-03"},"persistent_id":"c5f0b1ab7f2848edacb6a7d42c153965fbd451f63936660bc1b02893437f5d79","id":61118338,"location_subtype":"","month":"2017-11"},{"category":"criminal-damage-arson","location_type":"Force","location":{"latitude":"51.643731","street":{"id":986095,"name":"On or near Third Avenue"},"longitude":"-0.068260"},"context":"","outcome_status":{"category":"Investigation complete; no suspect identified","date":"2017-12"},"persistent_id":"727770df6fda521da423df74581c61ef28c649030a0c6f56a861036f4db57d7f","id":61008877,"location_subtype":"","month":"2017-11"},{"category":"criminal-damage-arson","location_type":"BTP","location":{"latitude":"51.641500","street":{"id":1486562,"name":"Bush Hill Park (station)"},"longitude":"-0.069218"},"context":"","outcome_status":{"category":"Status update unavailable","date":"2018-03"},"persistent_id":"","id":66340998,"location_subtype":"STATION","month":"2017-11"},{"category":"drugs","location_type":"Force","location":{"latitude":"51.642701","street":{"id":986092,"name":"On or near Tweedy Close"},"longitude":"-0.068477"},"context":"","outcome_status":{"category":"Status update unavailable","date":"2018-03"},"persistent_id":"8e16d7940ec32aa66c6f9ff6e5754fba05b09f964a96e2334a1fb0d9111456f9","id":61082746,"location_subtype":"","month":"2017-11"},{"category":"drugs","location_type":"Force","location":{"latitude":"51.645400","street":{"id":986071,"name":"On or near East Crescent"},"longitude":"-0.071325"},"context":"","outcome_status":{"category":"Offender given a drugs possession warning","date":"2017-11"},"persistent_id":"e4d6bc60ca20b2814335294e397d9141d954bc884b7f00b2abc2d379e990409c","id":61075481,"location_subtype":"","month":"2017-11"},{"category":"other-theft","location_type":"Force","location":{"latitude":"51.642387","street":{"id":986140,"name":"On or near Petrol Station"},"longitude":"-0.061481"},"context":"","outcome_status":{"category":"Status update unavailable","date":"2018-03"},"persistent_id":"48364277c972fa06562afda299326fa9bd856e9eb1cd3ef3f6f12ffd9bbbe27b","id":61007746,"location_subtype":"","month":"2017-11"},{"category":"other-theft","location_type":"Force","location":{"latitude":"51.642387","street":{"id":986140,"name":"On or near Petrol Station"},"longitude":"-0.061481"},"context":"","outcome_status":{"category":"Investigation complete; no suspect identified","date":"2018-03"},"persistent_id":"e3e6df1658a7d3f15bfc8439899a82fb9231c0c6fcc552924295e9003aa52a6a","id":61005047,"location_subtype":"","month":"2017-11"},{"category":"other-theft","location_type":"Force","location":{"latitude":"51.642995","street":{"id":986082,"name":"On or near Athole Gardens"},"longitude":"-0.075431"},"context":"","outcome_status":{"category":"Investigation complete; no suspect identified","date":"2017-12"},"persistent_id":"dbd51483120dba802821cc38cccdce4b44d0f8a9f5e2099b97cbefec7bfefddc","id":61013782,"location_subtype":"","month":"2017-11"},{"category":"other-theft","location_type":"Force","location":{"latitude":"51.642387","street":{"id":986140,"name":"On or near Petrol Station"},"longitude":"-0.061481"},"context":"","outcome_status":{"category":"Investigation complete; no suspect identified","date":"2017-11"},"persistent_id":"e58c968981279c69ebea7cf9132fa5295616876bb81586dd6f0d201eca93788e","id":61117987,"location_subtype":"","month":"2017-11"},{"category":"other-theft","location_type":"Force","location":{"latitude":"51.642387","street":{"id":986140,"name":"On or near Petrol Station"},"longitude":"-0.061481"},"context":"","outcome_status":{"category":"Status update unavailable","date":"2018-03"},"persistent_id":"6a0f248dd3b9180e5e81ffe0cc2ff9e9e81aa39e25c0256141f841e94743d468","id":61130687,"location_subtype":"","month":"2017-11"},{"category":"other-theft","location_type":"Force","location":{"latitude":"51.642387","street":{"id":986140,"name":"On or near Petrol Station"},"longitude":"-0.061481"},"context":"","outcome_status":{"category":"Investigation complete; no suspect identified","date":"2017-11"},"persistent_id":"022e85b7902000654d9d1d9826539cce843f67dea768a745733f90fe42beb6e6","id":61022645,"location_subtype":"","month":"2017-11"},{"category":"other-theft","location_type":"Force","location":{"latitude":"51.635215","street":{"id":985298,"name":"On or near York Road"},"longitude":"-0.083622"},"context":"","outcome_status":{"category":"Status update unavailable","date":"2018-03"},"persistent_id":"9486f21927c59330e3e97804d0326f703a9eb45c15c5998ec844837efc5a4a44","id":61089273,"location_subtype":"","month":"2017-11"},{"category":"other-theft","location_type":"Force","location":{"latitude":"51.642800","street":{"id":986146,"name":"On or near Supermarket"},"longitude":"-0.066305"},"context":"","outcome_status":{"category":"Investigation complete; no suspect identified","date":"2017-12"},"persistent_id":"af0304de8d072ee3aa27da31b42f19b3be2130e1e4669caf9f6aca79f854a0c5","id":61125815,"location_subtype":"","month":"2017-11"},{"category":"other-theft","location_type":"Force","location":{"latitude":"51.642387","street":{"id":986140,"name":"On or near Petrol Station"},"longitude":"-0.061481"},"context":"","outcome_status":{"category":"Status update unavailable","date":"2018-03"},"persistent_id":"81a728774c38925976759246857ba86dd0085e9b4306c066ff126bb619c2874e","id":61061076,"location_subtype":"","month":"2017-11"},{"category":"other-theft","location_type":"Force","location":{"latitude":"51.642387","street":{"id":986140,"name":"On or near Petrol Station"},"longitude":"-0.061481"},"context":"","outcome_status":{"category":"Status update unavailable","date":"2018-03"},"persistent_id":"cc59b50253b87af1cf6727154b06ce39197468d47bdf7c9227645901ae7f5c3d","id":61129298,"location_subtype":"","month":"2017-11"},{"category":"other-theft","location_type":"Force","location":{"latitude":"51.642387","street":{"id":986140,"name":"On or near Petrol Station"},"longitude":"-0.061481"},"context":"","outcome_status":{"category":"Status update unavailable","date":"2018-03"},"persistent_id":"0b3f0b650ec811c9bfa538abb7a2d63f4e5d59922915da93272f1a27def2fd46","id":61006187,"location_subtype":"","month":"2017-11"},{"category":"other-theft","location_type":"Force","location":{"latitude":"51.642387","street":{"id":986140,"name":"On or near Petrol Station"},"longitude":"-0.061481"},"context":"","outcome_status":{"category":"Status update unavailable","date":"2018-03"},"persistent_id":"edf98cf4237c3d9ef3ba45aa63325394a2e5073e57d52be5ba7fa7be556ee5d5","id":61131043,"location_subtype":"","month":"2017-11"},{"category":"public-order","location_type":"Force","location":{"latitude":"51.640881","street":{"id":986042,"name":"On or near Wellington Road"},"longitude":"-0.073208"},"context":"","outcome_status":{"category":"Status update unavailable","date":"2018-03"},"persistent_id":"d1b467ad0efdeefc45c500cd6e04ddd751d0aed2d1778c9855aabe4ac0cca534","id":61081995,"location_subtype":"","month":"2017-11"},{"category":"public-order","location_type":"Force","location":{"latitude":"51.623634","street":{"id":983827,"name":"On or near Rayleigh Close"},"longitude":"-0.086970"},"context":"","outcome_status":{"category":"Investigation complete; no suspect identified","date":"2017-11"},"persistent_id":"93f2429502e18d73398c28100787377227e5f5a5ec8216de0c2bee9e2ee6d66e","id":61059422,"location_subtype":"","month":"2017-11"},{"category":"public-order","location_type":"BTP","location":{"latitude":"51.641500","street":{"id":1486562,"name":"Bush Hill Park (station)"},"longitude":"-0.069218"},"context":"","outcome_status":{"category":"Status update unavailable","date":"2018-03"},"persistent_id":"","id":66340999,"location_subtype":"STATION","month":"2017-11"},{"category":"public-order","location_type":"Force","location":{"latitude":"51.638855","street":{"id":986081,"name":"On or near Bagshot Road"},"longitude":"-0.070837"},"context":"","outcome_status":{"category":"Offender given community sentence","date":"2018-02"},"persistent_id":"179b7e53670363b1d40310750317bcaabba73c6e0e80d5af936d003231935105","id":61112766,"location_subtype":"","month":"2017-11"},{"category":"public-order","location_type":"Force","location":{"latitude":"51.642701","street":{"id":986092,"name":"On or near Tweedy Close"},"longitude":"-0.068477"},"context":"","outcome_status":{"category":"Investigation complete; no suspect identified","date":"2017-12"},"persistent_id":"916983c21392f455517562a8a24f820638e0de1f97ef73552e87dc43c52e0b10","id":61005042,"location_subtype":"","month":"2017-11"},{"category":"shoplifting","location_type":"Force","location":{"latitude":"51.642387","street":{"id":986140,"name":"On or near Petrol Station"},"longitude":"-0.061481"},"context":"","outcome_status":{"category":"Status update unavailable","date":"2018-03"},"persistent_id":"b7842f493bef7dc96332642d3197136a49f996c0243393034cc6441176c95b06","id":61015337,"location_subtype":"","month":"2017-11"},{"category":"shoplifting","location_type":"Force","location":{"latitude":"51.642800","street":{"id":986146,"name":"On or near Supermarket"},"longitude":"-0.066305"},"context":"","outcome_status":{"category":"Investigation complete; no suspect identified","date":"2018-01"},"persistent_id":"ca23cddb68e1aaa1fdc72dd53bf7f5095f682240d354e71bbf6691c14ca1bd29","id":61035359,"location_subtype":"","month":"2017-11"},{"category":"shoplifting","location_type":"Force","location":{"latitude":"51.642745","street":{"id":986110,"name":"On or near Leighton Road"},"longitude":"-0.065165"},"context":"","outcome_status":{"category":"Status update unavailable","date":"2018-03"},"persistent_id":"0a6f7a6e0c87ad3951a2b4d7c522a6dfcf571fd6f2c5d59f934f8d9797aec1a8","id":61092521,"location_subtype":"","month":"2017-11"},{"category":"shoplifting","location_type":"Force","location":{"latitude":"51.642800","street":{"id":986146,"name":"On or near Supermarket"},"longitude":"-0.066305"},"context":"","outcome_status":{"category":"Investigation complete; no suspect identified","date":"2018-01"},"persistent_id":"9c6204f564f2f87f7810333199d8e33f0e43d215fcf3831917dfe7bd062adc5b","id":61103660,"location_subtype":"","month":"2017-11"},{"category":"shoplifting","location_type":"Force","location":{"latitude":"51.642387","street":{"id":986140,"name":"On or near Petrol Station"},"longitude":"-0.061481"},"context":"","outcome_status":{"category":"Investigation complete; no suspect identified","date":"2017-12"},"persistent_id":"b486128b31edaf15b74b8a9d9ac3a96d0187740b30717889c9c667a7b00bdfed","id":61015119,"location_subtype":"","month":"2017-11"},{"category":"shoplifting","location_type":"Force","location":{"latitude":"51.642033","street":{"id":986039,"name":"On or near Parking Area"},"longitude":"-0.069965"},"context":"","outcome_status":{"category":"Court result unavailable","date":"2018-06"},"persistent_id":"cbaeed2ee0d1037b8ebdd2b916148a4362f18b80e46beee8fa2aebaead0bb460","id":61033245,"location_subtype":"","month":"2017-11"},{"category":"shoplifting","location_type":"Force","location":{"latitude":"51.642387","street":{"id":986140,"name":"On or near Petrol Station"},"longitude":"-0.061481"},"context":"","outcome_status":{"category":"Investigation complete; no suspect identified","date":"2018-03"},"persistent_id":"afe7642ad9d715752c761cd47dc30abcfc66feeb2ac7275575a9ffe14740ae71","id":61016484,"location_subtype":"","month":"2017-11"},{"category":"theft-from-the-person","location_type":"BTP","location":{"latitude":"51.641500","street":{"id":1486562,"name":"Bush Hill Park (station)"},"longitude":"-0.069218"},"context":"","outcome_status":{"category":"Status update unavailable","date":"2018-03"},"persistent_id":"","id":66341000,"location_subtype":"STATION","month":"2017-11"},{"category":"vehicle-crime","location_type":"Force","location":{"latitude":"51.629586","street":{"id":985277,"name":"On or near Hyde Park Gardens"},"longitude":"-0.088049"},"context":"","outcome_status":{"category":"Status update unavailable","date":"2018-03"},"persistent_id":"a85468c767a8b231d9b548eb81e534bca88edfac154741d22a3277a0816f56aa","id":61130801,"location_subtype":"","month":"2017-11"},{"category":"vehicle-crime","location_type":"Force","location":{"latitude":"51.640984","street":{"id":986091,"name":"On or near Wendy Close"},"longitude":"-0.068001"},"context":"","outcome_status":{"category":"Status update unavailable","date":"2018-03"},"persistent_id":"10a6106c5cf9e029a00d1ca4bbf828d2ef3c158f7bba6227c4dabc3e9f24e29f","id":61005594,"location_subtype":"","month":"2017-11"},{"category":"vehicle-crime","location_type":"Force","location":{"latitude":"51.636605","street":{"id":985493,"name":"On or near Brendon Way"},"longitude":"-0.075644"},"context":"","outcome_status":{"category":"Status update unavailable","date":"2018-03"},"persistent_id":"00946c7bee7a98fa353e1ee7ad92bcb8830884f53151ac89f53fa4e4d5d4c6c3","id":61014644,"location_subtype":"","month":"2017-11"},{"category":"vehicle-crime","location_type":"Force","location":{"latitude":"51.631648","street":{"id":985377,"name":"On or near Ainsley Close"},"longitude":"-0.079365"},"context":"","outcome_status":{"category":"Status update unavailable","date":"2018-03"},"persistent_id":"57f9f6c22e3cb2da01e997225b481f6d519926ce819037e8ce78faea3fb553db","id":61038655,"location_subtype":"","month":"2017-11"},{"category":"vehicle-crime","location_type":"Force","location":{"latitude":"51.629586","street":{"id":985277,"name":"On or near Hyde Park Gardens"},"longitude":"-0.088049"},"context":"","outcome_status":{"category":"Status update unavailable","date":"2018-03"},"persistent_id":"c73e1716dae784ce0f3b6598903f411cca8ca6e33ffc541dad7dc96a34ff35b3","id":61040569,"location_subtype":"","month":"2017-11"},{"category":"vehicle-crime","location_type":"Force","location":{"latitude":"51.629586","street":{"id":985277,"name":"On or near Hyde Park Gardens"},"longitude":"-0.088049"},"context":"","outcome_status":{"category":"Status update unavailable","date":"2018-03"},"persistent_id":"54cb5ee64d9ed09aa06fc8fa330b8e2278fb19dc0cdb01964ae5d7e50d85da1b","id":61078949,"location_subtype":"","month":"2017-11"},{"category":"vehicle-crime","location_type":"Force","location":{"latitude":"51.634929","street":{"id":985491,"name":"On or near Clovelly Gardens"},"longitude":"-0.075440"},"context":"","outcome_status":{"category":"Status update unavailable","date":"2018-03"},"persistent_id":"91cf7e056dd5e53c95dbe5d71e43e2a4caefa5586c30877a7559fe9d191261d9","id":61087102,"location_subtype":"","month":"2017-11"},{"category":"vehicle-crime","location_type":"Force","location":{"latitude":"51.642033","street":{"id":986039,"name":"On or near Parking Area"},"longitude":"-0.069965"},"context":"","outcome_status":{"category":"Status update unavailable","date":"2018-03"},"persistent_id":"7f2b9e0a3a0e4ea3423d26e51528dfaedce427131e5be5f6db7b5fb753a2aee2","id":61097273,"location_subtype":"","month":"2017-11"},{"category":"vehicle-crime","location_type":"Force","location":{"latitude":"51.631648","street":{"id":985377,"name":"On or near Ainsley Close"},"longitude":"-0.079365"},"context":"","outcome_status":{"category":"Status update unavailable","date":"2018-03"},"persistent_id":"6a7c1403a92226bb7f639ed46318ba19abe8af703e564194f315aef24b4e6745","id":61095839,"location_subtype":"","month":"2017-11"},{"category":"vehicle-crime","location_type":"Force","location":{"latitude":"51.623134","street":{"id":983852,"name":"On or near Sports\/recreation Area"},"longitude":"-0.083871"},"context":"","outcome_status":{"category":"Status update unavailable","date":"2018-03"},"persistent_id":"14e3e7f88a0d3f19f3b18d1d2f87f3c003669af49781bead791ea183ae60ce71","id":61120527,"location_subtype":"","month":"2017-11"},{"category":"vehicle-crime","location_type":"Force","location":{"latitude":"51.623134","street":{"id":983852,"name":"On or near Sports\/recreation Area"},"longitude":"-0.083871"},"context":"","outcome_status":{"category":"Investigation complete; no suspect identified","date":"2017-12"},"persistent_id":"14e3e7f88a0d3f19f3b18d1d2f87f3c003669af49781bead791ea183ae60ce71","id":61120533,"location_subtype":"","month":"2017-11"},{"category":"vehicle-crime","location_type":"Force","location":{"latitude":"51.645400","street":{"id":986071,"name":"On or near East Crescent"},"longitude":"-0.071325"},"context":"","outcome_status":{"category":"Investigation complete; no suspect identified","date":"2017-12"},"persistent_id":"1645b2559c94934c5961d7443404f9a2e62554cc2a4119b9e48821f5c96d9e93","id":61094929,"location_subtype":"","month":"2017-11"},{"category":"vehicle-crime","location_type":"Force","location":{"latitude":"51.642057","street":{"id":986114,"name":"On or near Ladbroke Road"},"longitude":"-0.066539"},"context":"","outcome_status":{"category":"Status update unavailable","date":"2018-03"},"persistent_id":"002954192aa0f4de5881bcdb2c285a91512f2497f22c65bb6f4289416ed77da0","id":61078088,"location_subtype":"","month":"2017-11"},{"category":"vehicle-crime","location_type":"Force","location":{"latitude":"51.639170","street":{"id":986076,"name":"On or near Constance Road"},"longitude":"-0.075795"},"context":"","outcome_status":{"category":"Status update unavailable","date":"2018-03"},"persistent_id":"4f633ec066cf60802e2bc9332ccc123fad2e5a0cf49758a0cc617ae0ab90b82c","id":61021006,"location_subtype":"","month":"2017-11"},{"category":"vehicle-crime","location_type":"Force","location":{"latitude":"51.630766","street":{"id":985281,"name":"On or near Firs Park Gardens"},"longitude":"-0.086468"},"context":"","outcome_status":{"category":"Status update unavailable","date":"2018-03"},"persistent_id":"074266248eb25feaa0defe0a6bc9649dca0558a2c6eeea26f565614c6ef13344","id":61109501,"location_subtype":"","month":"2017-11"},{"category":"vehicle-crime","location_type":"Force","location":{"latitude":"51.633623","street":{"id":985280,"name":"On or near Griffins Close"},"longitude":"-0.084686"},"context":"","outcome_status":{"category":"Status update unavailable","date":"2018-03"},"persistent_id":"9d4fb6cc0de970672ffbe43c6f24a3d279dbbf26f6b081f821bdacbe3c54e9f1","id":61048330,"location_subtype":"","month":"2017-11"},{"category":"vehicle-crime","location_type":"Force","location":{"latitude":"51.633934","street":{"id":985343,"name":"On or near Beaulieu Gardens"},"longitude":"-0.091623"},"context":"","outcome_status":{"category":"Status update unavailable","date":"2018-03"},"persistent_id":"db4a29c3524ae2dba0be0148be89adad1f25509d9f85e93d5a75ba2c6e79ab47","id":61022138,"location_subtype":"","month":"2017-11"},{"category":"vehicle-crime","location_type":"BTP","location":{"latitude":"51.641500","street":{"id":1486562,"name":"Bush Hill Park (station)"},"longitude":"-0.069218"},"context":"","outcome_status":{"category":"Status update unavailable","date":"2018-03"},"persistent_id":"","id":66340997,"location_subtype":"STATION","month":"2017-11"},{"category":"vehicle-crime","location_type":"Force","location":{"latitude":"51.634697","street":{"id":985490,"name":"On or near Crawley Road"},"longitude":"-0.072271"},"context":"","outcome_status":{"category":"Status update unavailable","date":"2018-03"},"persistent_id":"43dbb4133c5c047e69d39708fa905bd022d578b47e87a7108388fe9ae11301fc","id":61029276,"location_subtype":"","month":"2017-11"},{"category":"vehicle-crime","location_type":"Force","location":{"latitude":"51.634219","street":{"id":985496,"name":"On or near Amberley Gardens"},"longitude":"-0.072739"},"context":"","outcome_status":{"category":"Status update unavailable","date":"2018-03"},"persistent_id":"65b1e3fc68213ee355b14b84a825a852d3fb92e45adc90bfcb2189d188a240ec","id":61018688,"location_subtype":"","month":"2017-11"},{"category":"vehicle-crime","location_type":"Force","location":{"latitude":"51.632917","street":{"id":985288,"name":"On or near Rowantree Close"},"longitude":"-0.081652"},"context":"","outcome_status":{"category":"Status update unavailable","date":"2018-03"},"persistent_id":"90270c30195c40eb94a877db336280ee209700e93d87404242dc957371d5025e","id":61018230,"location_subtype":"","month":"2017-11"},{"category":"violent-crime","location_type":"Force","location":{"latitude":"51.640984","street":{"id":986091,"name":"On or near Wendy Close"},"longitude":"-0.068001"},"context":"","outcome_status":{"category":"Offender given suspended prison sentence","date":"2018-01"},"persistent_id":"f5b02c5d899e96513e08015d645f0c0092e1ccfc6a223abab6738ed0d40e4a7e","id":61021662,"location_subtype":"","month":"2017-11"},{"category":"violent-crime","location_type":"Force","location":{"latitude":"51.642387","street":{"id":986140,"name":"On or near Petrol Station"},"longitude":"-0.061481"},"context":"","outcome_status":{"category":"Investigation complete; no suspect identified","date":"2017-12"},"persistent_id":"6859819ef862bf4a50b5a91e1cf142fed0df90e528442716d612edb2719bc14b","id":61076454,"location_subtype":"","month":"2017-11"},{"category":"violent-crime","location_type":"Force","location":{"latitude":"51.638442","street":{"id":986047,"name":"On or near Summerhill Grove"},"longitude":"-0.077445"},"context":"","outcome_status":{"category":"Investigation complete; no suspect identified","date":"2018-01"},"persistent_id":"30e2e63b543d899855b56a1982df3b756bd26235f053f7b679e1accd43abf3a9","id":61020999,"location_subtype":"","month":"2017-11"},{"category":"violent-crime","location_type":"Force","location":{"latitude":"51.633623","street":{"id":985280,"name":"On or near Griffins Close"},"longitude":"-0.084686"},"context":"","outcome_status":{"category":"Investigation complete; no suspect identified","date":"2017-12"},"persistent_id":"acc8170d1fd846a7eff645ad614ab2dced03eaad84c650d584674c6a42274a92","id":61011528,"location_subtype":"","month":"2017-11"},{"category":"violent-crime","location_type":"Force","location":{"latitude":"51.622760","street":{"id":983825,"name":"On or near The Fairway"},"longitude":"-0.086357"},"context":"","outcome_status":{"category":"Investigation complete; no suspect identified","date":"2017-12"},"persistent_id":"cb1ecc3aa72ed498099b328fbd6f2f7f2295269062ea5879497beed166bb998a","id":61012092,"location_subtype":"","month":"2017-11"},{"category":"violent-crime","location_type":"Force","location":{"latitude":"51.637610","street":{"id":986083,"name":"On or near Amberley Road"},"longitude":"-0.070615"},"context":"","outcome_status":{"category":"Investigation complete; no suspect identified","date":"2018-04"},"persistent_id":"1759981a5c96e19e3464fb2ed3f00f959edcb7993642742ec51369c1d3ff0072","id":61077929,"location_subtype":"","month":"2017-11"},{"category":"violent-crime","location_type":"Force","location":{"latitude":"51.640984","street":{"id":986091,"name":"On or near Wendy Close"},"longitude":"-0.068001"},"context":"","outcome_status":{"category":"Status update unavailable","date":"2018-03"},"persistent_id":"f5b02c5d899e96513e08015d645f0c0092e1ccfc6a223abab6738ed0d40e4a7e","id":61021660,"location_subtype":"","month":"2017-11"},{"category":"violent-crime","location_type":"Force","location":{"latitude":"51.642057","street":{"id":986114,"name":"On or near Ladbroke Road"},"longitude":"-0.066539"},"context":"","outcome_status":{"category":"Status update unavailable","date":"2018-03"},"persistent_id":"561f596dc3b8314274ee40a67feff9b1c6c26d0d65893196c336f7f72f385194","id":61020556,"location_subtype":"","month":"2017-11"},{"category":"violent-crime","location_type":"Force","location":{"latitude":"51.642033","street":{"id":986039,"name":"On or near Parking Area"},"longitude":"-0.069965"},"context":"","outcome_status":{"category":"Investigation complete; no suspect identified","date":"2018-03"},"persistent_id":"313d3421028ac7e8b17bb51ee8cb138fc229c2168cefaf9dd8247fc71fcf5f2d","id":61106519,"location_subtype":"","month":"2017-11"},{"category":"violent-crime","location_type":"Force","location":{"latitude":"51.641940","street":{"id":986137,"name":"On or near Alberta Road"},"longitude":"-0.064332"},"context":"","outcome_status":{"category":"Investigation complete; no suspect identified","date":"2017-12"},"persistent_id":"368a3eb4165c88327be27b82a02ed660857aa2a59b004e3901c9f86034b21ab5","id":61118358,"location_subtype":"","month":"2017-11"},{"category":"violent-crime","location_type":"Force","location":{"latitude":"51.629586","street":{"id":985277,"name":"On or near Hyde Park Gardens"},"longitude":"-0.088049"},"context":"","outcome_status":{"category":"Investigation complete; no suspect identified","date":"2017-12"},"persistent_id":"5e43b078039fbcf1e22de8a82e7bf7747fe816285584232afb26426b67e5ba25","id":61009832,"location_subtype":"","month":"2017-11"},{"category":"violent-crime","location_type":"Force","location":{"latitude":"51.642387","street":{"id":986140,"name":"On or near Petrol Station"},"longitude":"-0.061481"},"context":"","outcome_status":{"category":"Investigation complete; no suspect identified","date":"2017-11"},"persistent_id":"b340f3b33705bdd52abd888e01257b8762cac8864a732b470a3604cd35bd5984","id":61080462,"location_subtype":"","month":"2017-11"},{"category":"violent-crime","location_type":"Force","location":{"latitude":"51.640984","street":{"id":986091,"name":"On or near Wendy Close"},"longitude":"-0.068001"},"context":"","outcome_status":{"category":"Status update unavailable","date":"2018-03"},"persistent_id":"f5b02c5d899e96513e08015d645f0c0092e1ccfc6a223abab6738ed0d40e4a7e","id":61021661,"location_subtype":"","month":"2017-11"}]