[{"category":"anti-social-behaviour","location_type":"Force","location":{"latitude":"51.594444","street":{"id":979433,"name":"On or near Kenmore Avenue"},"longitude":"-0.320859"},"context":"","outcome_status":null,"persistent_id":"","id":60982157,"location_subtype":"","month":"2017-11"},{"category":"anti-social-behaviour","location_type":"Force","location":{"latitude":"51.585933","street":{"id":973979,"name":"On or near Francis Road"},"longitude":"-0.323641"},"context":"","outcome_status":null,"persistent_id":"","id":60982159,"location_subtype":"","month":"2017-11"},{"category":"anti-social-behaviour","location_type":"Force","location":{"latitude":"51.589869","street":{"id":979411,"name":"On or near Cullington Close"},"longitude":"-0.324738"},"context":"","outcome_status":null,"persistent_id":"","id":60982178,"location_subtype":"","month":"2017-11"},{"category":"anti-social-behaviour","location_type":"Force","location":{"latitude":"51.587633","street":{"id":979354,"name":"On or near Kenton Park Close"},"longitude":"-0.305564"},"context":"","outcome_status":null,"persistent_id":"","id":60982120,"location_subtype":"","month":"2017-11"},{"category":"anti-social-behaviour","location_type":"Force","location":{"latitude":"51.587454","street":{"id":973959,"name":"On or near Hughenden Avenue"},"longitude":"-0.314361"},"context":"","outcome_status":null,"persistent_id":"","id":60982137,"location_subtype":"","month":"2017-11"},{"category":"anti-social-behaviour","location_type":"Force","location":{"latitude":"51.583967","street":{"id":973948,"name":"On or near Mayfield Avenue"},"longitude":"-0.316324"},"context":"","outcome_status":null,"persistent_id":"","id":60982143,"location_subtype":"","month":"2017-11"},{"category":"anti-social-behaviour","location_type":"Force","location":{"latitude":"51.583967","street":{"id":973948,"name":"On or near Mayfield Avenue"},"longitude":"-0.316324"},"context":"","outcome_status":null,"persistent_id":"","id":60982145,"location_subtype":"","month":"2017-11"},{"category":"anti-social-behaviour","location_type":"Force","location":{"latitude":"51.583967","street":{"id":973948,"name":"On or near Mayfield Avenue"},"longitude":"-0.316324"},"context":"","outcome_status":null,"persistent_id":"","id":60982147,"location_subtype":"","month":"2017-11"},{"category":"anti-social-behaviour","location_type":"Force","location":{"latitude":"51.600251","street":{"id":979424,"name":"On or near Parking Area"},"longitude":"-0.316920"},"context":"","outcome_status":null,"persistent_id":"","id":60982149,"location_subtype":"","month":"2017-11"},{"category":"anti-social-behaviour","location_type":"Force","location":{"latitude":"51.583875","street":{"id":973955,"name":"On or near Carlton Avenue"},"longitude":"-0.318102"},"context":"","outcome_status":null,"persistent_id":"","id":60982151,"location_subtype":"","month":"2017-11"},{"category":"bicycle-theft","location_type":"Force","location":{"latitude":"51.589869","street":{"id":979411,"name":"On or near Cullington Close"},"longitude":"-0.324738"},"context":"","outcome_status":{"category":"Investigation complete; no suspect identified","date":"2017-12"},"persistent_id":"2768c7079f7eedd47492fe1498071f54db610543bb8cc613475b3ed83362e41e","id":61101950,"location_subtype":"","month":"2017-11"},{"category":"bicycle-theft","location_type":"Force","location":{"latitude":"51.589869","street":{"id":979411,"name":"On or near Cullington Close"},"longitude":"-0.324738"},"context":"","outcome_status":{"category":"Status update unavailable","date":"2018-03"},"persistent_id":"cc4469d536aab61532e7882dcdb8eaace252f5a44bce40d25fbd73cf176b3a95","id":61065085,"location_subtype":"","month":"2017-11"},{"category":"burglary","location_type":"Force","location":{"latitude":"51.589869","street":{"id":979411,"name":"On or near Cullington Close"},"longitude":"-0.324738"},"context":"","outcome_status":{"category":"Status update unavailable","date":"2018-03"},"persistent_id":"a522196c506841250334f07e418bee9f33ddddf6304ef5fe87fb5e873c9f829b","id":61049662,"location_subtype":"","month":"2017-11"},{"category":"burglary","location_type":"Force","location":{"latitude":"51.589869","street":{"id":979411,"name":"On or near Cullington Close"},"longitude":"-0.324738"},"context":"","outcome_status":{"category":"Status update unavailable","date":"2018-03"},"persistent_id":"afec9bb6b956860daba783cfce331728354c6f9efffb15730ba7c1e549c61c21","id":61117606,"location_subtype":"","month":"2017-11"},{"category":"burglary","location_type":"Force","location":{"latitude":"51.589513","street":{"id":979432,"name":"On or near Kingshill Avenue"},"longitude":"-0.313664"},"context":"","outcome_status":{"category":"Status update unavailable","date":"2018-03"},"persistent_id":"743cac8d6de8494cf320f82396ba2237edf018fea6234985d4e421e03b6f1237","id":61066517,"location_subtype":"","month":"2017-11"},{"category":"burglary","location_type":"Force","location":{"latitude":"51.586185","street":{"id":973956,"name":"On or near Becmead Avenue"},"longitude":"-0.314885"},"context":"","outcome_status":{"category":"Investigation complete; no suspect identified","date":"2017-11"},"persistent_id":"5edb963b7f43c488bfa31447d1de039138a30b38e91173675a81c6049c254c98","id":61120781,"location_subtype":"","month":"2017-11"},{"category":"burglary","location_type":"Force","location":{"latitude":"51.598571","street":{"id":979426,"name":"On or near Tenby Avenue"},"longitude":"-0.316390"},"context":"","outcome_status":{"category":"Status update unavailable","date":"2018-03"},"persistent_id":"777612d922855ed86eafa67e637cf22c9fc8975ec57f220b612b2f5b53917575","id":61117169,"location_subtype":"","month":"2017-11"},{"category":"burglary","location_type":"Force","location":{"latitude":"51.593459","street":{"id":979445,"name":"On or near Alveston Avenue"},"longitude":"-0.315482"},"context":"","outcome_status":{"category":"Status update unavailable","date":"2018-03"},"persistent_id":"799ecc79fd984a02b133f72b6e0f8d727e14eb2750d825f102b4e963d50f7ca7","id":61063988,"location_subtype":"","month":"2017-11"},{"category":"burglary","location_type":"Force","location":{"latitude":"51.589869","street":{"id":979411,"name":"On or near Cullington Close"},"longitude":"-0.324738"},"context":"","outcome_status":{"category":"Status update unavailable","date":"2018-03"},"persistent_id":"23d45573713bc7a4923281eb9a46e85991fa3f5613739800f20180be4457d88e","id":61012690,"location_subtype":"","month":"2017-11"},{"category":"burglary","location_type":"Force","location":{"latitude":"51.589869","street":{"id":979411,"name":"On or near Cullington Close"},"longitude":"-0.324738"},"context":"","outcome_status":{"category":"Status update unavailable","date":"2018-03"},"persistent_id":"6a72ec4efa96dbe599876140891cb484d04237c95030fa1d0572a7b216ae6528","id":61113493,"location_subtype":"","month":"2017-11"},{"category":"burglary","location_type":"Force","location":{"latitude":"51.593459","street":{"id":979445,"name":"On or near Alveston Avenue"},"longitude":"-0.315482"},"context":"","outcome_status":{"category":"Status update unavailable","date":"2018-03"},"persistent_id":"e47ab7c8726785b4d9a7cf94fe708a3f123b9d8cb16012692221cb316d54d940","id":61070328,"location_subtype":"","month":"2017-11"},{"category":"criminal-damage-arson","location_type":"Force","location":{"latitude":"51.598571","street":{"id":979426,"name":"On or near Tenby Avenue"},"longitude":"-0.316390"},"context":"","outcome_status":{"category":"Status update unavailable","date":"2018-03"},"persistent_id":"f4fd8e16179a44c902fc97c4ebf173c0b2f52cdcf3b8680cdb89da15f25d584a","id":61023802,"location_subtype":"","month":"2017-11"},{"category":"criminal-damage-arson","location_type":"Force","location":{"latitude":"51.586185","street":{"id":973956,"name":"On or near Becmead Avenue"},"longitude":"-0.314885"},"context":"","outcome_status":{"category":"Status update unavailable","date":"2018-03"},"persistent_id":"0a38178b3bdc4402eee664fcb0562bb74b3f081a3eb0e8128f6efe102b22c9ae","id":61027494,"location_subtype":"","month":"2017-11"},{"category":"criminal-damage-arson","location_type":"Force","location":{"latitude":"51.598571","street":{"id":979426,"name":"On or near Tenby Avenue"},"longitude":"-0.316390"},"context":"","outcome_status":{"category":"Investigation complete; no suspect identified","date":"2017-12"},"persistent_id":"c2702630e743b6ac633367f701f9e3539fa5f2ee460c9f19799d5ccceac9e51a","id":61076235,"location_subtype":"","month":"2017-11"},{"category":"criminal-damage-arson","location_type":"Force","location":{"latitude":"51.591525","street":{"id":979414,"name":"On or near Christchurch Gardens"},"longitude":"-0.322930"},"context":"","outcome_status":{"category":"Status update unavailable","date":"2018-03"},"persistent_id":"92afec9d29f1b7a08033a43c33515b7fc35d88e4723a7228f56898e4239e984a","id":61134828,"location_subtype":"","month":"2017-11"},{"category":"drugs","location_type":"Force","location":{"latitude":"51.586341","street":{"id":974091,"name":"On or near Kenton Gardens"},"longitude":"-0.309480"},"context":"","outcome_status":{"category":"Court result unavailable","date":"2018-06"},"persistent_id":"e1b14477c752b1689099562b07c4ffd11c939761586c012480c837a25d1ca99c","id":61119339,"location_subtype":"","month":"2017-11"},{"category":"drugs","location_type":"Force","location":{"latitude":"51.589499","street":{"id":979439,"name":"On or near Daintry Close"},"longitude":"-0.320897"},"context":"","outcome_status":{"category":"Court result unavailable","date":"2018-05"},"persistent_id":"bbb5966629a857a00a9be6a2c00830df03029b9b71d8f6796208ccf3191ce606","id":61065438,"location_subtype":"","month":"2017-11"},{"category":"other-theft","location_type":"Force","location":{"latitude":"51.601064","street":{"id":980424,"name":"On or near Kenmore Avenue"},"longitude":"-0.318435"},"context":"","outcome_status":{"category":"Investigation complete; no suspect identified","date":"2017-12"},"persistent_id":"d72c2554f3a5777f1a57e98db95e9c7c8146a639271e3f3fb743ea3d25c2b9e1","id":61103501,"location_subtype":"","month":"2017-11"},{"category":"other-theft","location_type":"Force","location":{"latitude":"51.600251","street":{"id":979424,"name":"On or near Parking Area"},"longitude":"-0.316920"},"context":"","outcome_status":{"category":"Investigation complete; no suspect identified","date":"2017-12"},"persistent_id":"335e3786a9fde90736d4d4c227d5eba0fe630afeeac59f665db13c962d1e9e31","id":61125023,"location_subtype":"","month":"2017-11"},{"category":"other-theft","location_type":"Force","location":{"latitude":"51.590353","street":{"id":979409,"name":"On or near Forward Drive"},"longitude":"-0.327189"},"context":"","outcome_status":{"category":"Status update unavailable","date":"2018-03"},"persistent_id":"cdafd8011013ed734f98e98b428c0407c6d041825ece637aa854b697e866a427","id":61013767,"location_subtype":"","month":"2017-11"},{"category":"other-theft","location_type":"Force","location":{"latitude":"51.600251","street":{"id":979424,"name":"On or near Parking Area"},"longitude":"-0.316920"},"context":"","outcome_status":{"category":"Status update unavailable","date":"2018-03"},"persistent_id":"2bba5a0df632a6d6e4aa44f40aabda80eff8651c7b92f80b9acc15b2a629f910","id":61023337,"location_subtype":"","month":"2017-11"},{"category":"other-theft","location_type":"Force","location":{"latitude":"51.600251","street":{"id":979424,"name":"On or near Parking Area"},"longitude":"-0.316920"},"context":"","outcome_status":{"category":"Status update unavailable","date":"2018-03"},"persistent_id":"1dd8abc18a717b7c0fc6358e8909be625511c4527d152cb49c4e58a353aef5d2","id":61033702,"location_subtype":"","month":"2017-11"},{"category":"other-theft","location_type":"Force","location":{"latitude":"51.601064","street":{"id":980424,"name":"On or near Kenmore Avenue"},"longitude":"-0.318435"},"context":"","outcome_status":{"category":"Status update unavailable","date":"2018-03"},"persistent_id":"76b8e658283ad9b136bfa3d0567e5be7d37e01c160bb74b6bc8831333b10a63a","id":61053849,"location_subtype":"","month":"2017-11"},{"category":"other-theft","location_type":"Force","location":{"latitude":"51.601064","street":{"id":980424,"name":"On or near Kenmore Avenue"},"longitude":"-0.318435"},"context":"","outcome_status":{"category":"Status update unavailable","date":"2018-03"},"persistent_id":"5f957da18b50355cd5fade5f7fccce53e7383a1188960c062a148e77ba71eeb3","id":61066262,"location_subtype":"","month":"2017-11"},{"category":"other-theft","location_type":"Force","location":{"latitude":"51.600251","street":{"id":979424,"name":"On or near Parking Area"},"longitude":"-0.316920"},"context":"","outcome_status":{"category":"Investigation complete; no suspect identified","date":"2017-11"},"persistent_id":"982330f4877fadb35b57f6b620695945b7f7bf563491b2aad27f3919d384cd67","id":61058854,"location_subtype":"","month":"2017-11"},{"category":"possession-of-weapons","location_type":"Force","location":{"latitude":"51.588084","street":{"id":979355,"name":"On or near Kenton Park Avenue"},"longitude":"-0.303786"},"context":"","outcome_status":{"category":"Status update unavailable","date":"2018-03"},"persistent_id":"7b22ed04ef58bea26094a68c0fd940c764776b43dc0a816739d78b753ea1ea4d","id":61126279,"location_subtype":"","month":"2017-11"},{"category":"public-order","location_type":"Force","location":{"latitude":"51.594444","street":{"id":979433,"name":"On or near Kenmore Avenue"},"longitude":"-0.320859"},"context":"","outcome_status":{"category":"Status update unavailable","date":"2018-03"},"persistent_id":"3c41d70422d9546e9614e6c4cccb63068a8a81a3d93a061ce7ec93fd34473c2e","id":61075775,"location_subtype":"","month":"2017-11"},{"category":"public-order","location_type":"Force","location":{"latitude":"51.593029","street":{"id":979267,"name":"On or near Streatfield Road"},"longitude":"-0.310575"},"context":"","outcome_status":{"category":"Local resolution","date":"2017-11"},"persistent_id":"516ec008b26411c91d79e41b884a503ed035b05e63fc15a87f2f8471e3a852d8","id":61027359,"location_subtype":"","month":"2017-11"},{"category":"public-order","location_type":"Force","location":{"latitude":"51.591808","street":{"id":979278,"name":"On or near Kenton Lane"},"longitude":"-0.310115"},"context":"","outcome_status":{"category":"Status update unavailable","date":"2018-03"},"persistent_id":"1aeecc30d3e9e43ce1e3148189824a41bcc20189e5fd14a86bedf4fc312bb94d","id":61097990,"location_subtype":"","month":"2017-11"},{"category":"public-order","location_type":"Force","location":{"latitude":"51.588084","street":{"id":979355,"name":"On or near Kenton Park Avenue"},"longitude":"-0.303786"},"context":"","outcome_status":{"category":"Offender given suspended prison sentence","date":"2018-03"},"persistent_id":"7b22ed04ef58bea26094a68c0fd940c764776b43dc0a816739d78b753ea1ea4d","id":61133849,"location_subtype":"","month":"2017-11"},{"category":"robbery","location_type":"Force","location":{"latitude":"51.600978","street":{"id":980427,"name":"On or near Supermarket"},"longitude":"-0.316835"},"context":"","outcome_status":{"category":"Offender given community sentence","date":"2018-01"},"persistent_id":"4ecd60b3a98a38b9815dbe34c0f81a16357703925136bc91a8bb27c3c9911b96","id":61108879,"location_subtype":"","month":"2017-11"},{"category":"robbery","location_type":"Force","location":{"latitude":"51.595564","street":{"id":979362,"name":"On or near Kenton Lane"},"longitude":"-0.312415"},"context":"","outcome_status":{"category":"Defendant found not guilty","date":"2018-01"},"persistent_id":"d416ae932f9eb6450ae412992d980f5eeb9c728b5de54aaa64d8a73887c9cf46","id":61064903,"location_subtype":"","month":"2017-11"},{"category":"robbery","location_type":"Force","location":{"latitude":"51.587850","street":{"id":979356,"name":"On or near Alicia Close"},"longitude":"-0.310593"},"context":"","outcome_status":{"category":"Investigation complete; no suspect identified","date":"2017-11"},"persistent_id":"ab7d1fcd47a5f6a1f23e700a0f3f77a001ce0f8fe64b582e21837be5fb85f427","id":61027848,"location_subtype":"","month":"2017-11"},{"category":"shoplifting","location_type":"Force","location":{"latitude":"51.600978","street":{"id":980427,"name":"On or near Supermarket"},"longitude":"-0.316835"},"context":"","outcome_status":{"category":"Status update unavailable","date":"2018-03"},"persistent_id":"9997b44bbf5dd092633e19659e64b849427650263ebe76a913c6373fbf00626c","id":61021775,"location_subtype":"","month":"2017-11"},{"category":"shoplifting","location_type":"Force","location":{"latitude":"51.593918","street":{"id":979276,"name":"On or near Larkfield Avenue"},"longitude":"-0.312967"},"context":"","outcome_status":{"category":"Status update unavailable","date":"2018-03"},"persistent_id":"d679e8fd5bcacebe43e76d344f9cbbee507bc57e54b95a8fbc250500fca73784","id":61133197,"location_subtype":"","month":"2017-11"},{"category":"shoplifting","location_type":"Force","location":{"latitude":"51.600978","street":{"id":980427,"name":"On or near Supermarket"},"longitude":"-0.316835"},"context":"","outcome_status":{"category":"Status update unavailable","date":"2018-03"},"persistent_id":"68dd26d61718cf1d2d6fd1dc963b2c8e0e38b7d02669cfca18cf5d2c8760e288","id":61023618,"location_subtype":"","month":"2017-11"},{"category":"vehicle-crime","location_type":"Force","location":{"latitude":"51.588384","street":{"id":979353,"name":"On or near Kenton Park Road"},"longitude":"-0.306460"},"context":"","outcome_status":{"category":"Status update unavailable","date":"2018-03"},"persistent_id":"acc28b3e140f6a8435af3fa81baaf4de781cf896ff50d6535eb286b4b271b12d","id":61086621,"location_subtype":"","month":"2017-11"},{"category":"vehicle-crime","location_type":"Force","location":{"latitude":"51.591808","street":{"id":979278,"name":"On or near Kenton Lane"},"longitude":"-0.310115"},"context":"","outcome_status":{"category":"Status update unavailable","date":"2018-03"},"persistent_id":"00cd3ad486aca0a2a6d3aa2929c5118303bd25ca7517bd4d1891f1bda0671eb1","id":61127116,"location_subtype":"","month":"2017-11"},{"category":"vehicle-crime","location_type":"Force","location":{"latitude":"51.593459","street":{"id":979445,"name":"On or near Alveston Avenue"},"longitude":"-0.315482"},"context":"","outcome_status":{"category":"Investigation complete; no suspect identified","date":"2017-12"},"persistent_id":"c6d41abf9aee1af328d86e861bd29a251bf50ac522b701781903018176473ebb","id":61061962,"location_subtype":"","month":"2017-11"},{"category":"vehicle-crime","location_type":"Force","location":{"latitude":"51.590311","street":{"id":979293,"name":"On or near Alicia Gardens"},"longitude":"-0.310430"},"context":"","outcome_status":{"category":"Status update unavailable","date":"2018-03"},"persistent_id":"9efabad76b90e32f09cfa16381b2f6bdc0a20ec3ecb442ec2962e5ce051bb07d","id":61062990,"location_subtype":"","month":"2017-11"},{"category":"violent-crime","location_type":"Force","location":{"latitude":"51.587454","street":{"id":973959,"name":"On or near Hughenden Avenue"},"longitude":"-0.314361"},"context":"","outcome_status":{"category":"Investigation complete; no suspect identified","date":"2018-01"},"persistent_id":"b2c3cac13288c251de5a52644fe1277162863ff89ba2aacdde4a81f875e35af5","id":61078736,"location_subtype":"","month":"2017-11"},{"category":"violent-crime","location_type":"Force","location":{"latitude":"51.589869","street":{"id":979411,"name":"On or near Cullington Close"},"longitude":"-0.324738"},"context":"","outcome_status":{"category":"Status update unavailable","date":"2018-03"},"persistent_id":"8fd4ae25821cae945adcc53ceb1ecf32d589ef9b9ba6fcc29007f40f3cc95c65","id":61023700,"location_subtype":"","month":"2017-11"},{"category":"violent-crime","location_type":"Force","location":{"latitude":"51.591099","street":{"id":979425,"name":"On or near Wykeham Road"},"longitude":"-0.317042"},"context":"","outcome_status":{"category":"Investigation complete; no suspect identified","date":"2017-12"},"persistent_id":"4c59a0fbf373e6b6942f528682e136e1a83c44f7e85b91502c16d343ed666eba","id":61077585,"location_subtype":"","month":"2017-11"},{"category":"violent-crime","location_type":"Force","location":{"latitude":"51.589869","street":{"id":979411,"name":"On or near Cullington Close"},"longitude":"-0.324738"},"context":"","outcome_status":{"category":"Status update unavailable","date":"2018-03"},"persistent_id":"8ca4ba61f8e41215f30c0d9321aa7b0f1d0aa8e19982380ffe28b956b4806ce0","id":61024378,"location_subtype":"","month":"2017-11"},{"category":"violent-crime","location_type":"Force","location":{"latitude":"51.587850","street":{"id":979356,"name":"On or near Alicia Close"},"longitude":"-0.310593"},"context":"","outcome_status":{"category":"Investigation complete; no suspect identified","date":"2017-12"},"persistent_id":"cd50a6b1512c5e6d76b90192ea5ef56e0a1bb87310c000ffb8dad137284d6b80","id":61065250,"location_subtype":"","month":"2017-11"},{"category":"violent-crime","location_type":"Force","location":{"latitude":"51.589890","street":{"id":979441,"name":"On or near Brampton Grove"},"longitude":"-0.318068"},"context":"","outcome_status":{"category":"Investigation complete; no suspect identified","date":"2017-11"},"persistent_id":"e7552e48b05026a3baa91adc2ca4684461926fdc23948f86f764930b66b41134","id":61027202,"location_subtype":"","month":"2017-11"},{"category":"violent-crime","location_type":"Force","location":{"latitude":"51.594444","street":{"id":979433,"name":"On or near Kenmore Avenue"},"longitude":"-0.320859"},"context":"","outcome_status":{"category":"Court result unavailable","date":"2018-05"},"persistent_id":"837c3c8e9555cb312c696a25dcac8e51f5fbe5f2d6f65e1b449356bfc34b4495","id":61022622,"location_subtype":"","month":"2017-11"},{"category":"violent-crime","location_type":"Force","location":{"latitude":"51.595862","street":{"id":979428,"name":"On or near Pembroke Avenue"},"longitude":"-0.319392"},"context":"","outcome_status":{"category":"Investigation complete; no suspect identified","date":"2017-11"},"persistent_id":"cc3c79d7e58e702160e25469bcb0a32eab242c31f03eab8d7b184260889b5bb2","id":61022241,"location_subtype":"","month":"2017-11"},{"category":"violent-crime","location_type":"Force","location":{"latitude":"51.594444","street":{"id":979433,"name":"On or near Kenmore Avenue"},"longitude":"-0.320859"},"context":"","outcome_status":{"category":"Investigation complete; no suspect identified","date":"2017-11"},"persistent_id":"5331971ae4719420d751a021e19bc4fa457d21e03429807e0796eff11f78e359","id":61023336,"location_subtype":"","month":"2017-11"},{"category":"violent-crime","location_type":"Force","location":{"latitude":"51.587850","street":{"id":979356,"name":"On or near Alicia Close"},"longitude":"-0.310593"},"context":"","outcome_status":{"category":"Investigation complete; no suspect identified","date":"2017-12"},"persistent_id":"99042e45739256ca73c8ea1ef7a9c6217e93d035745200991ac8c278396d0d5f","id":61063845,"location_subtype":"","month":"2017-11"},{"category":"violent-crime","location_type":"Force","location":{"latitude":"51.594444","street":{"id":979433,"name":"On or near Kenmore Avenue"},"longitude":"-0.320859"},"context":"","outcome_status":{"category":"Court result unavailable","date":"2018-05"},"persistent_id":"3c41d70422d9546e9614e6c4cccb63068a8a81a3d93a061ce7ec93fd34473c2e","id":61077036,"location_subtype":"","month":"2017-11"},{"category":"violent-crime","location_type":"Force","location":{"latitude":"51.591620","street":{"id":979440,"name":"On or near Christchurch Avenue"},"longitude":"-0.318264"},"context":"","outcome_status":{"category":"Investigation complete; no suspect identified","date":"2018-03"},"persistent_id":"86768b0f91f76b9861ebe7b353535b568d0f666d42a17678ffca4cf97293c98c","id":61036442,"location_subtype":"","month":"2017-11"}]