[{"category":"anti-social-behaviour","location_type":"Force","location":{"latitude":"51.385597","street":{"id":929170,"name":"On or near Lovett Drive"},"longitude":"-0.183404"},"context":"","outcome_status":null,"persistent_id":"","id":60970234,"location_subtype":"","month":"2017-11"},{"category":"anti-social-behaviour","location_type":"Force","location":{"latitude":"51.379665","street":{"id":929158,"name":"On or near Welbeck Road"},"longitude":"-0.176655"},"context":"","outcome_status":null,"persistent_id":"","id":60970184,"location_subtype":"","month":"2017-11"},{"category":"anti-social-behaviour","location_type":"Force","location":{"latitude":"51.378368","street":{"id":929102,"name":"On or near Groveside Close"},"longitude":"-0.171878"},"context":"","outcome_status":null,"persistent_id":"","id":60970783,"location_subtype":"","month":"2017-11"},{"category":"anti-social-behaviour","location_type":"Force","location":{"latitude":"51.380554","street":{"id":924063,"name":"On or near Wrythe Lane"},"longitude":"-0.182957"},"context":"","outcome_status":null,"persistent_id":"","id":60970258,"location_subtype":"","month":"2017-11"},{"category":"anti-social-behaviour","location_type":"Force","location":{"latitude":"51.386251","street":{"id":929128,"name":"On or near Shearing Drive"},"longitude":"-0.185534"},"context":"","outcome_status":null,"persistent_id":"","id":60970801,"location_subtype":"","month":"2017-11"},{"category":"anti-social-behaviour","location_type":"Force","location":{"latitude":"51.382504","street":{"id":929151,"name":"On or near Sports\/recreation Area"},"longitude":"-0.184604"},"context":"","outcome_status":null,"persistent_id":"","id":60970798,"location_subtype":"","month":"2017-11"},{"category":"anti-social-behaviour","location_type":"Force","location":{"latitude":"51.380554","street":{"id":924063,"name":"On or near Wrythe Lane"},"longitude":"-0.182957"},"context":"","outcome_status":null,"persistent_id":"","id":60970788,"location_subtype":"","month":"2017-11"},{"category":"anti-social-behaviour","location_type":"Force","location":{"latitude":"51.380756","street":{"id":929004,"name":"On or near Green Wrythe Lane"},"longitude":"-0.171668"},"context":"","outcome_status":null,"persistent_id":"","id":60970786,"location_subtype":"","month":"2017-11"},{"category":"anti-social-behaviour","location_type":"Force","location":{"latitude":"51.380554","street":{"id":924063,"name":"On or near Wrythe Lane"},"longitude":"-0.182957"},"context":"","outcome_status":null,"persistent_id":"","id":60970253,"location_subtype":"","month":"2017-11"},{"category":"anti-social-behaviour","location_type":"Force","location":{"latitude":"51.380554","street":{"id":924063,"name":"On or near Wrythe Lane"},"longitude":"-0.182957"},"context":"","outcome_status":null,"persistent_id":"","id":60970248,"location_subtype":"","month":"2017-11"},{"category":"anti-social-behaviour","location_type":"Force","location":{"latitude":"51.380554","street":{"id":924063,"name":"On or near Wrythe Lane"},"longitude":"-0.182957"},"context":"","outcome_status":null,"persistent_id":"","id":60970245,"location_subtype":"","month":"2017-11"},{"category":"anti-social-behaviour","location_type":"Force","location":{"latitude":"51.380554","street":{"id":924063,"name":"On or near Wrythe Lane"},"longitude":"-0.182957"},"context":"","outcome_status":null,"persistent_id":"","id":60970242,"location_subtype":"","month":"2017-11"},{"category":"anti-social-behaviour","location_type":"Force","location":{"latitude":"51.380554","street":{"id":924063,"name":"On or near Wrythe Lane"},"longitude":"-0.182957"},"context":"","outcome_status":null,"persistent_id":"","id":60970239,"location_subtype":"","month":"2017-11"},{"category":"anti-social-behaviour","location_type":"Force","location":{"latitude":"51.385408","street":{"id":929126,"name":"On or near St Helier Avenue"},"longitude":"-0.189764"},"context":"","outcome_status":null,"persistent_id":"","id":60970845,"location_subtype":"","month":"2017-11"},{"category":"anti-social-behaviour","location_type":"Force","location":{"latitude":"51.382573","street":{"id":929129,"name":"On or near Rosehill Avenue"},"longitude":"-0.189028"},"context":"","outcome_status":null,"persistent_id":"","id":60970816,"location_subtype":"","month":"2017-11"},{"category":"anti-social-behaviour","location_type":"Force","location":{"latitude":"51.384294","street":{"id":929149,"name":"On or near A217"},"longitude":"-0.189822"},"context":"","outcome_status":null,"persistent_id":"","id":60970813,"location_subtype":"","month":"2017-11"},{"category":"anti-social-behaviour","location_type":"Force","location":{"latitude":"51.382573","street":{"id":929129,"name":"On or near Rosehill Avenue"},"longitude":"-0.189028"},"context":"","outcome_status":null,"persistent_id":"","id":60970820,"location_subtype":"","month":"2017-11"},{"category":"anti-social-behaviour","location_type":"Force","location":{"latitude":"51.385408","street":{"id":929126,"name":"On or near St Helier Avenue"},"longitude":"-0.189764"},"context":"","outcome_status":null,"persistent_id":"","id":60970842,"location_subtype":"","month":"2017-11"},{"category":"anti-social-behaviour","location_type":"Force","location":{"latitude":"51.386093","street":{"id":929143,"name":"On or near Green Lane"},"longitude":"-0.192180"},"context":"","outcome_status":null,"persistent_id":"","id":60970862,"location_subtype":"","month":"2017-11"},{"category":"anti-social-behaviour","location_type":"Force","location":{"latitude":"51.386093","street":{"id":929143,"name":"On or near Green Lane"},"longitude":"-0.192180"},"context":"","outcome_status":null,"persistent_id":"","id":60970867,"location_subtype":"","month":"2017-11"},{"category":"anti-social-behaviour","location_type":"Force","location":{"latitude":"51.386093","street":{"id":929143,"name":"On or near Green Lane"},"longitude":"-0.192180"},"context":"","outcome_status":null,"persistent_id":"","id":60970868,"location_subtype":"","month":"2017-11"},{"category":"anti-social-behaviour","location_type":"Force","location":{"latitude":"51.379665","street":{"id":929158,"name":"On or near Welbeck Road"},"longitude":"-0.176655"},"context":"","outcome_status":null,"persistent_id":"","id":60970198,"location_subtype":"","month":"2017-11"},{"category":"anti-social-behaviour","location_type":"Force","location":{"latitude":"51.379805","street":{"id":929157,"name":"On or near Whitland Road"},"longitude":"-0.178733"},"context":"","outcome_status":null,"persistent_id":"","id":60970204,"location_subtype":"","month":"2017-11"},{"category":"anti-social-behaviour","location_type":"Force","location":{"latitude":"51.384047","street":{"id":929182,"name":"On or near Assembly Walk"},"longitude":"-0.174512"},"context":"","outcome_status":null,"persistent_id":"","id":60970175,"location_subtype":"","month":"2017-11"},{"category":"anti-social-behaviour","location_type":"Force","location":{"latitude":"51.384047","street":{"id":929182,"name":"On or near Assembly Walk"},"longitude":"-0.174512"},"context":"","outcome_status":null,"persistent_id":"","id":60970176,"location_subtype":"","month":"2017-11"},{"category":"anti-social-behaviour","location_type":"Force","location":{"latitude":"51.384047","street":{"id":929165,"name":"On or near Titchfield Walk"},"longitude":"-0.177386"},"context":"","outcome_status":null,"persistent_id":"","id":60970181,"location_subtype":"","month":"2017-11"},{"category":"anti-social-behaviour","location_type":"Force","location":{"latitude":"51.380554","street":{"id":924063,"name":"On or near Wrythe Lane"},"longitude":"-0.182957"},"context":"","outcome_status":null,"persistent_id":"","id":60970225,"location_subtype":"","month":"2017-11"},{"category":"anti-social-behaviour","location_type":"Force","location":{"latitude":"51.380554","street":{"id":924063,"name":"On or near Wrythe Lane"},"longitude":"-0.182957"},"context":"","outcome_status":null,"persistent_id":"","id":60970251,"location_subtype":"","month":"2017-11"},{"category":"anti-social-behaviour","location_type":"Force","location":{"latitude":"51.378265","street":{"id":929190,"name":"On or near Whitby Road"},"longitude":"-0.180892"},"context":"","outcome_status":null,"persistent_id":"","id":60970219,"location_subtype":"","month":"2017-11"},{"category":"anti-social-behaviour","location_type":"Force","location":{"latitude":"51.382473","street":{"id":929163,"name":"On or near Twyford Road"},"longitude":"-0.180840"},"context":"","outcome_status":null,"persistent_id":"","id":60970228,"location_subtype":"","month":"2017-11"},{"category":"anti-social-behaviour","location_type":"Force","location":{"latitude":"51.380554","street":{"id":924063,"name":"On or near Wrythe Lane"},"longitude":"-0.182957"},"context":"","outcome_status":null,"persistent_id":"","id":60970256,"location_subtype":"","month":"2017-11"},{"category":"anti-social-behaviour","location_type":"Force","location":{"latitude":"51.385597","street":{"id":929170,"name":"On or near Lovett Drive"},"longitude":"-0.183404"},"context":"","outcome_status":null,"persistent_id":"","id":60970232,"location_subtype":"","month":"2017-11"},{"category":"burglary","location_type":"Force","location":{"latitude":"51.380554","street":{"id":924063,"name":"On or near Wrythe Lane"},"longitude":"-0.182957"},"context":"","outcome_status":{"category":"Status update unavailable","date":"2018-03"},"persistent_id":"c66011578cb35de2b4d061cf55c753ab24e2fe214f475409527980607ec2b303","id":61077945,"location_subtype":"","month":"2017-11"},{"category":"burglary","location_type":"Force","location":{"latitude":"51.383439","street":{"id":929139,"name":"On or near Lindores Road"},"longitude":"-0.186895"},"context":"","outcome_status":{"category":"Investigation complete; no suspect identified","date":"2017-12"},"persistent_id":"2e1f38c45e52f1877fe0ec57e12b1c28e2a0a90ae61fd649c99b06c183964fe6","id":61120801,"location_subtype":"","month":"2017-11"},{"category":"burglary","location_type":"Force","location":{"latitude":"51.386251","street":{"id":929128,"name":"On or near Shearing Drive"},"longitude":"-0.185534"},"context":"","outcome_status":{"category":"Investigation complete; no suspect identified","date":"2018-03"},"persistent_id":"d6d43d1a8d6e58fc6e806000da8a5be63df19803cf25baea680b4cabc6b0cf36","id":61030107,"location_subtype":"","month":"2017-11"},{"category":"burglary","location_type":"Force","location":{"latitude":"51.378663","street":{"id":929193,"name":"On or near Wendling Road"},"longitude":"-0.180460"},"context":"","outcome_status":{"category":"Investigation complete; no suspect identified","date":"2017-12"},"persistent_id":"71efe7ec62fd7b612ac843a39649f3fecb81af084670170dc809bfa9687522dd","id":61071531,"location_subtype":"","month":"2017-11"},{"category":"burglary","location_type":"Force","location":{"latitude":"51.383439","street":{"id":929139,"name":"On or near Lindores Road"},"longitude":"-0.186895"},"context":"","outcome_status":{"category":"Status update unavailable","date":"2018-03"},"persistent_id":"befd0fa7fcf5831eb556c1e9e77d6028ad8f4c7d2624846067312270bce7e245","id":61133626,"location_subtype":"","month":"2017-11"},{"category":"burglary","location_type":"Force","location":{"latitude":"51.385272","street":{"id":929284,"name":"On or near Hartland Road"},"longitude":"-0.197860"},"context":"","outcome_status":{"category":"Investigation complete; no suspect identified","date":"2017-11"},"persistent_id":"32e18d3cb2d52d65deb8d89ada4762aab932454e06557adb6481df5af00e98b8","id":61025247,"location_subtype":"","month":"2017-11"},{"category":"burglary","location_type":"Force","location":{"latitude":"51.380554","street":{"id":924063,"name":"On or near Wrythe Lane"},"longitude":"-0.182957"},"context":"","outcome_status":{"category":"Investigation complete; no suspect identified","date":"2018-05"},"persistent_id":"d8aba39a19b38983e04f325c1c01f7e5d6c4dd466eaeaa9bb399451cf699759c","id":61019621,"location_subtype":"","month":"2017-11"},{"category":"criminal-damage-arson","location_type":"Force","location":{"latitude":"51.378402","street":{"id":929191,"name":"On or near Whitby Gardens"},"longitude":"-0.181591"},"context":"","outcome_status":{"category":"Offender given community sentence","date":"2017-11"},"persistent_id":"15b6e9f59a9ea761b4405e6e60347f56193f9333804c6f65c2eb65017c994ad5","id":61023919,"location_subtype":"","month":"2017-11"},{"category":"criminal-damage-arson","location_type":"Force","location":{"latitude":"51.380554","street":{"id":924063,"name":"On or near Wrythe Lane"},"longitude":"-0.182957"},"context":"","outcome_status":{"category":"Status update unavailable","date":"2018-03"},"persistent_id":"79abe0f75450f1b3e5c4e95ef0b4e6c07e09987819b008da957a309b1b2bf937","id":61097351,"location_subtype":"","month":"2017-11"},{"category":"criminal-damage-arson","location_type":"Force","location":{"latitude":"51.381598","street":{"id":929161,"name":"On or near Tewkesbury Road"},"longitude":"-0.178935"},"context":"","outcome_status":{"category":"Status update unavailable","date":"2018-03"},"persistent_id":"cc9384fda9be38a8b51fa63ec5aa359eb310d7695669277fa1db5e1bc6569287","id":61016164,"location_subtype":"","month":"2017-11"},{"category":"criminal-damage-arson","location_type":"Force","location":{"latitude":"51.386257","street":{"id":929144,"name":"On or near Dorchester Road"},"longitude":"-0.191167"},"context":"","outcome_status":{"category":"Offender given a caution","date":"2017-11"},"persistent_id":"93b3727ae1a2174ff09127360ab93f5571bf5f79ef8fbf939a45b8005fa1938e","id":61053186,"location_subtype":"","month":"2017-11"},{"category":"criminal-damage-arson","location_type":"Force","location":{"latitude":"51.379582","street":{"id":929154,"name":"On or near Woburn Road"},"longitude":"-0.174215"},"context":"","outcome_status":{"category":"Status update unavailable","date":"2018-03"},"persistent_id":"4d0d0b68f9817c58ab05f7af5db83e7c32a88d329beeaece02b514f731d34674","id":61061952,"location_subtype":"","month":"2017-11"},{"category":"criminal-damage-arson","location_type":"Force","location":{"latitude":"51.376993","street":{"id":929199,"name":"On or near Duke Of Edinburgh Road"},"longitude":"-0.181761"},"context":"","outcome_status":{"category":"Status update unavailable","date":"2018-03"},"persistent_id":"8f0f5bafafbbf17b16f1b46bfca4a331c4a697fa939975108b49f42d0634830b","id":61116050,"location_subtype":"","month":"2017-11"},{"category":"criminal-damage-arson","location_type":"Force","location":{"latitude":"51.383190","street":{"id":929288,"name":"On or near Glastonbury Road"},"longitude":"-0.198129"},"context":"","outcome_status":{"category":"Status update unavailable","date":"2018-03"},"persistent_id":"e38281027d61d5bbcffd761bb9ee5b25fea8bf23daeae49eaa9c947570ea3db7","id":61127255,"location_subtype":"","month":"2017-11"},{"category":"criminal-damage-arson","location_type":"Force","location":{"latitude":"51.378265","street":{"id":929190,"name":"On or near Whitby Road"},"longitude":"-0.180892"},"context":"","outcome_status":{"category":"Status update unavailable","date":"2018-03"},"persistent_id":"f252e6eb37d00516961dbe7d4cf6d4174b2ca43c978863ada46be7742008a07f","id":61122995,"location_subtype":"","month":"2017-11"},{"category":"criminal-damage-arson","location_type":"Force","location":{"latitude":"51.378663","street":{"id":929193,"name":"On or near Wendling Road"},"longitude":"-0.180460"},"context":"","outcome_status":{"category":"Status update unavailable","date":"2018-03"},"persistent_id":"e3d3add43d4ae28c1ad59498a3204d3a325adce8e80019123390781665ce2241","id":61072980,"location_subtype":"","month":"2017-11"},{"category":"criminal-damage-arson","location_type":"Force","location":{"latitude":"51.385597","street":{"id":929170,"name":"On or near Lovett Drive"},"longitude":"-0.183404"},"context":"","outcome_status":{"category":"Status update unavailable","date":"2018-03"},"persistent_id":"0ee3673c0dbcb4a3228d5446eeba0eb5a364abcebf27b8dc0e75968f60af2569","id":61005833,"location_subtype":"","month":"2017-11"},{"category":"drugs","location_type":"Force","location":{"latitude":"51.386104","street":{"id":929142,"name":"On or near Haines Walk"},"longitude":"-0.191188"},"context":"","outcome_status":{"category":"Offender fined","date":"2017-12"},"persistent_id":"fa9a11728b05032cdae8ae5daf36ef1ce14f932850d826f3b83c6934b604fb09","id":61091217,"location_subtype":"","month":"2017-11"},{"category":"other-theft","location_type":"Force","location":{"latitude":"51.384054","street":{"id":929152,"name":"On or near Supermarket"},"longitude":"-0.189429"},"context":"","outcome_status":{"category":"Investigation complete; no suspect identified","date":"2017-12"},"persistent_id":"63334f543f4b4c95c62ed4eeac41a7fe17edd5e8ecf6afe5b2e53e3f5c799525","id":61077510,"location_subtype":"","month":"2017-11"},{"category":"other-theft","location_type":"Force","location":{"latitude":"51.380554","street":{"id":924063,"name":"On or near Wrythe Lane"},"longitude":"-0.182957"},"context":"","outcome_status":{"category":"Status update unavailable","date":"2018-03"},"persistent_id":"e77402043d73090f74bd608224a79435714c304488b6209601f528f60b499018","id":61104200,"location_subtype":"","month":"2017-11"},{"category":"other-theft","location_type":"Force","location":{"latitude":"51.379665","street":{"id":929158,"name":"On or near Welbeck Road"},"longitude":"-0.176655"},"context":"","outcome_status":{"category":"Investigation complete; no suspect identified","date":"2017-11"},"persistent_id":"c945a1f4729ee6cb1c82d26d3e56daccf4aa0b18cb5ce9957742e7d2df4ce7cc","id":61089216,"location_subtype":"","month":"2017-11"},{"category":"other-theft","location_type":"Force","location":{"latitude":"51.383502","street":{"id":929283,"name":"On or near Hexham Road"},"longitude":"-0.196780"},"context":"","outcome_status":{"category":"Status update unavailable","date":"2018-03"},"persistent_id":"e214e28161cad5057516a47957da395fce4f3e940e64f68c78561b3ec60f1cfd","id":61095299,"location_subtype":"","month":"2017-11"},{"category":"other-theft","location_type":"Force","location":{"latitude":"51.380554","street":{"id":924063,"name":"On or near Wrythe Lane"},"longitude":"-0.182957"},"context":"","outcome_status":{"category":"Status update unavailable","date":"2018-03"},"persistent_id":"a2e2f5ba6d569c9ff3b466c370aca07480d2794291f09e04f5d94f22d9225400","id":61011598,"location_subtype":"","month":"2017-11"},{"category":"other-theft","location_type":"Force","location":{"latitude":"51.382094","street":{"id":929167,"name":"On or near Thornton Road"},"longitude":"-0.177866"},"context":"","outcome_status":{"category":"Status update unavailable","date":"2018-03"},"persistent_id":"09a94f3a75c6d3399efa89fcec99f96d3b1adbe003dfe7d38dd4f9106406c601","id":61014467,"location_subtype":"","month":"2017-11"},{"category":"other-theft","location_type":"Force","location":{"latitude":"51.382806","street":{"id":929278,"name":"On or near Kirksted Road"},"longitude":"-0.196577"},"context":"","outcome_status":{"category":"Investigation complete; no suspect identified","date":"2017-12"},"persistent_id":"fa19095d3950d5f696fa5e071b9bfab21f5d74265ac9af848e238e8f7c4d9cf6","id":61130838,"location_subtype":"","month":"2017-11"},{"category":"other-theft","location_type":"Force","location":{"latitude":"51.382573","street":{"id":929129,"name":"On or near Rosehill Avenue"},"longitude":"-0.189028"},"context":"","outcome_status":{"category":"Status update unavailable","date":"2018-03"},"persistent_id":"3b594204f1499707c101bdd212c0c78e84284396ba0f8fb3631b03e1a55b3209","id":61019580,"location_subtype":"","month":"2017-11"},{"category":"other-theft","location_type":"Force","location":{"latitude":"51.384170","street":{"id":929181,"name":"On or near Assembly Walk"},"longitude":"-0.174909"},"context":"","outcome_status":{"category":"Investigation complete; no suspect identified","date":"2017-12"},"persistent_id":"3003c9beec3a5549bc8f4b590f00b8b95047bdce10bd138b8080e37ea7c1f4ab","id":61071667,"location_subtype":"","month":"2017-11"},{"category":"possession-of-weapons","location_type":"Force","location":{"latitude":"51.386093","street":{"id":929143,"name":"On or near Green Lane"},"longitude":"-0.192180"},"context":"","outcome_status":{"category":"Investigation complete; no suspect identified","date":"2017-11"},"persistent_id":"993f51ee3a24a2f320aebaeded31e2c0a6c6646af28353d2ee96a21c787518ad","id":61064753,"location_subtype":"","month":"2017-11"},{"category":"public-order","location_type":"Force","location":{"latitude":"51.379582","street":{"id":929154,"name":"On or near Woburn Road"},"longitude":"-0.174215"},"context":"","outcome_status":{"category":"Investigation complete; no suspect identified","date":"2017-12"},"persistent_id":"4298000dbb63f856751aeb4a3fc97cee0e5e1d1dc9044fd89e9ed8da4d682243","id":61061676,"location_subtype":"","month":"2017-11"},{"category":"public-order","location_type":"Force","location":{"latitude":"51.386093","street":{"id":929143,"name":"On or near Green Lane"},"longitude":"-0.192180"},"context":"","outcome_status":{"category":"Status update unavailable","date":"2018-03"},"persistent_id":"99ad070aaa134e3b6f1a71a3982a24dcf8c281fbc666138627d4b3293a093440","id":61022217,"location_subtype":"","month":"2017-11"},{"category":"public-order","location_type":"Force","location":{"latitude":"51.380554","street":{"id":924063,"name":"On or near Wrythe Lane"},"longitude":"-0.182957"},"context":"","outcome_status":{"category":"Offender given community sentence","date":"2018-03"},"persistent_id":"685ee7a23d07a486227a93dbb800169f7ce638f3a850a4d4926d478be728ad89","id":61028089,"location_subtype":"","month":"2017-11"},{"category":"public-order","location_type":"Force","location":{"latitude":"51.383180","street":{"id":929130,"name":"On or near Rose Hill"},"longitude":"-0.190513"},"context":"","outcome_status":{"category":"Investigation complete; no suspect identified","date":"2017-11"},"persistent_id":"c5d1b665fed83a47162a3a649d390acf549d49d19565fc97a83a99ca77552c67","id":61060038,"location_subtype":"","month":"2017-11"},{"category":"public-order","location_type":"Force","location":{"latitude":"51.383180","street":{"id":929130,"name":"On or near Rose Hill"},"longitude":"-0.190513"},"context":"","outcome_status":{"category":"Status update unavailable","date":"2018-03"},"persistent_id":"a2ba0d1268a5eeb838ce537c1046a1681dddc5c6533f383b4d2df7fd6888acbd","id":61082643,"location_subtype":"","month":"2017-11"},{"category":"public-order","location_type":"Force","location":{"latitude":"51.378663","street":{"id":929193,"name":"On or near Wendling Road"},"longitude":"-0.180460"},"context":"","outcome_status":{"category":"Status update unavailable","date":"2018-03"},"persistent_id":"77c242403ef80774d9bd2a928bded70155cfbc6c4ac5b06572dea307b71e4e77","id":61092789,"location_subtype":"","month":"2017-11"},{"category":"public-order","location_type":"Force","location":{"latitude":"51.385474","street":{"id":929153,"name":"On or near Hospital"},"longitude":"-0.189373"},"context":"","outcome_status":{"category":"Investigation complete; no suspect identified","date":"2018-01"},"persistent_id":"aa5e2c4ab617b5102a0c4d7ef9c02dcc5b2cb876359320f107e6e9b7428b3f50","id":61117889,"location_subtype":"","month":"2017-11"},{"category":"robbery","location_type":"Force","location":{"latitude":"51.380554","street":{"id":924063,"name":"On or near Wrythe Lane"},"longitude":"-0.182957"},"context":"","outcome_status":{"category":"Investigation complete; no suspect identified","date":"2018-01"},"persistent_id":"79445baff8d7dbfeef30960e67b06d68702ff481c55cd04f7976062c1b137d18","id":61134764,"location_subtype":"","month":"2017-11"},{"category":"robbery","location_type":"Force","location":{"latitude":"51.380554","street":{"id":924063,"name":"On or near Wrythe Lane"},"longitude":"-0.182957"},"context":"","outcome_status":{"category":"Status update unavailable","date":"2018-03"},"persistent_id":"79445baff8d7dbfeef30960e67b06d68702ff481c55cd04f7976062c1b137d18","id":61134763,"location_subtype":"","month":"2017-11"},{"category":"shoplifting","location_type":"Force","location":{"latitude":"51.383180","street":{"id":929130,"name":"On or near Rose Hill"},"longitude":"-0.190513"},"context":"","outcome_status":{"category":"Status update unavailable","date":"2018-03"},"persistent_id":"4b6ebf5e4166dd9b1c403f2a15c9974205864223857b9a59439ae665fea7e96b","id":61027730,"location_subtype":"","month":"2017-11"},{"category":"shoplifting","location_type":"Force","location":{"latitude":"51.383180","street":{"id":929130,"name":"On or near Rose Hill"},"longitude":"-0.190513"},"context":"","outcome_status":{"category":"Investigation complete; no suspect identified","date":"2017-11"},"persistent_id":"a2ba0d1268a5eeb838ce537c1046a1681dddc5c6533f383b4d2df7fd6888acbd","id":61082883,"location_subtype":"","month":"2017-11"},{"category":"theft-from-the-person","location_type":"Force","location":{"latitude":"51.385474","street":{"id":929153,"name":"On or near Hospital"},"longitude":"-0.189373"},"context":"","outcome_status":{"category":"Status update unavailable","date":"2018-03"},"persistent_id":"16bb94c6c7a6f6917bb9ef620a2d5326bb08c14ed52f32dfe25c9ba8c4864615","id":61004287,"location_subtype":"","month":"2017-11"},{"category":"vehicle-crime","location_type":"Force","location":{"latitude":"51.382573","street":{"id":929129,"name":"On or near Rosehill Avenue"},"longitude":"-0.189028"},"context":"","outcome_status":{"category":"Status update unavailable","date":"2018-03"},"persistent_id":"f0a2a3a8e8bfd4aa61db9d42d8860af03c4a57993c138aeb89a0603d060673a8","id":61076651,"location_subtype":"","month":"2017-11"},{"category":"vehicle-crime","location_type":"Force","location":{"latitude":"51.383245","street":{"id":929164,"name":"On or near Tweeddale Road"},"longitude":"-0.181313"},"context":"","outcome_status":{"category":"Status update unavailable","date":"2018-03"},"persistent_id":"0adb51c4fbdf66af52aa5ab6bf5b403220f5c6d572ea04b37ab6bcc157ef64f7","id":61030178,"location_subtype":"","month":"2017-11"},{"category":"vehicle-crime","location_type":"Force","location":{"latitude":"51.384047","street":{"id":929165,"name":"On or near Titchfield Walk"},"longitude":"-0.177386"},"context":"","outcome_status":{"category":"Investigation complete; no suspect identified","date":"2017-12"},"persistent_id":"2e8a1045fa01a162d1c3719f32ce37dd3f68438836f5e97cac46dcf72e80f3ea","id":61033461,"location_subtype":"","month":"2017-11"},{"category":"vehicle-crime","location_type":"Force","location":{"latitude":"51.383180","street":{"id":929130,"name":"On or near Rose Hill"},"longitude":"-0.190513"},"context":"","outcome_status":{"category":"Status update unavailable","date":"2018-03"},"persistent_id":"262c28c82976597c697ff143537593b92aeb96b02337ef06acce79699dd02012","id":61067710,"location_subtype":"","month":"2017-11"},{"category":"vehicle-crime","location_type":"Force","location":{"latitude":"51.379805","street":{"id":929157,"name":"On or near Whitland Road"},"longitude":"-0.178733"},"context":"","outcome_status":{"category":"Status update unavailable","date":"2018-03"},"persistent_id":"8b341f8f4b87c0e1c61c26b323be0f3923a1d80206eecc53814a7e49a654b6a0","id":61109172,"location_subtype":"","month":"2017-11"},{"category":"vehicle-crime","location_type":"Force","location":{"latitude":"51.382980","street":{"id":929177,"name":"On or near St Paul's Close"},"longitude":"-0.174123"},"context":"","outcome_status":{"category":"Status update unavailable","date":"2018-03"},"persistent_id":"edc0f69bd39596197455df828fdc0905b4e45a5e415d025cea278e8a289c2f16","id":61019641,"location_subtype":"","month":"2017-11"},{"category":"violent-crime","location_type":"Force","location":{"latitude":"51.382573","street":{"id":929129,"name":"On or near Rosehill Avenue"},"longitude":"-0.189028"},"context":"","outcome_status":{"category":"Investigation complete; no suspect identified","date":"2018-03"},"persistent_id":"8b6f868444af0df10cdac7653caaa9b8f51974df0e7204ddfa2402c77c180ee2","id":61078533,"location_subtype":"","month":"2017-11"},{"category":"violent-crime","location_type":"Force","location":{"latitude":"51.377060","street":{"id":929192,"name":"On or near Westminster Road"},"longitude":"-0.181428"},"context":"","outcome_status":{"category":"Investigation complete; no suspect identified","date":"2017-11"},"persistent_id":"39f9f714a6c3fa81acff24b4a922b64c8f58c96e7a99b62e00bdac281b780718","id":61086496,"location_subtype":"","month":"2017-11"},{"category":"violent-crime","location_type":"Force","location":{"latitude":"51.381540","street":{"id":929159,"name":"On or near Waltham Road"},"longitude":"-0.176350"},"context":"","outcome_status":{"category":"Status update unavailable","date":"2018-03"},"persistent_id":"16f20a9fa8c6e37d22d7a3361fb1527e0c29e7146f7224a6b656d558018f484f","id":61018701,"location_subtype":"","month":"2017-11"},{"category":"violent-crime","location_type":"Force","location":{"latitude":"51.383180","street":{"id":929130,"name":"On or near Rose Hill"},"longitude":"-0.190513"},"context":"","outcome_status":{"category":"Status update unavailable","date":"2018-03"},"persistent_id":"b1e9e4e763d8b2c327794916edcb93307e597d7467c487fb182c937b6dbc3931","id":61020648,"location_subtype":"","month":"2017-11"},{"category":"violent-crime","location_type":"Force","location":{"latitude":"51.386093","street":{"id":929143,"name":"On or near Green Lane"},"longitude":"-0.192180"},"context":"","outcome_status":{"category":"Investigation complete; no suspect identified","date":"2017-11"},"persistent_id":"7d741d1b6bb400702567d5b74e72fcd6430da3f8b164c1f143697edb49869f01","id":61026609,"location_subtype":"","month":"2017-11"},{"category":"violent-crime","location_type":"Force","location":{"latitude":"51.379124","street":{"id":929005,"name":"On or near Green Wrythe Crescent"},"longitude":"-0.171345"},"context":"","outcome_status":{"category":"Status update unavailable","date":"2018-03"},"persistent_id":"ef275147d609903f6e0086974ab09454cf46043292bf3cc6f389e320e845c27b","id":61074896,"location_subtype":"","month":"2017-11"},{"category":"violent-crime","location_type":"Force","location":{"latitude":"51.383502","street":{"id":929283,"name":"On or near Hexham Road"},"longitude":"-0.196780"},"context":"","outcome_status":{"category":"Awaiting court outcome","date":"2018-01"},"persistent_id":"58a822ec676895aa0e5f17adeb7bebba7f8d30321e97f831c3c2436a137e683d","id":61092859,"location_subtype":"","month":"2017-11"},{"category":"violent-crime","location_type":"Force","location":{"latitude":"51.381598","street":{"id":929161,"name":"On or near Tewkesbury Road"},"longitude":"-0.178935"},"context":"","outcome_status":{"category":"Status update unavailable","date":"2018-03"},"persistent_id":"cfd89ee688c061720df361b6f7d1ccc1fb1e3053bd36e43773d774ba5a85fd1e","id":61028067,"location_subtype":"","month":"2017-11"},{"category":"violent-crime","location_type":"Force","location":{"latitude":"51.384054","street":{"id":929152,"name":"On or near Supermarket"},"longitude":"-0.189429"},"context":"","outcome_status":{"category":"Investigation complete; no suspect identified","date":"2018-04"},"persistent_id":"103a5a786a46a85a8160c42676d5195ca361fadd2b99c80a3f7f1f9b90e88d2e","id":61034756,"location_subtype":"","month":"2017-11"},{"category":"violent-crime","location_type":"Force","location":{"latitude":"51.384047","street":{"id":929182,"name":"On or near Assembly Walk"},"longitude":"-0.174512"},"context":"","outcome_status":{"category":"Status update unavailable","date":"2018-03"},"persistent_id":"3e81e71a2cb07499aa8292d9f4624ddf0c2af4f26e69f3680465dd82593ef374","id":61097689,"location_subtype":"","month":"2017-11"},{"category":"violent-crime","location_type":"Force","location":{"latitude":"51.382094","street":{"id":929167,"name":"On or near Thornton Road"},"longitude":"-0.177866"},"context":"","outcome_status":{"category":"Investigation complete; no suspect identified","date":"2017-12"},"persistent_id":"007741cbf0e28540724e6d45f3ef99985df2aedaa8aab6e02b6b77497c8e5f21","id":61125382,"location_subtype":"","month":"2017-11"},{"category":"violent-crime","location_type":"Force","location":{"latitude":"51.380554","street":{"id":924063,"name":"On or near Wrythe Lane"},"longitude":"-0.182957"},"context":"","outcome_status":{"category":"Local resolution","date":"2018-01"},"persistent_id":"f6fbd88e18948150fa5c303da199156c97914a0fbbb00efc53ca115aee8d5366","id":61009451,"location_subtype":"","month":"2017-11"},{"category":"violent-crime","location_type":"Force","location":{"latitude":"51.381598","street":{"id":929161,"name":"On or near Tewkesbury Road"},"longitude":"-0.178935"},"context":"","outcome_status":{"category":"Investigation complete; no suspect identified","date":"2017-12"},"persistent_id":"d7afafa165c633faf23a96b5543a886173f82feb6c20b51124bfaf77e6b528e5","id":61130064,"location_subtype":"","month":"2017-11"},{"category":"violent-crime","location_type":"Force","location":{"latitude":"51.386711","street":{"id":929147,"name":"On or near Canterbury Road"},"longitude":"-0.192012"},"context":"","outcome_status":{"category":"Investigation complete; no suspect identified","date":"2018-04"},"persistent_id":"091eaf4136b669e84ab4c00675b13358048bab72fc9f543b450f654930051b4a","id":61111197,"location_subtype":"","month":"2017-11"},{"category":"violent-crime","location_type":"Force","location":{"latitude":"51.379582","street":{"id":929154,"name":"On or near Woburn Road"},"longitude":"-0.174215"},"context":"","outcome_status":{"category":"Status update unavailable","date":"2018-03"},"persistent_id":"fb9a64a265823a9661a0882c610f6b062a9a596b5df46b48c57c3473ee60a660","id":61111631,"location_subtype":"","month":"2017-11"},{"category":"violent-crime","location_type":"Force","location":{"latitude":"51.387423","street":{"id":930354,"name":"On or near Middleton Road"},"longitude":"-0.181679"},"context":"","outcome_status":{"category":"Status update unavailable","date":"2018-03"},"persistent_id":"b1ffde5796af2f1f598755220126e723b516129637184025e20715f9d551c680","id":61063246,"location_subtype":"","month":"2017-11"},{"category":"violent-crime","location_type":"Force","location":{"latitude":"51.384047","street":{"id":929165,"name":"On or near Titchfield Walk"},"longitude":"-0.177386"},"context":"","outcome_status":{"category":"Investigation complete; no suspect identified","date":"2018-04"},"persistent_id":"15f285fe297c62ea3388fb97f866def4a191eb7562111380e10c95d8ed33d1fe","id":61041375,"location_subtype":"","month":"2017-11"},{"category":"violent-crime","location_type":"Force","location":{"latitude":"51.380554","street":{"id":924063,"name":"On or near Wrythe Lane"},"longitude":"-0.182957"},"context":"","outcome_status":{"category":"Investigation complete; no suspect identified","date":"2017-12"},"persistent_id":"cfc802e6b3a8aa94cdd7b0caa20c664340ad34eb6dae7a35b18d8d5551e56814","id":61033204,"location_subtype":"","month":"2017-11"}]