[{"category":"anti-social-behaviour","location_type":"Force","location":{"latitude":"51.561076","street":{"id":972862,"name":"On or near Everard Way"},"longitude":"-0.298486"},"context":"","outcome_status":null,"persistent_id":"","id":46150741,"location_subtype":"","month":"2016-01"},{"category":"anti-social-behaviour","location_type":"BTP","location":{"latitude":"51.563500","street":{"id":1488654,"name":"Wembley Park"},"longitude":"-0.279654"},"context":"","outcome_status":null,"persistent_id":"","id":64795074,"location_subtype":"LU STATION","month":"2016-01"},{"category":"anti-social-behaviour","location_type":"Force","location":{"latitude":"51.567631","street":{"id":972795,"name":"On or near Strathcona Road"},"longitude":"-0.304720"},"context":"","outcome_status":null,"persistent_id":"","id":46150892,"location_subtype":"","month":"2016-01"},{"category":"anti-social-behaviour","location_type":"Force","location":{"latitude":"51.575735","street":{"id":974107,"name":"On or near Conway Gardens"},"longitude":"-0.310465"},"context":"","outcome_status":null,"persistent_id":"","id":46150903,"location_subtype":"","month":"2016-01"},{"category":"anti-social-behaviour","location_type":"BTP","location":{"latitude":"51.563500","street":{"id":1488654,"name":"Wembley Park"},"longitude":"-0.279654"},"context":"","outcome_status":null,"persistent_id":"","id":64795075,"location_subtype":"LU STATION","month":"2016-01"},{"category":"anti-social-behaviour","location_type":"Force","location":{"latitude":"51.570729","street":{"id":972855,"name":"On or near Supermarket"},"longitude":"-0.295110"},"context":"","outcome_status":null,"persistent_id":"","id":46150698,"location_subtype":"","month":"2016-01"},{"category":"anti-social-behaviour","location_type":"Force","location":{"latitude":"51.565693","street":{"id":972835,"name":"On or near Edison Drive"},"longitude":"-0.296900"},"context":"","outcome_status":null,"persistent_id":"","id":46150734,"location_subtype":"","month":"2016-01"},{"category":"anti-social-behaviour","location_type":"Force","location":{"latitude":"51.563923","street":{"id":972726,"name":"On or near Crown Walk"},"longitude":"-0.285929"},"context":"","outcome_status":null,"persistent_id":"","id":46151380,"location_subtype":"","month":"2016-01"},{"category":"anti-social-behaviour","location_type":"Force","location":{"latitude":"51.567215","street":{"id":972828,"name":"On or near Preston Road"},"longitude":"-0.294607"},"context":"","outcome_status":null,"persistent_id":"","id":46150696,"location_subtype":"","month":"2016-01"},{"category":"anti-social-behaviour","location_type":"Force","location":{"latitude":"51.565820","street":{"id":972728,"name":"On or near Bowling Green Court"},"longitude":"-0.285872"},"context":"","outcome_status":null,"persistent_id":"","id":46151855,"location_subtype":"","month":"2016-01"},{"category":"anti-social-behaviour","location_type":"Force","location":{"latitude":"51.560809","street":{"id":972782,"name":"On or near Wembley Hill Road"},"longitude":"-0.291874"},"context":"","outcome_status":null,"persistent_id":"","id":46150675,"location_subtype":"","month":"2016-01"},{"category":"anti-social-behaviour","location_type":"Force","location":{"latitude":"51.563923","street":{"id":972726,"name":"On or near Crown Walk"},"longitude":"-0.285929"},"context":"","outcome_status":null,"persistent_id":"","id":46151381,"location_subtype":"","month":"2016-01"},{"category":"anti-social-behaviour","location_type":"Force","location":{"latitude":"51.563110","street":{"id":972839,"name":"On or near Blenheim Gardens"},"longitude":"-0.293678"},"context":"","outcome_status":null,"persistent_id":"","id":46150674,"location_subtype":"","month":"2016-01"},{"category":"anti-social-behaviour","location_type":"Force","location":{"latitude":"51.559468","street":{"id":967034,"name":"On or near Meadow Way"},"longitude":"-0.299830"},"context":"","outcome_status":null,"persistent_id":"","id":46150753,"location_subtype":"","month":"2016-01"},{"category":"anti-social-behaviour","location_type":"Force","location":{"latitude":"51.563936","street":{"id":972830,"name":"On or near Main Drive"},"longitude":"-0.301669"},"context":"","outcome_status":null,"persistent_id":"","id":46150751,"location_subtype":"","month":"2016-01"},{"category":"anti-social-behaviour","location_type":"Force","location":{"latitude":"51.563025","street":{"id":972832,"name":"On or near Hirst Crescent"},"longitude":"-0.297707"},"context":"","outcome_status":null,"persistent_id":"","id":46150746,"location_subtype":"","month":"2016-01"},{"category":"anti-social-behaviour","location_type":"Force","location":{"latitude":"51.568816","street":{"id":972718,"name":"On or near Hillview Close"},"longitude":"-0.285355"},"context":"","outcome_status":null,"persistent_id":"","id":46151379,"location_subtype":"","month":"2016-01"},{"category":"bicycle-theft","location_type":"Force","location":{"latitude":"51.570717","street":{"id":972812,"name":"On or near Pedestrian Subway"},"longitude":"-0.308516"},"context":"","outcome_status":{"category":"Status update unavailable","date":"2016-05"},"persistent_id":"cf15520bbfdbd0d67dac02b9028896d00e5e935429902a4b3280da9f65103f12","id":46242947,"location_subtype":"","month":"2016-01"},{"category":"burglary","location_type":"Force","location":{"latitude":"51.563025","street":{"id":972832,"name":"On or near Hirst Crescent"},"longitude":"-0.297707"},"context":"","outcome_status":{"category":"Status update unavailable","date":"2016-05"},"persistent_id":"44667ed2bbe94d359b29fe075f79a444db7d65726f4b8963520d67821885e1ed","id":46173980,"location_subtype":"","month":"2016-01"},{"category":"burglary","location_type":"Force","location":{"latitude":"51.569412","street":{"id":972810,"name":"On or near Sports\/recreation Area"},"longitude":"-0.302850"},"context":"","outcome_status":{"category":"Investigation complete; no suspect identified","date":"2016-01"},"persistent_id":"bc6b082c7613eb1dd2db0b57b904ae87910d6da3c004d5dda5bb772db3a98803","id":46183064,"location_subtype":"","month":"2016-01"},{"category":"burglary","location_type":"Force","location":{"latitude":"51.567376","street":{"id":972829,"name":"On or near Pellatt Road"},"longitude":"-0.296404"},"context":"","outcome_status":{"category":"Status update unavailable","date":"2016-05"},"persistent_id":"f045cd26708abc7e38b4c8aa2fb4803db25ae862c41bfc7e8aa61aa4dd2cee5e","id":46186723,"location_subtype":"","month":"2016-01"},{"category":"burglary","location_type":"Force","location":{"latitude":"51.565820","street":{"id":972728,"name":"On or near Bowling Green Court"},"longitude":"-0.285872"},"context":"","outcome_status":{"category":"Status update unavailable","date":"2016-05"},"persistent_id":"b4afcab487e61e2d5f1d8fcb21a2219925d82149efe6fa62da29376539e8f231","id":46266494,"location_subtype":"","month":"2016-01"},{"category":"burglary","location_type":"Force","location":{"latitude":"51.563025","street":{"id":972832,"name":"On or near Hirst Crescent"},"longitude":"-0.297707"},"context":"","outcome_status":{"category":"Status update unavailable","date":"2016-05"},"persistent_id":"61ecf86a01d78867fcafbb625873a49487d4b90a6c19fa49c05ae48fc3c75673","id":46242100,"location_subtype":"","month":"2016-01"},{"category":"burglary","location_type":"Force","location":{"latitude":"51.570409","street":{"id":972822,"name":"On or near Allonby Gardens"},"longitude":"-0.306522"},"context":"","outcome_status":{"category":"Status update unavailable","date":"2016-05"},"persistent_id":"9244bce610662eafffc671669146dab1418d6bbfa4f8b538393f00f1aaee7b7f","id":46173978,"location_subtype":"","month":"2016-01"},{"category":"criminal-damage-arson","location_type":"Force","location":{"latitude":"51.566454","street":{"id":972842,"name":"On or near Sports\/recreation Area"},"longitude":"-0.299151"},"context":"","outcome_status":{"category":"Investigation complete; no suspect identified","date":"2016-01"},"persistent_id":"5d044ea09c8d8b5f36a9562aa390a0fa4f49ed8786271606510f679000988ad7","id":46234584,"location_subtype":"","month":"2016-01"},{"category":"criminal-damage-arson","location_type":"Force","location":{"latitude":"51.571022","street":{"id":972850,"name":"On or near College Road"},"longitude":"-0.300380"},"context":"","outcome_status":{"category":"Offender given a caution","date":"2016-02"},"persistent_id":"952ce20528e489587107045598a01b94a0a5b1b980dba4fcf083c6c687aaa97a","id":46248512,"location_subtype":"","month":"2016-01"},{"category":"criminal-damage-arson","location_type":"Force","location":{"latitude":"51.567701","street":{"id":923779,"name":"On or near Eskdale Close"},"longitude":"-0.304530"},"context":"","outcome_status":{"category":"Status update unavailable","date":"2016-05"},"persistent_id":"a3ff205c85887a6f2e5df64b63e70ba390695b8a12096b76885698aec9706e44","id":46232732,"location_subtype":"","month":"2016-01"},{"category":"criminal-damage-arson","location_type":"Force","location":{"latitude":"51.565693","street":{"id":972835,"name":"On or near Edison Drive"},"longitude":"-0.296900"},"context":"","outcome_status":{"category":"Status update unavailable","date":"2016-05"},"persistent_id":"f039f0ecbabca0155f60d46ff05311fa50d6e87d73b99d2c9ec3be8bd9184123","id":46231036,"location_subtype":"","month":"2016-01"},{"category":"criminal-damage-arson","location_type":"Force","location":{"latitude":"51.565820","street":{"id":972728,"name":"On or near Bowling Green Court"},"longitude":"-0.285872"},"context":"","outcome_status":{"category":"Status update unavailable","date":"2016-05"},"persistent_id":"4ec197e0e951787149d917ef29ae0380651f04b54eb391ef6d48f99f01d0264b","id":46270830,"location_subtype":"","month":"2016-01"},{"category":"criminal-damage-arson","location_type":"Force","location":{"latitude":"51.563025","street":{"id":972832,"name":"On or near Hirst Crescent"},"longitude":"-0.297707"},"context":"","outcome_status":{"category":"Status update unavailable","date":"2016-05"},"persistent_id":"ece49b99fd2e22bc26e33b2bee93172b313cc5932d554a02fc9559bed467720d","id":46183079,"location_subtype":"","month":"2016-01"},{"category":"drugs","location_type":"Force","location":{"latitude":"51.562326","street":{"id":972788,"name":"On or near Elmside Road"},"longitude":"-0.283075"},"context":"","outcome_status":{"category":"Offender given a drugs possession warning","date":"2016-01"},"persistent_id":"5006037321cb09b028a1628ccdd92bc193591e0ffd7270978f0930fdff87f826","id":46189346,"location_subtype":"","month":"2016-01"},{"category":"drugs","location_type":"Force","location":{"latitude":"51.563995","street":{"id":972727,"name":"On or near Brook Avenue"},"longitude":"-0.282824"},"context":"","outcome_status":{"category":"Offender given a drugs possession warning","date":"2016-01"},"persistent_id":"cbfdeb6cd9dff137ca58e281815005240e3af666a2d0bc8b5c8191a902a2d42e","id":46185374,"location_subtype":"","month":"2016-01"},{"category":"drugs","location_type":"Force","location":{"latitude":"51.563995","street":{"id":972727,"name":"On or near Brook Avenue"},"longitude":"-0.282824"},"context":"","outcome_status":{"category":"Offender given a drugs possession warning","date":"2016-01"},"persistent_id":"5ce34c8fe86a50314382f0a77356f919828b4198b62b6c3e9fab8a7b971d0dc0","id":46169036,"location_subtype":"","month":"2016-01"},{"category":"drugs","location_type":"Force","location":{"latitude":"51.570729","street":{"id":972855,"name":"On or near Supermarket"},"longitude":"-0.295110"},"context":"","outcome_status":{"category":"Offender given a drugs possession warning","date":"2016-01"},"persistent_id":"e926a609b967b4550f6233425698a1f20772908044fc86dca0747bd6f94d8071","id":46157004,"location_subtype":"","month":"2016-01"},{"category":"drugs","location_type":"Force","location":{"latitude":"51.570909","street":{"id":972856,"name":"On or near Supermarket"},"longitude":"-0.295118"},"context":"","outcome_status":{"category":"Offender given community sentence","date":"2016-02"},"persistent_id":"eb54491948a9087bca9c15388100a0d0de0f1b244acb658e87c115438883880e","id":46228419,"location_subtype":"","month":"2016-01"},{"category":"drugs","location_type":"Force","location":{"latitude":"51.565820","street":{"id":972728,"name":"On or near Bowling Green Court"},"longitude":"-0.285872"},"context":"","outcome_status":{"category":"Offender given penalty notice","date":"2016-01"},"persistent_id":"585410ff8b637e6d6867fb3467f88c2b25bfd2e43a558ed792e9f43e704fd8a0","id":46185658,"location_subtype":"","month":"2016-01"},{"category":"other-theft","location_type":"Force","location":{"latitude":"51.572339","street":{"id":972815,"name":"On or near Thirlmere Gardens"},"longitude":"-0.304444"},"context":"","outcome_status":{"category":"Investigation complete; no suspect identified","date":"2016-02"},"persistent_id":"4dc992c16f34897b4fb2cea8db5571dbaaf1c5aa85ee10cf308a11018dac1128","id":46272991,"location_subtype":"","month":"2016-01"},{"category":"other-theft","location_type":"Force","location":{"latitude":"51.570909","street":{"id":972856,"name":"On or near Supermarket"},"longitude":"-0.295118"},"context":"","outcome_status":{"category":"Investigation complete; no suspect identified","date":"2016-01"},"persistent_id":"cd2078a03dc9369172ae89b45cdd8fd1240cf5c5de27f92c69b67b4231c3d8f4","id":46234152,"location_subtype":"","month":"2016-01"},{"category":"other-theft","location_type":"Force","location":{"latitude":"51.566187","street":{"id":972732,"name":"On or near Sports\/recreation Area"},"longitude":"-0.291312"},"context":"","outcome_status":{"category":"Investigation complete; no suspect identified","date":"2016-02"},"persistent_id":"47be521a5b3d468a2fe956ffe7ac1c91a2d38984ce9159c6bde3dce947a5f717","id":46224986,"location_subtype":"","month":"2016-01"},{"category":"other-theft","location_type":"Force","location":{"latitude":"51.570909","street":{"id":972856,"name":"On or near Supermarket"},"longitude":"-0.295118"},"context":"","outcome_status":{"category":"Investigation complete; no suspect identified","date":"2016-01"},"persistent_id":"cc5e697ab3594913c91118dcb18dc1d7768e8e85d9536cfe61e3c15c4c9e8f27","id":46185948,"location_subtype":"","month":"2016-01"},{"category":"public-order","location_type":"Force","location":{"latitude":"51.563110","street":{"id":972839,"name":"On or near Blenheim Gardens"},"longitude":"-0.293678"},"context":"","outcome_status":{"category":"Investigation complete; no suspect identified","date":"2016-01"},"persistent_id":"ec6f683d69eecaead5777d93898d5f15cc5bb4bf5312b43b8cccc7719d7b99de","id":46271633,"location_subtype":"","month":"2016-01"},{"category":"public-order","location_type":"BTP","location":{"latitude":"51.563500","street":{"id":1488654,"name":"Wembley Park"},"longitude":"-0.279654"},"context":"","outcome_status":{"category":"Status update unavailable","date":"2016-05"},"persistent_id":"","id":64795078,"location_subtype":"LU STATION","month":"2016-01"},{"category":"public-order","location_type":"Force","location":{"latitude":"51.562382","street":{"id":972863,"name":"On or near East Lane"},"longitude":"-0.298005"},"context":"","outcome_status":{"category":"Investigation complete; no suspect identified","date":"2016-01"},"persistent_id":"a64baf6e076d697ec6222736ac78f585858291893d01d110ab41e1d1365587c8","id":46235178,"location_subtype":"","month":"2016-01"},{"category":"public-order","location_type":"BTP","location":{"latitude":"51.563500","street":{"id":1488654,"name":"Wembley Park"},"longitude":"-0.279654"},"context":"","outcome_status":{"category":"Status update unavailable","date":"2016-05"},"persistent_id":"","id":64795077,"location_subtype":"LU STATION","month":"2016-01"},{"category":"robbery","location_type":"Force","location":{"latitude":"51.570909","street":{"id":972856,"name":"On or near Supermarket"},"longitude":"-0.295118"},"context":"","outcome_status":{"category":"Status update unavailable","date":"2016-05"},"persistent_id":"40ba9e996a2c28323e87e31b9c6e7744125fd0eb7a2b02c5183583d4fc60d764","id":46270928,"location_subtype":"","month":"2016-01"},{"category":"robbery","location_type":"Force","location":{"latitude":"51.566187","street":{"id":972732,"name":"On or near Sports\/recreation Area"},"longitude":"-0.291312"},"context":"","outcome_status":{"category":"Status update unavailable","date":"2016-05"},"persistent_id":"17e1b706606171d0b3efab3737e71e50cd4186298ae5d1d95abcdedb54bc696e","id":46249078,"location_subtype":"","month":"2016-01"},{"category":"robbery","location_type":"Force","location":{"latitude":"51.570729","street":{"id":972847,"name":"On or near Longfield Avenue"},"longitude":"-0.296293"},"context":"","outcome_status":{"category":"Status update unavailable","date":"2016-05"},"persistent_id":"7804bee221d8946adbd6c1e19a2ed308b77105da0f827ee6b47b0959e0ef21b1","id":46233779,"location_subtype":"","month":"2016-01"},{"category":"robbery","location_type":"Force","location":{"latitude":"51.570729","street":{"id":972847,"name":"On or near Longfield Avenue"},"longitude":"-0.296293"},"context":"","outcome_status":{"category":"Status update unavailable","date":"2016-05"},"persistent_id":"7804bee221d8946adbd6c1e19a2ed308b77105da0f827ee6b47b0959e0ef21b1","id":46233780,"location_subtype":"","month":"2016-01"},{"category":"robbery","location_type":"Force","location":{"latitude":"51.570729","street":{"id":972855,"name":"On or near Supermarket"},"longitude":"-0.295110"},"context":"","outcome_status":{"category":"Investigation complete; no suspect identified","date":"2016-02"},"persistent_id":"92a8f5839319ed571267a996219021da637782adf9d128f243c4afd8d0c5ff38","id":46164638,"location_subtype":"","month":"2016-01"},{"category":"robbery","location_type":"Force","location":{"latitude":"51.568259","street":{"id":972840,"name":"On or near Aylands Close"},"longitude":"-0.294625"},"context":"","outcome_status":{"category":"Investigation complete; no suspect identified","date":"2016-02"},"persistent_id":"94ad521c175c66e25a6db871255e7e20517445c0f845229a7cc9def7504df3c1","id":46191808,"location_subtype":"","month":"2016-01"},{"category":"robbery","location_type":"Force","location":{"latitude":"51.570909","street":{"id":972856,"name":"On or near Supermarket"},"longitude":"-0.295118"},"context":"","outcome_status":{"category":"Status update unavailable","date":"2016-05"},"persistent_id":"40ba9e996a2c28323e87e31b9c6e7744125fd0eb7a2b02c5183583d4fc60d764","id":46270924,"location_subtype":"","month":"2016-01"},{"category":"robbery","location_type":"Force","location":{"latitude":"51.566187","street":{"id":972732,"name":"On or near Sports\/recreation Area"},"longitude":"-0.291312"},"context":"","outcome_status":{"category":"Investigation complete; no suspect identified","date":"2016-09"},"persistent_id":"17e1b706606171d0b3efab3737e71e50cd4186298ae5d1d95abcdedb54bc696e","id":46249079,"location_subtype":"","month":"2016-01"},{"category":"robbery","location_type":"Force","location":{"latitude":"51.566187","street":{"id":972732,"name":"On or near Sports\/recreation Area"},"longitude":"-0.291312"},"context":"","outcome_status":{"category":"Status update unavailable","date":"2016-05"},"persistent_id":"17e1b706606171d0b3efab3737e71e50cd4186298ae5d1d95abcdedb54bc696e","id":46249077,"location_subtype":"","month":"2016-01"},{"category":"robbery","location_type":"Force","location":{"latitude":"51.561416","street":{"id":972861,"name":"On or near Hutchinson Terrace"},"longitude":"-0.299628"},"context":"","outcome_status":{"category":"Investigation complete; no suspect identified","date":"2016-02"},"persistent_id":"4ac95945bb87f85140bd30f55c966126e5cfc703cc5c2bd87a06e5aafce43488","id":46238451,"location_subtype":"","month":"2016-01"},{"category":"robbery","location_type":"Force","location":{"latitude":"51.570729","street":{"id":972847,"name":"On or near Longfield Avenue"},"longitude":"-0.296293"},"context":"","outcome_status":{"category":"Investigation complete; no suspect identified","date":"2016-02"},"persistent_id":"7804bee221d8946adbd6c1e19a2ed308b77105da0f827ee6b47b0959e0ef21b1","id":46233781,"location_subtype":"","month":"2016-01"},{"category":"shoplifting","location_type":"Force","location":{"latitude":"51.567631","street":{"id":972795,"name":"On or near Strathcona Road"},"longitude":"-0.304720"},"context":"","outcome_status":{"category":"Status update unavailable","date":"2016-05"},"persistent_id":"16443594ed7c050e1bd433975dc759a0b6d98c5f003b799cedc97e08541c0d4f","id":46208507,"location_subtype":"","month":"2016-01"},{"category":"shoplifting","location_type":"Force","location":{"latitude":"51.570909","street":{"id":972856,"name":"On or near Supermarket"},"longitude":"-0.295118"},"context":"","outcome_status":{"category":"Offender given community sentence","date":"2016-02"},"persistent_id":"0f48f5c86fe37e90598ba362d29a365e85eb7d5d4c0fcbd6fa97e6468f89ae6b","id":46228592,"location_subtype":"","month":"2016-01"},{"category":"theft-from-the-person","location_type":"BTP","location":{"latitude":"51.563500","street":{"id":1488654,"name":"Wembley Park"},"longitude":"-0.279654"},"context":"","outcome_status":{"category":"Status update unavailable","date":"2016-05"},"persistent_id":"","id":64795079,"location_subtype":"LU STATION","month":"2016-01"},{"category":"theft-from-the-person","location_type":"Force","location":{"latitude":"51.557527","street":{"id":967025,"name":"On or near St John's Road"},"longitude":"-0.299975"},"context":"","outcome_status":{"category":"Status update unavailable","date":"2016-05"},"persistent_id":"8b55c89b2988f7a5e21b5c48ff32a94b36c660c0d53a771c72f4ab00a9eb8b10","id":46240378,"location_subtype":"","month":"2016-01"},{"category":"vehicle-crime","location_type":"Force","location":{"latitude":"51.563025","street":{"id":972832,"name":"On or near Hirst Crescent"},"longitude":"-0.297707"},"context":"","outcome_status":{"category":"Investigation complete; no suspect identified","date":"2016-02"},"persistent_id":"22e70bf684df30b598f992b0ba38b33feabbb10b6540882d2a6e46641e02c973","id":46238461,"location_subtype":"","month":"2016-01"},{"category":"vehicle-crime","location_type":"Force","location":{"latitude":"51.568515","street":{"id":972823,"name":"On or near Warren Close"},"longitude":"-0.299262"},"context":"","outcome_status":{"category":"Investigation complete; no suspect identified","date":"2016-01"},"persistent_id":"230d179ba42dd7c56cad9de4aec4c2e01e3c813807d184ca8deb05a696d47ebe","id":46231943,"location_subtype":"","month":"2016-01"},{"category":"vehicle-crime","location_type":"Force","location":{"latitude":"51.568515","street":{"id":972823,"name":"On or near Warren Close"},"longitude":"-0.299262"},"context":"","outcome_status":{"category":"Status update unavailable","date":"2016-05"},"persistent_id":"5572bcdf1e8dbce59bf8defcf066db01032e3e07bcd4b671dc2bac4aada4dd83","id":46232248,"location_subtype":"","month":"2016-01"},{"category":"vehicle-crime","location_type":"Force","location":{"latitude":"51.560734","street":{"id":967035,"name":"On or near Llanover Road"},"longitude":"-0.301601"},"context":"","outcome_status":{"category":"Status update unavailable","date":"2016-05"},"persistent_id":"8129187d90306ed8c7c221a4950f8c3a0ee7f40a46d95e67575d16791db7f1d5","id":46162634,"location_subtype":"","month":"2016-01"},{"category":"vehicle-crime","location_type":"Force","location":{"latitude":"51.563055","street":{"id":972843,"name":"On or near Further\/higher Educational Building"},"longitude":"-0.300418"},"context":"","outcome_status":{"category":"Investigation complete; no suspect identified","date":"2016-01"},"persistent_id":"441a50e36bd57e3d623cb6971f8857c686505433d8af583341dae82ab84b60ed","id":46234171,"location_subtype":"","month":"2016-01"},{"category":"vehicle-crime","location_type":"Force","location":{"latitude":"51.559468","street":{"id":967034,"name":"On or near Meadow Way"},"longitude":"-0.299830"},"context":"","outcome_status":{"category":"Status update unavailable","date":"2016-05"},"persistent_id":"69fa70321839b45a70f1e295b27eb7600a57ce6a4d1869f16d796df101a56259","id":46210283,"location_subtype":"","month":"2016-01"},{"category":"vehicle-crime","location_type":"Force","location":{"latitude":"51.572235","street":{"id":972814,"name":"On or near Windermere Avenue"},"longitude":"-0.308445"},"context":"","outcome_status":{"category":"Status update unavailable","date":"2016-05"},"persistent_id":"731cf100ff8ee898659f9a54fdd6f146b2938cf0178f1362cc1bd0f949534cc9","id":46267295,"location_subtype":"","month":"2016-01"},{"category":"vehicle-crime","location_type":"Force","location":{"latitude":"51.568307","street":{"id":972825,"name":"On or near Third Avenue"},"longitude":"-0.302300"},"context":"","outcome_status":{"category":"Status update unavailable","date":"2016-05"},"persistent_id":"e9e642e454572f9b212da1be00e97827417e4cf495e0284d79eeedd1fc7cb321","id":46271498,"location_subtype":"","month":"2016-01"},{"category":"vehicle-crime","location_type":"Force","location":{"latitude":"51.570909","street":{"id":972856,"name":"On or near Supermarket"},"longitude":"-0.295118"},"context":"","outcome_status":{"category":"Investigation complete; no suspect identified","date":"2016-01"},"persistent_id":"20f1950d46a876698f8e435175c505116ba699ad2dc73a7a2f011f5cf3fb3018","id":46172573,"location_subtype":"","month":"2016-01"},{"category":"vehicle-crime","location_type":"Force","location":{"latitude":"51.563055","street":{"id":972843,"name":"On or near Further\/higher Educational Building"},"longitude":"-0.300418"},"context":"","outcome_status":{"category":"Investigation complete; no suspect identified","date":"2016-01"},"persistent_id":"fdcd364974cc1c40d9f9d3074951ffc99ab76e88742e415c0abe0226946bc43b","id":46170536,"location_subtype":"","month":"2016-01"},{"category":"vehicle-crime","location_type":"Force","location":{"latitude":"51.565452","street":{"id":972729,"name":"On or near Petrol Station"},"longitude":"-0.286506"},"context":"","outcome_status":{"category":"Investigation complete; no suspect identified","date":"2016-02"},"persistent_id":"6b3e517a6316375863d910b4fb3153a1c5218a55543dc7ef34f25aedd06e186e","id":46241683,"location_subtype":"","month":"2016-01"},{"category":"violent-crime","location_type":"Force","location":{"latitude":"51.563025","street":{"id":972832,"name":"On or near Hirst Crescent"},"longitude":"-0.297707"},"context":"","outcome_status":{"category":"Investigation complete; no suspect identified","date":"2016-02"},"persistent_id":"5d5c7b0a5943c83b002f2b4aea084ad830021a5e3a5be1233bc9f7fca9e1c994","id":46272995,"location_subtype":"","month":"2016-01"},{"category":"violent-crime","location_type":"Force","location":{"latitude":"51.571568","street":{"id":972845,"name":"On or near Woodford Place"},"longitude":"-0.297763"},"context":"","outcome_status":{"category":"Status update unavailable","date":"2016-05"},"persistent_id":"39d8ce467811dd9e32cc44cba5ecd6ea00e1ed48f33ed5dfba8e6257c963c154","id":46231043,"location_subtype":"","month":"2016-01"},{"category":"violent-crime","location_type":"Force","location":{"latitude":"51.561781","street":{"id":972860,"name":"On or near Pembroke Road"},"longitude":"-0.301230"},"context":"","outcome_status":{"category":"Investigation complete; no suspect identified","date":"2016-01"},"persistent_id":"3a77f0ab3cadfe9980c087d37fe3c8dd2f07f4c219e6410290264085b87ea978","id":46160542,"location_subtype":"","month":"2016-01"},{"category":"violent-crime","location_type":"Force","location":{"latitude":"51.563602","street":{"id":972714,"name":"On or near Talisman Way"},"longitude":"-0.290370"},"context":"","outcome_status":{"category":"Offender sent to prison","date":"2016-02"},"persistent_id":"54aa2232165059d1be5841560135c51bd85b22a6f3dcdc3673eedf31519a1745","id":46265560,"location_subtype":"","month":"2016-01"},{"category":"violent-crime","location_type":"Force","location":{"latitude":"51.558507","street":{"id":967022,"name":"On or near The Glen"},"longitude":"-0.299303"},"context":"","outcome_status":{"category":"Investigation complete; no suspect identified","date":"2016-01"},"persistent_id":"f842da5637cb43afd04d62877e0b149af8d43a3b107766b383efab295d8437e1","id":46189337,"location_subtype":"","month":"2016-01"},{"category":"violent-crime","location_type":"Force","location":{"latitude":"51.560809","street":{"id":972782,"name":"On or near Wembley Hill Road"},"longitude":"-0.291874"},"context":"","outcome_status":{"category":"Status update unavailable","date":"2016-05"},"persistent_id":"80a2b1f0a613cc560fbe332e8e7ff895c7180464db9e1e852de42de5ad8e4b62","id":46270976,"location_subtype":"","month":"2016-01"},{"category":"violent-crime","location_type":"BTP","location":{"latitude":"51.563500","street":{"id":1488654,"name":"Wembley Park"},"longitude":"-0.279654"},"context":"","outcome_status":{"category":"Status update unavailable","date":"2016-05"},"persistent_id":"","id":64795076,"location_subtype":"LU STATION","month":"2016-01"},{"category":"violent-crime","location_type":"Force","location":{"latitude":"51.573889","street":{"id":972853,"name":"On or near Sports\/recreation Area"},"longitude":"-0.299696"},"context":"","outcome_status":{"category":"Status update unavailable","date":"2016-05"},"persistent_id":"e122d59339f153b8adc7fb3133210f4498a22534085771a0bb35bebeaf892e81","id":46219858,"location_subtype":"","month":"2016-01"},{"category":"violent-crime","location_type":"Force","location":{"latitude":"51.570909","street":{"id":972856,"name":"On or near Supermarket"},"longitude":"-0.295118"},"context":"","outcome_status":{"category":"Investigation complete; no suspect identified","date":"2016-02"},"persistent_id":"55186af803a98c935aefbdd1735bdefd30a70059c24ada3c0bc4bb84cac43593","id":46171150,"location_subtype":"","month":"2016-01"},{"category":"violent-crime","location_type":"Force","location":{"latitude":"51.568816","street":{"id":972718,"name":"On or near Hillview Close"},"longitude":"-0.285355"},"context":"","outcome_status":{"category":"Investigation complete; no suspect identified","date":"2016-01"},"persistent_id":"750ccd6325b3015309ab60bfc8ed5f01e048ad2783f429a5e89531e120ec3e4b","id":46159430,"location_subtype":"","month":"2016-01"},{"category":"violent-crime","location_type":"Force","location":{"latitude":"51.563995","street":{"id":972727,"name":"On or near Brook Avenue"},"longitude":"-0.282824"},"context":"","outcome_status":{"category":"Court result unavailable","date":"2016-10"},"persistent_id":"684667115ef4023785c3977b6f870a6b790aaa7bf68b419a27c5fd092311b8ac","id":46272520,"location_subtype":"","month":"2016-01"},{"category":"violent-crime","location_type":"Force","location":{"latitude":"51.563025","street":{"id":972832,"name":"On or near Hirst Crescent"},"longitude":"-0.297707"},"context":"","outcome_status":{"category":"Offender given a caution","date":"2016-02"},"persistent_id":"6e0b2ec28718b0f30a34199d3738c32512045e8122302ce95c7f3e6f597cdbbe","id":46218598,"location_subtype":"","month":"2016-01"},{"category":"violent-crime","location_type":"Force","location":{"latitude":"51.564591","street":{"id":972722,"name":"On or near Forty Avenue"},"longitude":"-0.289136"},"context":"","outcome_status":{"category":"Offender sent to prison","date":"2016-02"},"persistent_id":"8000edb10d9f5110c7661f649b21ccbb6b24723215333fe1eb31fba2bb0dea9d","id":46234036,"location_subtype":"","month":"2016-01"},{"category":"violent-crime","location_type":"Force","location":{"latitude":"51.563905","street":{"id":972826,"name":"On or near St Augustine's Avenue"},"longitude":"-0.295163"},"context":"","outcome_status":{"category":"Investigation complete; no suspect identified","date":"2016-02"},"persistent_id":"01be8c7ba9c92aa84624e663206a06533e68e8644c2ea31d0251a33c64c08af0","id":46272813,"location_subtype":"","month":"2016-01"},{"category":"violent-crime","location_type":"Force","location":{"latitude":"51.576772","street":{"id":974075,"name":"On or near Windermere Avenue"},"longitude":"-0.308147"},"context":"","outcome_status":{"category":"Investigation complete; no suspect identified","date":"2016-02"},"persistent_id":"9b23da2a2bb9e675b0e773adfc01254cc8c92328d6fc7df4f67276e51675ee76","id":46185672,"location_subtype":"","month":"2016-01"},{"category":"violent-crime","location_type":"Force","location":{"latitude":"51.565452","street":{"id":972729,"name":"On or near Petrol Station"},"longitude":"-0.286506"},"context":"","outcome_status":{"category":"Investigation complete; no suspect identified","date":"2016-01"},"persistent_id":"3a9c535d9f4febef32583abd37dfa5fc23880e49c11aa4b07e7d5f8df2351f65","id":46234638,"location_subtype":"","month":"2016-01"},{"category":"violent-crime","location_type":"Force","location":{"latitude":"51.563995","street":{"id":972727,"name":"On or near Brook Avenue"},"longitude":"-0.282824"},"context":"","outcome_status":{"category":"Defendant found not guilty","date":"2017-05"},"persistent_id":"9b74545a64f93691fd9d2dc06cb10e0363c4f2e207f0db2ba18a59b5e5c809cd","id":46270558,"location_subtype":"","month":"2016-01"},{"category":"violent-crime","location_type":"Force","location":{"latitude":"51.571568","street":{"id":972845,"name":"On or near Woodford Place"},"longitude":"-0.297763"},"context":"","outcome_status":{"category":"Status update unavailable","date":"2016-05"},"persistent_id":"4351e72d10bcff5bec4d993cbf0bcd101eff6a6cf213c3bffbb219835463a931","id":46211873,"location_subtype":"","month":"2016-01"},{"category":"violent-crime","location_type":"Force","location":{"latitude":"51.572339","street":{"id":972815,"name":"On or near Thirlmere Gardens"},"longitude":"-0.304444"},"context":"","outcome_status":{"category":"Investigation complete; no suspect identified","date":"2016-04"},"persistent_id":"b84acbda8f8ab6d9e2cacea9ba179202c010448dd708a85fbedf77566d129ee5","id":46204803,"location_subtype":"","month":"2016-01"},{"category":"violent-crime","location_type":"Force","location":{"latitude":"51.558507","street":{"id":967022,"name":"On or near The Glen"},"longitude":"-0.299303"},"context":"","outcome_status":{"category":"Investigation complete; no suspect identified","date":"2016-08"},"persistent_id":"71e8b0d58c480a716d9c02ecb175a96a18ca5e5a9f4674c3fc348c452209c309","id":46204597,"location_subtype":"","month":"2016-01"},{"category":"violent-crime","location_type":"Force","location":{"latitude":"51.563995","street":{"id":972727,"name":"On or near Brook Avenue"},"longitude":"-0.282824"},"context":"","outcome_status":{"category":"Investigation complete; no suspect identified","date":"2016-02"},"persistent_id":"a614aa31153638ef8b8150bbf5746ba99290a367bb1216596ed292f69615b614","id":46271660,"location_subtype":"","month":"2016-01"},{"category":"violent-crime","location_type":"Force","location":{"latitude":"51.571568","street":{"id":972845,"name":"On or near Woodford Place"},"longitude":"-0.297763"},"context":"","outcome_status":{"category":"Investigation complete; no suspect identified","date":"2016-02"},"persistent_id":"92720073142c885e72e5f2769f0f119b6f64258531998e7479772123579df3a9","id":46271363,"location_subtype":"","month":"2016-01"},{"category":"other-crime","location_type":"Force","location":{"latitude":"51.568192","street":{"id":972809,"name":"On or near Loweswater Close"},"longitude":"-0.303718"},"context":"","outcome_status":{"category":"Investigation complete; no suspect identified","date":"2016-02"},"persistent_id":"ec42c41bef44421c0d5abe2431a138e82d4eedc3e14162405e41f91baaefaa3a","id":46171148,"location_subtype":"","month":"2016-01"}]